     2.11           OBSERVATION DATA    M (MIXED)           RINEX VERSION / TYPE
teqc  2019Feb25                         20230328 06:40:06UTCPGM / RUN BY / DATE 
gfzrnx-2.00-8219    FILE PROCESSING     20230328 065332 UTC COMMENT             
TLSE                                                        MARKER NAME         
10003M009                                                   MARKER NUMBER       
Automatic           CNES                                    OBSERVER / AGENCY   
6139R40106          TRIMBLE ALLOY       6.14                REC # / TYPE / VERS 
5129354206          TRM59800.00     NONE                    ANT # / TYPE        
        1.0530        0.0000        0.0000                  ANTENNA: DELTA H/E/N
  4627852.0570   119639.7550  4372993.3100                  APPROX POSITION XYZ 
    20    C1    C5    C6    C7    C8    D1    L1    L2    L5# / TYPES OF OBSERV 
          L6    L7    L8    P1    P2    S1    S2    S5    S6# / TYPES OF OBSERV 
          S7    S8                                          # / TYPES OF OBSERV 
Linux 2.6.32-573.12.1.x86_64|x86_64|gcc|Linux 64|=+         COMMENT             
teqc  2019Feb25                         20230328 06:40:02UTCCOMMENT             
teqc  2019Feb25     IGN-RGP             20230101 01:06:21UTCCOMMENT             
teqc  2019Feb25                         20230101 01:01:23UTCCOMMENT             
Linux 2.6.32-573.12.1.x86_64|x86_64|gcc -static|Linux 64|=+ COMMENT             
teqc  2019Feb25     CNES                20230101 01:01:19UTCCOMMENT             
teqc  2019Feb25                         20230101 01:01:18UTCCOMMENT             
  1.0530      (antenna height)                              COMMENT             
 +43.56069179 (latitude)                                    COMMENT             
  +1.48088713 (longitude)                                   COMMENT             
0207.190      (elevation)                                   COMMENT             
BIT 2 OF LLI FLAGS DATA COLLECTED UNDER A/S CONDITION       COMMENT             
10003M009 (COGO code)                                       COMMENT             
     1     1                                                WAVELENGTH FACT L1/2
    18                                                      LEAP SECONDS        
 SNR is mapped to RINEX snr flag value [0-9]                COMMENT             
  L1 & L2: min(max(int(snr_dBHz/6), 0), 9)                  COMMENT             
teqc edited: all Beidou satellites excluded                 COMMENT             
teqc edited: all QZSS satellites excluded                   COMMENT             
teqc edited: all IRNSS satellites excluded                  COMMENT             
teqc_2019 edited: GLONASS # 25 - 30 excluded                COMMENT             
GFZRNX.NUM_EPOCHS: 10                                       COMMENT
    33                                                      # OF SATELLITES     
   E02    10    10    10    10    10    10    10          10PRN / # OF OBS      
          10    10    10                10          10    10PRN / # OF OBS      
          10    10                                          PRN / # OF OBS      
   E04    10    10    10    10    10    10    10          10PRN / # OF OBS      
          10    10    10                10          10    10PRN / # OF OBS      
          10    10                                          PRN / # OF OBS      
   E10    10    10    10    10    10    10    10          10PRN / # OF OBS      
          10    10    10                10          10    10PRN / # OF OBS      
          10    10                                          PRN / # OF OBS      
   E11    10    10    10    10    10    10    10          10PRN / # OF OBS      
          10    10    10                10          10    10PRN / # OF OBS      
          10    10                                          PRN / # OF OBS      
   E12    10    10    10    10    10    10    10          10PRN / # OF OBS      
          10    10    10                10          10    10PRN / # OF OBS      
          10    10                                          PRN / # OF OBS      
   E19    10    10    10    10    10    10    10          10PRN / # OF OBS      
          10    10    10                10          10    10PRN / # OF OBS      
          10    10                                          PRN / # OF OBS      
   E24    10    10    10    10    10    10    10          10PRN / # OF OBS      
          10    10    10                10          10    10PRN / # OF OBS      
          10    10                                          PRN / # OF OBS      
   E25    10    10    10    10    10    10    10          10PRN / # OF OBS      
          10    10    10                10          10    10PRN / # OF OBS      
          10    10                                          PRN / # OF OBS      
   E33    10    10    10    10    10    10    10          10PRN / # OF OBS      
          10    10    10                10          10    10PRN / # OF OBS      
          10    10                                          PRN / # OF OBS      
   G01    10    10                      10    10    10    10PRN / # OF OBS      
                                  10    10    10    10      PRN / # OF OBS      
                                                            PRN / # OF OBS      
   G03    10    10                      10    10    10    10PRN / # OF OBS      
                                  10    10    10    10      PRN / # OF OBS      
                                                            PRN / # OF OBS      
   G08    10    10                      10    10    10    10PRN / # OF OBS      
                                  10    10    10    10      PRN / # OF OBS      
                                                            PRN / # OF OBS      
   G10    10    10                      10    10    10    10PRN / # OF OBS      
                                  10    10    10    10      PRN / # OF OBS      
                                                            PRN / # OF OBS      
   G14    10    10                      10    10    10    10PRN / # OF OBS      
                                  10    10    10    10      PRN / # OF OBS      
                                                            PRN / # OF OBS      
   G17    10                            10    10    10      PRN / # OF OBS      
                                  10    10    10            PRN / # OF OBS      
                                                            PRN / # OF OBS      
   G21    10                            10    10    10      PRN / # OF OBS      
                                  10    10    10            PRN / # OF OBS      
                                                            PRN / # OF OBS      
   G22    10                            10    10    10      PRN / # OF OBS      
                                  10    10    10            PRN / # OF OBS      
                                                            PRN / # OF OBS      
   G27    10    10                      10    10    10    10PRN / # OF OBS      
                                  10    10    10    10      PRN / # OF OBS      
                                                            PRN / # OF OBS      
   G32    10    10                      10    10    10    10PRN / # OF OBS      
                                  10    10    10    10      PRN / # OF OBS      
                                                            PRN / # OF OBS      
   R01    10                            10    10    10      PRN / # OF OBS      
                            10    10    10    10            PRN / # OF OBS      
                                                            PRN / # OF OBS      
   R06    10                            10    10            PRN / # OF OBS      
                            10          10                  PRN / # OF OBS      
                                                            PRN / # OF OBS      
   R07    10                            10    10    10      PRN / # OF OBS      
                            10    10    10    10            PRN / # OF OBS      
                                                            PRN / # OF OBS      
   R08    10                            10    10    10      PRN / # OF OBS      
                            10    10    10    10            PRN / # OF OBS      
                                                            PRN / # OF OBS      
   R14    10                            10    10    10      PRN / # OF OBS      
                            10    10    10    10            PRN / # OF OBS      
                                                            PRN / # OF OBS      
   R15    10                            10    10    10      PRN / # OF OBS      
                            10    10    10    10            PRN / # OF OBS      
                                                            PRN / # OF OBS      
   R21    10                            10    10    10      PRN / # OF OBS      
                            10    10    10    10            PRN / # OF OBS      
                                                            PRN / # OF OBS      
   R22    10                            10    10    10      PRN / # OF OBS      
                            10    10    10    10            PRN / # OF OBS      
                                                            PRN / # OF OBS      
   R23    10                            10    10            PRN / # OF OBS      
                            10          10                  PRN / # OF OBS      
                                                            PRN / # OF OBS      
   R24    10                            10    10    10      PRN / # OF OBS      
                            10    10    10    10            PRN / # OF OBS      
                                                            PRN / # OF OBS      
   S23    10    10                      10    10          10PRN / # OF OBS      
                                        10          10      PRN / # OF OBS      
                                                            PRN / # OF OBS      
   S26    10                            10    10            PRN / # OF OBS      
                                        10                  PRN / # OF OBS      
                                                            PRN / # OF OBS      
   S36    10    10                      10    10          10PRN / # OF OBS      
                                        10          10      PRN / # OF OBS      
                                                            PRN / # OF OBS      
   S48    10                            10    10            PRN / # OF OBS      
                                        10                  PRN / # OF OBS      
                                                            PRN / # OF OBS      
     1.000                                                  INTERVAL            
  2023     1     1     1     0    0.0000000     GPS         TIME OF FIRST OBS   
  2023     1     1     1     0    9.0000000     GPS         TIME OF LAST OBS    
                                                            END OF HEADER      
 23 01 01 01 00 00.0000000  0 33E02E04E10E11E12E19E24E25E33G01G03G08
                                G10G14G17G21G22G27G32R01R06R07R08R14
                                R15R21R22R23R24S23S26S36S48
  27711360.805    27711361.945    27711354.758    27711359.484    27711362.117  
      1155.410   145624186.831 6                 108745334.186 6 118201426.255 7
 111582160.518 6 110163756.644 7                                        39.000  
                        39.500          43.600          40.400          44.000  
  26044754.617    26044755.527    26044747.801    26044753.434    26044755.664  
      2888.035   136866194.515 7                 102205324.198 7 111092698.913 7
 104871528.632 7 103538439.714 8                                        45.500  
                        47.400          47.600          46.700          50.800  
  23637638.289    23637639.980    23637632.863    23637637.457    23637639.758  
       387.063   124216682.954 8                  92759253.713 8 100825234.021 9
  95179046.709 8  93969156.005 9                                        52.700  
                        53.200          57.300          53.100          56.800  
  24419097.281    24419095.793    24419087.828    24419093.621    24419095.727  
      1470.625   128323237.110 7                  95825789.183 7 104158433.602 8
  98325574.467 7  97075708.621 8                                        46.300  
                        45.500          50.800          45.600          48.500  
  23870557.352    23870556.352    23870547.805    23870554.012    23870556.230  
      -728.215   125440651.593 8                  93673226.265 8 101818683.024 8
  96116865.108 8  94895051.485 8                                        48.500  
                        50.200          53.600          50.300          53.800  
  25962575.703    25962576.883    25962568.730    25962574.273    25962576.609  
       473.215   136434268.344 7                 101882738.749 7 110742076.017 7
 104540540.437 7 103211644.887 8                                        45.700  
                        45.300          47.400          45.400          49.100  
  27356689.445    27356691.578    27356684.023    27356688.520    27356691.008  
     -2874.504   143760377.752 7                 107353529.714 7 116688587.173 7
 110154043.030 7 108753795.158 7                                        42.300  
                        43.800          45.800          43.300          47.800  
  26305927.469    26305930.488    26305920.629    26305927.719    26305930.258  
     -1133.684   138238575.834 7                 103230111.632 7 112206604.267 8
 105923061.703 7 104576592.464 8                                        43.800  
                        45.500          48.600          45.100          49.900  
  27424979.617    27424981.453    27424973.969    27424978.039    27424980.934  
     -2152.965   144119488.846 6                 107621848.572 7 116980183.150 7
 110429344.788 6 109025602.476 7                                        41.800  
                        43.000          44.500          40.800          46.200  
  20520514.852    20520518.117                                                  
      1305.738   107836021.757 8  84028127.02747  80526943.833 9                
                                                  20520522.281          50.300  
        44.400          54.800                                                  
  22153792.391    22153797.512                                                  
      2893.961   116418850.236 7  90716129.57046  86936289.223 8                
                                                  22153799.180          45.600  
        36.800          51.000                                                  
  21423687.789    21423691.430                                                  
     -2415.965   112582183.708 8  87726475.69348  84071191.636 9                
                                                  21423694.742          50.300  
        53.200          54.100                                                  
  24660496.438    24660499.125                                                  
     -3303.219   129592005.133 6 100980961.91145  96773394.378 7                
                                                  24660503.441          39.700  
        34.200          43.400                                                  
  23210339.656    23210345.488                                                  
       209.145   121971159.630 6  95042479.44744  91082380.155 8                
                                                  23210343.789          40.600  
        29.600          48.000                                                  
  24664643.984                                                                  
      3264.570   129613504.762 5 100997610.56343                                
                                                  24664648.305          35.500  
        21.300                                                                  
  20849350.555                                                                  
      -244.191   109564096.547 8  85374649.07647                                
                                                  20849353.770          49.600  
        43.700                                                                  
  22395421.156                                                                  
      1259.836   117688888.941 7  91705557.40245                                
                                                  22395426.266          46.000  
        33.500                                                                  
  23901028.969    23901033.191                                                  
     -3597.187   125600755.231 6  97870782.70446  93792824.252 7                
                                                  23901035.676          40.200  
        37.100          45.100                                                  
  22886634.016    22886636.758                                                  
      -651.168   120270075.542 7  93716997.90247  89812085.171 7                
                                                  22886640.199          45.400  
        45.500          47.800                                                  
  23550466.016                                                                  
      4547.586   125890756.008 6  97915064.508 5                                
                                  23550465.730    23550471.129          38.200  
        33.300                                                                  
  23607641.578                                                                  
     -4119.941   125974903.029 5                                                
                                  23607639.242                          31.100  
                                                                                
  20045508.289                                                                  
     -1479.008   107305268.385 8  83459651.464 8                                
                                  20045507.426    20045510.848          51.800  
        49.900                                                                  
  20023909.039                                                                  
      2510.426   107227210.538 8  83398997.581 8                                
                                  20023908.457    20023910.602          50.000  
        49.500                                                                  
  23167180.734                                                                  
      -843.520   123494301.449 6  96050983.802 6                                
                                  23167177.730    23167182.027          39.800  
        39.100                                                                  
  24466030.258                                                                  
      2060.574   130739054.413 6 101685942.972 6                                
                                  24466029.191    24466032.848          39.800  
        36.900                                                                  
  24088834.992                                                                  
     -3329.352   128904321.125 6 100258987.698 6                                
                                  24088833.266    24088837.609          39.900  
        36.500                                                                  
  20515993.578                                                                  
     -1841.980   109515815.886 8  85178996.708 8                                
                                  20515992.836    20515994.770          51.500  
        49.500                                                                  
  20055154.992                                                                  
      1879.227   107281797.818 8                                                
                                  20055154.094                          49.300  
                                                                                
  23371196.844                                                                  
      3476.508   124976285.028 7  97203792.372 6                                
                                  23371196.195    23371199.348          43.400  
        40.900                                                                  
  38478089.297    38478072.813                                                  
         4.363   202204883.211 7                 150994947.473 7                
                                                                        44.200  
                        42.300                                                  
  40286562.828                                                                  
       -78.723   211707143.361 5                                                
                                                                        33.300  
                                                                                
  37806291.094    37806275.207                                                  
        -0.238   198674587.317 7                 148360074.825 7                
                                                                        45.600  
                        46.300                                                  
  67108863.984                                                                  
       -32.492   400806448.394 6                                                
                                                                        39.800  
                                                                                
 23 01 01 01 00 01.0000000  0 33E02E04E10E11E12E19E24E25E33G01G03G08
                                G10G14G17G21G22G27G32R01R06R07R08R14
                                R15R21R22R23R24S23S26S36S48
  27711141.172    27711142.082    27711134.941    27711139.563    27711142.270  
      1155.043   145623031.530 6                 108744471.468 6 118200488.512 7
 111581275.282 6 110162882.667 7                                        38.600  
                        39.100          43.600          40.600          44.200  
  26044204.953    26044205.957    26044198.262    26044203.789    26044206.066  
      2888.020   136863306.417 7                 102203167.533 7 111090354.680 7
 104869315.683 7 103536254.906 8                                        45.300  
                        47.000          47.600          46.800          50.700  
  23637564.602    23637566.410    23637559.242    23637563.777    23637566.117  
       386.949   124216295.910 8                  92758964.688 8 100824919.861 9
  95178750.141 8  93968863.210 9                                        53.100  
                        53.000          57.300          53.100          56.800  
  24418817.281    24418815.809    24418808.031    24418813.754    24418815.855  
      1470.602   128321766.393 7                  95824690.910 7 104157239.840 8
  98324447.546 7  97074596.025 8                                        46.500  
                        45.900          50.800          46.100          48.600  
  23870695.859    23870694.953    23870686.305    23870692.680    23870694.797  
      -728.289   125441379.795 8                  93673770.052 8 101819274.099 8
  96117423.085 8  94895602.360 8                                        48.500  
                        50.100          53.600          50.200          53.900  
  25962485.570    25962486.840    25962478.867    25962484.188    25962486.605  
       472.809   136433795.325 7                 101882385.500 7 110741692.078 7
 104540177.992 7 103211287.042 8                                        45.700  
                        45.300          47.400          45.500          49.000  
  27357236.492    27357238.684    27357231.172    27357235.559    27357237.984  
     -2874.453   143763252.156 7                 107355676.178 7 116690920.287 7
 110156245.501 7 108755969.644 8                                        42.600  
                        43.700          45.900          43.500          48.000  
  26306143.141    26306146.316    26306136.266    26306143.465    26306146.023  
     -1134.117   138239709.695 7                 103230958.331 7 112207524.604 8
 105923930.490 7 104577450.212 8                                        44.200  
                        45.900          48.600          45.700          50.100  
  27425389.000    27425391.129    27425383.645    27425387.680    27425390.598  
     -2152.809   144121641.661 6                 107623456.211 7 116981930.558 7
 110430994.366 6 109027231.067 7                                        41.600  
                        43.100          44.500          41.100          46.500  
  20520266.164    20520269.656                                                  
      1306.008   107834716.051 8  84027109.59147  80525968.841 9                
                                                  20520273.684          50.300  
        43.200          54.500                                                  
  22153241.367    22153246.813                                                  
      2893.734   116415956.388 7  90713874.62446  86934128.227 8                
                                                  22153248.586          45.600  
        36.900          50.900                                                  
  21424147.703    21424151.199                                                  
     -2416.352   112584599.878 8  87728358.42348  84072995.926 8                
                                                  21424154.461          50.300  
        53.100          53.900                                                  
  24661124.766    24661127.633                                                  
     -3303.211   129595308.315 6 100983535.81845  96775861.032 7                
                                                  24661131.984          39.400  
        34.000          43.300                                                  
  23210299.594    23210305.656                                                  
       208.566   121970950.815 6  95042316.73545  91082224.202 7                
                                                  23210304.004          40.400  
        30.200          47.600                                                  
  24664022.375                                                                  
      3264.582   129610240.122 5 100995066.67843                                
                                                  24664027.129          34.700  
        22.000                                                                  
  20849396.742                                                                  
      -244.344   109564340.831 8  85374839.42347                                
                                                  20849400.293          49.000  
        43.900                                                                  
  22395181.719                                                                  
      1259.387   117687629.321 7  91704575.87645                                
                                                  22395186.488          46.100  
        33.400                                                                  
  23901713.625    23901717.652                                                  
     -3597.324   125604352.419 6  97873585.70546  93795510.478 7                
                                                  23901720.289          40.200  
        36.900          44.900                                                  
  22886757.992    22886760.754                                                  
      -651.816   120270727.051 7  93717505.57247  89812571.682 7                
                                                  22886764.063          44.900  
        45.300          47.600                                                  
  23549615.672                                                                  
      4547.582   125886208.358 6  97911527.455 5                                
                                  23549615.160    23549620.281          37.800  
        33.700                                                                  
  23608412.688                                                                  
     -4120.234   125979023.107 5                                                
                                  23608411.398                          31.100  
                                                                                
  20045784.672                                                                  
     -1479.699   107306747.760 8  83460802.088 8                                
                                  20045783.895    20045787.145          51.800  
        49.800                                                                  
  20023439.992                                                                  
      2509.742   107224700.449 8  83397045.299 8                                
                                  20023439.805    20023441.852          49.800  
        49.800                                                                  
  23167337.914                                                                  
      -844.227   123495145.265 6  96051640.082 6                                
                                  23167336.090    23167340.387          40.000  
        39.500                                                                  
  24465645.023                                                                  
      2060.020   130736994.111 6 101684340.485 6                                
                                  24465644.523    24465647.211          39.900  
        36.700                                                                  
  24089456.047                                                                  
     -3329.434   128907650.476 6 100261577.181 6                                
                                  24089455.137    24089459.711          39.800  
        36.500                                                                  
  20516338.656                                                                  
     -1842.262   109517657.992 8  85180429.460 8                                
                                  20516337.984    20516340.027          51.600  
        49.300                                                                  
  20054803.938                                                                  
      1878.973   107279918.672 8                                                
                                  20054802.832                          49.600  
                                                                                
  23370546.602                                                                  
      3476.598   124972808.359 7  97201088.309 6                                
                                  23370545.852    23370549.148          43.200  
        40.900                                                                  
  38478088.359    38478071.977                                                  
         4.461   202204878.734 7                 150994944.111 7                
                                                                        44.200  
                        42.600                                                  
  40286576.063                                                                  
       -78.937   211707222.053 5                                                
                                                                        33.100  
                                                                                
  37806290.891    37806275.266                                                  
        -0.094   198674587.418 7                 148360074.876 7                
                                                                        45.600  
                        45.900                                                  
  67108863.984                                                                  
       -32.379   400806480.695 6                                                
                                                                        39.900  
                                                                                
 23 01 01 01 00 02.0000000  0 33E02E04E10E11E12E19E24E25E33G01G03G08
                                G10G14G17G21G22G27G32R01R06R07R08R14
                                R15R21R22R23R24S23S26S36S48
  27710921.391    27710922.566    27710915.449    27710919.973    27710922.512  
      1154.523   145621876.701 6                 108743609.089 6 118199551.146 7
 111580390.394 6 110162009.037 7                                        38.700  
                        39.000          43.500          40.500          43.900  
  26043655.156    26043656.355    26043648.563    26043654.234    26043656.520  
      2887.781   136860418.491 7                 102201010.962 7 111088010.589 7
 104867102.856 7 103534070.207 8                                        45.100  
                        46.900          47.600          46.900          50.400  
  23637490.961    23637492.801    23637485.590    23637490.164    23637492.488  
       386.719   124215909.028 8                  92758675.780 8 100824605.835 9
  95178453.700 8  93968570.540 9                                        53.100  
                        53.300          57.300          53.300          57.200  
  24418537.664    24418536.035    24418528.133    24418533.867    24418536.020  
      1470.547   128320295.783 7                  95823592.735 7 104156046.164 8
  98323320.719 7  97073483.526 8                                        46.200  
                        45.900          50.800          45.900          48.500  
  23870834.383    23870833.586    23870825.090    23870831.176    23870833.398  
      -728.555   125442108.180 8                  93674313.978 8 101819865.322 8
  96117981.198 8  94896153.392 8                                        48.600  
                        49.800          53.600          50.500          53.900  
  25962395.758    25962397.012    25962388.785    25962394.332    25962396.684  
       472.195   136433322.757 7                 101882032.613 7 110741308.502 7
 104539815.898 7 103210929.555 8                                        45.700  
                        45.300          47.300          45.700          49.000  
  27357783.352    27357785.473    27357778.000    27357782.492    27357784.988  
     -2874.609   143766126.654 7                 107357822.722 7 116693253.488 7
 110158448.021 7 108758144.165 8                                        42.500  
                        43.700          45.900          43.800          48.200  
  26306358.914    26306362.160    26306352.336    26306359.277    26306361.863  
     -1134.602   138240843.990 7                 103231805.353 7 112208445.296 8
 105924799.625 7 104578308.292 8                                        43.500  
                        45.500          48.600          45.500          50.100  
  27425798.594    27425800.691    27425793.250    27425797.516    27425800.285  
     -2153.039   144123794.570 6                 107625063.877 7 116983678.055 7
 110432643.964 6 109028859.721 7                                        41.700  
                        43.200          44.600          41.200          46.400  
  20520017.984    20520021.266                                                  
      1305.043   107833410.722 8  84026092.50446  80524994.093 9                
                                                  20520025.461          51.200  
        39.600          54.400                                                  
  22152691.172    22152696.184                                                  
      2893.305   116413062.878 7  90711619.94246  86931967.503 8                
                                                  22152697.965          45.200  
        36.800          51.000                                                  
  21424607.594    21424611.074                                                  
     -2416.895   112587016.505 8  87730241.50948  84074800.540 8                
                                                  21424614.418          49.700  
        53.100          53.700                                                  
  24661753.570    24661756.184                                                  
     -3303.250   129598611.499 6 100986109.73045  96778327.714 7                
                                                  24661760.785          39.200  
        34.000          43.600                                                  
  23210260.023    23210266.043                                                  
       207.895   121970742.580 6  95042154.47144  91082068.712 7                
                                                  23210264.438          40.400  
        28.600          47.200                                                  
  24663401.813                                                                  
      3264.824   129606975.50715 100992522.82853                                
                                                  24663405.832          33.500  
        21.100                                                                  
  20849443.266                                                                  
      -244.738   109564585.348 8  85375029.95447                                
                                                  20849446.820          49.100  
        43.700                                                                  
  22394942.031                                                                  
      1258.781   117686370.235 7  91703594.77545                                
                                                  22394946.910          46.000  
        34.000                                                                  
  23902398.172    23902402.219                                                  
     -3597.637   125607949.797 6  97876388.86346  93798196.809 7                
                                                  23902404.938          39.800  
        36.900          44.900                                                  
  22886882.086    22886885.000                                                  
      -652.391   120271379.166 7  93718013.71447  89813058.659 7                
                                                  22886888.102          44.500  
        45.300          47.900                                                  
  23548765.172                                                                  
      4547.449   125881660.849 6  97907990.500 5                                
                                  23548764.480    23548769.527          38.100  
        33.800                                                                  
  23609185.281                                                                  
     -4120.379   125983143.395 5                                                
                                  23609183.805                          31.000  
                                                                                
  20046060.578                                                                  
     -1480.609   107308227.987 8  83461953.360 8                                
                                  20046060.395    20046063.723          51.800  
        49.800                                                                  
  20022971.375                                                                  
      2508.863   107222191.153 8  83395093.624 8                                
                                  20022971.188    20022973.246          50.100  
        49.900                                                                  
  23167496.797                                                                  
      -845.023   123495989.819 6  96052296.967 6                                
                                  23167494.652    23167498.797          39.900  
        39.400                                                                  
  24465259.578                                                                  
      2059.383   130734934.405 6 101682738.511 6                                
                                  24465258.738    24465261.738          39.800  
        36.400                                                                  
  24090078.367                                                                  
     -3329.648   128910979.965 6 100264166.796 6                                
                                  24090077.746    24090081.832          39.800  
        36.200                                                                  
  20516683.914                                                                  
     -1842.777   109519500.510 8  85181862.532 8                                
                                  20516683.195    20516685.191          51.700  
        49.400                                                                  
  20054452.664                                                                  
      1878.590   107278039.850 8                                                
                                  20054451.652                          49.600  
                                                                                
  23369896.547                                                                  
      3476.633   124969331.633 7  97198384.198 6                                
                                  23369895.570    23369898.941          43.200  
        40.800                                                                  
  38478087.016    38478071.141                                                  
         4.422   202204874.260 7                 150994940.775 7                
                                                                        44.700  
                        42.700                                                  
  40286597.016                                                                  
       -78.836   211707300.748 5                                                
                                                                        32.900  
                                                                                
  37806291.516    37806275.316                                                  
        -0.406   198674587.662 7                 148360074.959 7                
                                                                        45.700  
                        45.900                                                  
  67108863.984                                                                  
       -32.371   400806513.013 6                                                
                                                                        40.200  
                                                                                
 23 01 01 01 00 03.0000000  0 33E02E04E10E11E12E19E24E25E33G01G03G08
                                G10G14G17G21G22G27G32R01R06R07R08R14
                                R15R21R22R23R24S23S26S36S48
  27710701.445    27710702.836    27710695.594    27710700.219    27710702.824  
      1154.238   145620722.340 6                 108742747.102 6 118198614.163 7
 111579505.909 6 110161135.794 7                                        38.900  
                        39.300          43.400          40.900          43.800  
  26043105.813    26043106.898    26043099.121    26043104.676    26043106.992  
      2887.664   136857530.780 7                 102198854.550 7 111085666.668 7
 104864890.197 7 103531885.663 8                                        45.500  
                        47.100          47.700          46.600          50.300  
  23637417.414    23637419.176    23637412.008    23637416.637    23637418.914  
       386.555   124215522.379 8                  92758387.039 8 100824291.992 9
  95178157.432 8  93968278.037 9                                        52.500  
                        53.100          57.300          53.300          57.200  
  24418257.688    24418256.230    24418248.352    24418254.098    24418256.207  
      1470.332   128318825.372 7                  95822494.696 7 104154852.649 8
  98322194.036 7  97072371.165 8                                        46.400  
                        45.900          50.800          46.000          48.500  
  23870972.938    23870972.211    23870963.633    23870969.813    23870972.063  
      -728.680   125442836.787 8                  93674858.075 8 101820456.725 8
  96118539.472 8  94896704.570 8                                        48.600  
                        49.700          53.600          50.800          53.800  
  25962306.102    25962306.965    25962299.074    25962304.566    25962306.855  
       471.801   136432850.750 7                 101881680.161 7 110740925.374 7
 104539454.233 7 103210572.497 8                                        45.700  
                        45.300          47.400          45.500          48.800  
  27358330.516    27358332.543    27358325.125    27358329.434    27358332.016  
     -2874.691   143769001.273 7                 107359969.354 7 116695586.779 7
 110160650.669 7 108760318.798 7                                        42.200  
                        43.600          46.000          44.000          47.800  
  26306575.070    26306578.070    26306568.141    26306575.168    26306577.809  
     -1134.895   138241978.737 7                 103232652.755 7 112209366.358 8
 105925669.109 7 104579166.730 8                                        43.700  
                        45.700          48.600          45.100          50.200  
  27426208.430    27426210.281    27426202.992    27426207.238    27426210.020  
     -2153.129   144125947.593 6                 107626671.646 7 116985425.640 7
 110434293.668 6 109030488.464 7                                        41.500  
                        42.700          44.600          41.400          46.400  
  20519769.469    20519772.953                                                  
      1304.789   107832105.792 8  84025075.69546  80524019.640 9                
                                                  20519776.965          50.900  
        39.600          54.600                                                  
  22152140.531    22152145.656                                                  
      2892.883   116410169.816 7  90709365.61046  86929807.087 8                
                                                  22152147.488          45.100  
        36.800          51.400                                                  
  21425067.156    21425071.074                                                  
     -2417.344   112589433.636 8  87732124.98548  84076605.532 8                
                                                  21425074.297          49.700  
        53.200          53.900                                                  
  24662382.227    24662384.746                                                  
     -3303.336   129601914.811 6 100988683.73245  96780794.465 7                
                                                  24662389.383          39.600  
        33.400          43.300                                                  
  23210220.672    23210226.574                                                  
       207.219   121970535.083 6  95041992.78444  91081913.753 7                
                                                  23210225.020          40.500  
        29.300          46.600                                                  
  24662780.281                                                                  
      3264.441   129603711.16415 100989979.20853                                
                                                  24662784.477          33.400  
        21.100                                                                  
  20849489.883                                                                  
      -244.867   109564830.152 8  85375220.71347                                
                                                  20849493.348          49.100  
        43.700                                                                  
  22394702.141                                                                  
      1258.266   117685111.734 7  91702614.12745                                
                                                  22394707.414          45.300  
        33.600                                                                  
  23903082.781    23903086.813                                                  
     -3597.516   125611547.324 6  97879192.12646  93800883.291 7                
                                                  23903089.469          39.200  
        37.100          45.100                                                  
  22887006.445    22887009.180                                                  
      -652.914   120272031.954 7  93718522.37847  89813546.132 8                
                                                  22887012.402          44.600  
        45.300          48.000                                                  
  23547913.617                                                                  
      4547.406   125877113.490 6  97904453.658 5                                
                                  23547913.637    23547918.902          37.900  
        33.700                                                                  
  23609958.063                                                                  
     -4120.797   125987264.011 5                                                
                                  23609956.070                          31.400  
                                                                                
  20046337.625                                                                  
     -1481.426   107309709.085 8  83463105.329 8                                
                                  20046337.129    20046340.469          52.100  
        50.100                                                                  
  20022503.211                                                                  
      2508.148   107219682.683 8  83393142.590 8                                
                                  20022502.648    20022504.895          49.800  
        49.400                                                                  
  23167656.250                                                                  
      -845.687   123496835.223 6  96052954.480 6                                
                                  23167653.512    23167657.277          39.900  
        39.600                                                                  
  24464873.789                                                                  
      2058.695   130732875.436 6 101681137.099 6                                
                                  24464873.402    24464876.543          40.200  
        36.100                                                                  
  24090700.445                                                                  
     -3329.875   128914309.676 6 100266756.567 6                                
                                  24090700.070    24090704.227          39.600  
        36.600                                                                  
  20517029.344                                                                  
     -1843.191   109521343.497 8  85183295.950 8                                
                                  20517028.422    20517030.449          51.200  
        49.700                                                                  
  20054101.258                                                                  
      1878.250   107276161.408 8                                                
                                  20054100.359                          49.500  
                                                                                
  23369246.523                                                                  
      3476.695   124965854.947 7  97195680.099 6                                
                                  23369245.840    23369248.832          43.000  
        41.200                                                                  
  38478086.078    38478070.297                                                  
         4.379   202204869.855 7                 150994937.499 7                
                                                                        44.500  
                        42.800                                                  
  40286609.781                                                                  
       -78.789   211707379.522 5                                                
                                                                        33.300  
                                                                                
  37806291.672    37806275.418                                                  
        -0.277   198674587.937 7                 148360074.974 7                
                                                                        45.300  
                        46.300                                                  
  67108863.984                                                                  
       -32.398   400806545.389 6                                                
                                                                        40.500  
                                                                                
 23 01 01 01 00 04.0000000  0 33E02E04E10E11E12E19E24E25E33G01G03G08
                                G10G14G17G21G22G27G32R01R06R07R08R14
                                R15R21R22R23R24S23S26S36S48
  27710481.906    27710483.234    27710476.082    27710480.574    27710483.246  
      1153.805   145619568.374 6                 108741885.350 6 118197677.512 7
 111578621.689 6 110160262.808 7                                        39.000  
                        39.300          43.300          40.700          43.500  
  26042556.438    26042557.398    26042549.723    26042555.180    26042557.512  
      2887.449   136854643.210 7                 102196698.239 7 111083322.859 7
 104862677.635 7 103529701.236 8                                        45.600  
                        47.000          47.700          46.800          50.300  
  23637343.898    23637345.625    23637338.426    23637343.004    23637345.359  
       386.398   124215135.853 8                  92758098.417 8 100823978.258 9
  95177861.268 8  93967985.641 9                                        52.600  
                        53.300          57.300          53.100          57.500  
  24417977.836    24417976.473    24417968.457    24417974.266    24417976.391  
      1470.172   128317355.018 7                  95821396.707 7 104153659.181 8
  98321067.407 7  97071258.852 8                                        46.400  
                        46.100          50.800          46.100          48.500  
  23871111.695    23871110.789    23871102.332    23871108.469    23871110.727  
      -728.828   125443565.528 8                  93675402.256 8 101821048.232 8
  96119097.854 8  94897255.856 8                                        48.500  
                        49.800          53.600          50.800          53.800  
  25962216.430    25962217.305    25962209.289    25962214.719    25962217.121  
       471.320   136432379.207 7                 101881328.023 7 110740542.628 7
 104539092.905 7 103210215.757 8                                        45.700  
                        45.100          47.400          45.300          48.700  
  27358877.664    27358879.672    27358872.230    27358876.457    27358879.055  
     -2874.734   143771875.948 7                 107362116.005 7 116697920.120 7
 110162853.335 7 108762493.449 7                                        42.300  
                        43.700          46.000          43.800          47.700  
  26306790.758    26306794.281    26306784.266    26306791.184    26306793.828  
     -1135.402   138243113.928 7                 103233500.450 7 112210287.780 8
 105926538.940 7 104580025.483 8                                        43.800  
                        45.500          48.600          45.400          50.000  
  27426618.055    27426620.090    27426612.785    27426616.840    27426619.727  
     -2153.125   144128100.621 6                 107628279.434 7 116987173.225 7
 110435943.433 6 109032117.227 7                                        41.400  
                        42.700          44.500          41.200          46.700  
  20519521.172    20519524.711                                                  
      1304.441   107830801.185 8  84024059.11146  80523045.409 9                
                                                  20519528.656          51.500  
        39.900          54.400                                                  
  22151590.258    22151595.246                                                  
      2892.543   116407277.081 7  90707111.53146  86927646.931 8                
                                                  22151597.105          45.500  
        36.900          51.100                                                  
  21425527.227    21425531.109                                                  
     -2417.758   112591851.188 8  87734008.79148  84078410.849 8                
                                                  21425534.379          49.600  
        53.300          53.700                                                  
  24663010.609    24663013.359                                                  
     -3303.391   129605218.152 6 100991257.77545  96783261.254 7                
                                                  24663017.863          38.800  
        33.600          43.200                                                  
  23210181.297    23210187.129                                                  
       206.656   121970328.189 6  95041831.56544  91081759.258 7                
                                                  23210185.613          40.400  
        28.900          46.900                                                  
  24662159.047                                                                  
      3264.223   129600446.683 5 100987435.43443                                
                                                  24662163.230          34.000  
        20.600                                                                  
  20849536.727                                                                  
      -245.164   109565075.167 8  85375411.62947                                
                                                  20849539.906          49.100  
        43.600                                                                  
  22394462.867                                                                  
      1257.734   117683853.735 7  91701633.86145                                
                                                  22394467.953          45.800  
        32.900                                                                  
  23903768.023    23903771.410                                                  
     -3597.789   125615145.040 6  97881995.53846  93803569.874 7                
                                                  23903774.316          39.200  
        36.800          45.300                                                  
  22887130.617    22887133.539                                                  
      -653.617   120272685.343 7  93719031.51547  89814034.043 7                
                                                  22887136.582          44.500  
        45.300          47.900                                                  
  23547063.680                                                                  
      4547.215   125872566.213 6  97900916.898 5                                
                                  23547063.293    23547068.156          38.000  
        34.200                                                                  
  23610730.453                                                                  
     -4120.926   125991384.867 5                                                
                                  23610728.020                          31.600  
                                                                                
  20046614.438                                                                  
     -1482.246   107311190.982 8  83464257.918 8                                
                                  20046614.023    20046617.180          51.500  
        49.900                                                                  
  20022034.766                                                                  
      2507.449   107217174.952 8  83391192.120 8                                
                                  20022034.340    20022036.348          49.900  
        49.400                                                                  
  23167814.445                                                                  
      -846.508   123497681.349 6  96053612.603 6                                
                                  23167811.957    23167816.113          40.300  
        39.500                                                                  
  24464489.430                                                                  
      2057.980   130730817.110 6 101679536.192 5                                
                                  24464488.699    24464491.523          39.700  
        35.500                                                                  
  24091322.711                                                                  
     -3329.941   128917639.539 6 100269346.464 6                                
                                  24091322.266    24091326.461          40.400  
        36.700                                                                  
  20517374.508                                                                  
     -1843.574   109523186.865 8  85184729.696 8                                
                                  20517373.574    20517375.809          51.300  
        49.600                                                                  
  20053750.414                                                                  
      1877.934   107274283.286 8                                                
                                  20053749.219                          49.600  
                                                                                
  23368596.117                                                                  
      3476.797   124962378.153 7  97192975.923 6                                
                                  23368595.383    23368598.605          43.200  
        41.400                                                                  
  38478085.375    38478069.453                                                  
         4.422   202204865.401 7                 150994934.152 7                
                                                                        44.200  
                        43.200                                                  
  40286630.828                                                                  
       -78.781   211707458.234 5                                                
                                                                        33.400  
                                                                                
  37806291.766    37806275.430                                                  
        -0.145   198674588.085 7                 148360074.982 7                
                                                                        45.200  
                        46.100                                                  
  67108863.984                                                                  
       -32.371   400806577.722 6                                                
                                                                        40.500  
                                                                                
 23 01 01 01 00 05.0000000  0 33E02E04E10E11E12E19E24E25E33G01G03G08
                                G10G14G17G21G22G27G32R01R06R07R08R14
                                R15R21R22R23R24S23S26S36S48
  27710262.484    27710263.781    27710256.438    27710261.016    27710263.758  
      1153.223   145618414.908 6                 108741023.981 6 118196741.258 7
 111577737.858 6 110159390.227 7                                        39.300  
                        39.400          43.300          40.600          43.600  
  26042006.797    26042007.957    26042000.109    26042005.797    26042008.055  
      2887.281   136851755.803 7                 102194542.067 7 111080979.185 7
 104860465.220 7 103527516.941 8                                        45.100  
                        46.900          47.600          46.600          50.300  
  23637270.391    23637272.027    23637264.910    23637269.512    23637271.844  
       386.176   124214749.527 8                  92757809.922 8 100823664.682 9
  95177565.255 8  93967693.381 9                                        52.600  
                        53.100          57.300          53.400          56.800  
  24417698.078    24417696.637    24417688.793    24417694.563    24417696.625  
      1470.035   128315884.796 7                  95820298.816 7 104152465.817 8
  98319940.874 7  97070146.641 8                                        46.300  
                        45.700          50.800          46.100          48.600  
  23871250.344    23871249.555    23871240.953    23871247.262    23871249.441  
      -729.141   125444294.468 8                  93675946.600 8 101821639.904 8
  96119656.397 8  94897807.300 8                                        48.500  
                        49.900          53.600          50.800          53.900  
  25962126.805    25962127.645    25962119.754    25962125.148    25962127.480  
       470.758   136431908.161 7                 101880976.264 7 110740160.286 7
 104538731.976 7 103209859.422 8                                        45.900  
                        45.100          47.300          45.100          48.900  
  27359424.781    27359426.570    27359419.094    27359423.723    27359426.102  
     -2874.984   143774750.697 7                 107364262.740 7 116700253.516 7
 110165056.040 7 108764668.191 7                                        42.500  
                        43.700          46.000          44.100          47.800  
  26307006.930    26307010.320    26307000.188    26307007.375    26307009.926  
     -1135.809   138244249.542 7                 103234348.477 7 112211209.539 8
 105927409.088 7 104580884.574 8                                        44.100  
                        45.700          48.700          45.300          50.100  
  27427027.977    27427029.832    27427022.297    27427026.598    27427029.469  
     -2153.297   144130253.759 7                 107629887.291 7 116988920.901 7
 110437593.238 6 109033746.050 7                                        42.300  
                        42.500          44.500          41.300          46.300  
  20519273.094    20519276.469                                                  
      1304.008   107829496.920 8  84023042.79846  80522071.448 9                
                                                  20519280.641          51.600  
        40.400          54.300                                                  
  22151039.820    22151044.750                                                  
      2892.102   116404384.728 7  90704857.74746  86925487.057 8                
                                                  22151046.773          45.100  
        37.300          51.300                                                  
  21425987.617    21425991.184                                                  
     -2418.230   112594269.186 8  87735892.94848  84080216.495 8                
                                                  21425994.457          49.600  
        53.400          53.700                                                  
  24663639.742    24663641.941                                                  
     -3303.492   129608521.528 6 100993831.82445  96785728.060 7                
                                                  24663646.445          39.200  
        33.400          42.800                                                  
  23210141.891    23210147.945                                                  
       205.953   121970121.939 6  95041670.85044  91081605.236 7                
                                                  23210146.344          40.600  
        29.500          47.200                                                  
  24661538.125                                                                  
      3263.980   129597182.41515 100984891.85453                                
                                                  24661542.199          34.300  
        21.100                                                                  
  20849583.266                                                                  
      -245.461   109565320.436 8  85375602.75547                                
                                                  20849586.508          48.800  
        43.600                                                                  
  22394223.773                                                                  
      1257.113   117682596.284 7  91700654.03145                                
                                                  22394228.789          46.000  
        33.700                                                                  
  23904452.820    23904456.055                                                  
     -3597.992   125618742.887 6  97884799.05346  93806256.605 7                
                                                  23904458.988          39.300  
        37.200          45.100                                                  
  22887255.336    22887258.035                                                  
      -654.410   120273339.375 7  93719541.14447  89814522.453 7                
                                                  22887261.102          44.600  
        45.500          47.500                                                  
  23546213.055                                                                  
      4546.840   125868019.075 6  97897380.235 5                                
                                  23546212.371    23546217.527          37.300  
        34.300                                                                  
  23611502.438                                                                  
     -4121.289   125995505.948 5                                                
                                  23611500.094                          31.600  
                                                                                
  20046891.820                                                                  
     -1483.137   107312673.714 8  83465411.164 8                                
                                  20046891.004    20046894.387          51.600  
        49.600                                                                  
  20021567.141                                                                  
      2506.613   107214667.981 8  83389242.264 8                                
                                  20021566.398    20021568.262          49.800  
        49.500                                                                  
  23167972.992                                                                  
      -847.422   123498528.331 6  96054271.349 6                                
                                  23167971.227    23167975.012          40.300  
        39.200                                                                  
  24464104.484                                                                  
      2057.313   130728759.514 6 101677935.815 5                                
                                  24464102.922    24464106.457          39.400  
        35.800                                                                  
  24091945.563                                                                  
     -3330.262   128920969.645 6 100271936.559 6                                
                                  24091944.926    24091948.840          40.800  
        36.700                                                                  
  20517720.094                                                                  
     -1844.023   109525030.658 8  85186163.736 8                                
                                  20517719.105    20517721.078          51.400  
        49.600                                                                  
  20053399.648                                                                  
      1877.559   107272405.510 8                                                
                                  20053398.402                          49.600  
                                                                                
  23367946.211                                                                  
      3476.711   124958901.358 7  97190271.765 6                                
                                  23367945.184    23367948.434          43.400  
        41.500                                                                  
  38478084.953    38478068.605                                                  
         4.371   202204860.984 7                 150994930.836 7                
                                                                        43.800  
                        43.400                                                  
  40286641.313                                                                  
       -78.812   211707536.970 5                                                
                                                                        33.000  
                                                                                
  37806292.078    37806275.477                                                  
        -0.352   198674588.285 7                 148360075.102 7                
                                                                        45.400  
                        46.100                                                  
  67108863.984                                                                  
       -32.520   400806610.094 6                                                
                                                                        40.500  
                                                                                
 23 01 01 01 00 06.0000000  0 33E02E04E10E11E12E19E24E25E33G01G03G08
                                G10G14G17G21G22G27G32R01R06R07R08R14
                                R15R21R22R23R24S23S26S36S48
  27710043.781    27710044.520    27710037.063    27710041.672    27710044.340  
      1152.836   145617261.838 6                 108740162.912 6 118195805.310 7
 111576854.303 6 110158517.893 7                                        39.300  
                        39.300          43.300          40.200          44.000  
  26041457.344    26041458.582    26041450.797    26041456.238    26041458.637  
      2887.148   136848868.516 7                 102192385.983 7 111078635.610 7
 104858252.886 7 103525332.726 8                                        45.700  
                        46.800          47.700          46.200          50.200  
  23637196.898    23637198.586    23637191.438    23637195.973    23637198.344  
       386.074   124214363.322 8                  92757521.513 8 100823351.201 9
  95177269.328 8  93967401.212 9                                        52.500  
                        52.900          57.300          53.500          56.600  
  24417418.664    24417416.875    24417408.883    24417414.699    24417416.852  
      1470.047   128314414.629 7                  95819200.952 7 104151272.499 8
  98318814.367 7  97069034.463 8                                        46.200  
                        45.600          50.800          46.100          48.500  
  23871389.047    23871388.309    23871379.785    23871385.969    23871388.172  
      -729.238   125445023.528 8                  93676491.030 8 101822231.676 8
  96120215.031 8  94898358.821 9                                        48.400  
                        50.000          53.600          50.700          54.000  
  25962037.281    25962038.105    25962030.145    25962035.582    25962037.926  
       470.293   136431437.543 7                 101880624.831 7 110739778.290 7
 104538371.359 7 103209503.392 8                                        46.400  
                        45.200          47.400          45.100          48.900  
  27359971.078    27359973.703    27359966.262    27359970.668    27359973.145  
     -2874.672   143777625.431 7                 107366409.470 7 116702586.903 7
 110167258.790 7 108766842.927 7                                        42.400  
                        43.800          46.000          44.200          47.300  
  26307223.094    26307226.578    26307216.371    26307223.563    26307226.098  
     -1136.184   138245385.558 7                 103235196.802 7 112212131.637 8
 105928279.535 7 104581743.964 8                                        44.200  
                        45.800          48.700          45.500          50.100  
  27427437.141    27427439.566    27427432.246    27427436.238    27427439.219  
     -2153.137   144132406.904 6                 107631495.209 7 116990668.584 7
 110439243.059 6 109035374.928 7                                        41.800  
                        42.700          44.500          41.400          46.100  
  20519025.063    20519028.355                                                  
      1303.789   107828192.931 8  84022026.70746  80521097.696 9                
                                                  20519032.492          51.500  
        40.500          54.500                                                  
  22150489.711    22150494.434                                                  
      2891.754   116401492.692 7  90702604.21346  86923327.420 8                
                                                  22150496.402          44.800  
        37.000          51.300                                                  
  21426448.180    21426451.426                                                  
     -2418.562   112596687.556 8  87737777.39148  84082022.434 9                
                                                  21426454.691          49.800  
        53.200          54.000                                                  
  24664268.164    24664270.512                                                  
     -3303.562   129611824.971 6 100996405.93745  96788194.901 7                
                                                  24664274.863          38.900  
        33.200          42.900                                                  
  23210102.766    23210108.770                                                  
       205.297   121969916.278 6  95041510.60244  91081451.663 7                
                                                  23210107.043          40.400  
        28.700          47.300                                                  
  24660916.781                                                                  
      3264.371   129593918.066 5 100982348.20443                                
                                                  24660920.895          34.600  
        20.600                                                                  
  20849629.922                                                                  
      -245.648   109565565.907 8  85375794.03147                                
                                                  20849633.348          48.800  
        43.500                                                                  
  22393984.750                                                                  
      1256.668   117681339.308 7  91699674.56845                                
                                                  22393989.520          46.000  
        34.100                                                                  
  23905137.398    23905140.754                                                  
     -3598.098   125622340.860 6  97887602.66546  93808943.392 7                
                                                  23905143.566          39.500  
        37.600          44.700                                                  
  22887379.836    22887382.543                                                  
      -654.937   120273993.966 7  93720051.21747  89815011.257 7                
                                                  22887385.742          44.600  
        45.300          47.400                                                  
  23545362.773                                                                  
      4546.996   125863471.977 6  97893843.610 5                                
                                  23545361.750    23545366.988          37.600  
        33.600                                                                  
  23612273.984                                                                  
     -4121.461   125999627.277 5                                                
                                  23612273.395                          31.900  
                                                                                
  20047168.703                                                                  
     -1483.891   107314157.226 8  83466565.005 8                                
                                  20047168.066    20047171.465          52.000  
        49.800                                                                  
  20021098.648                                                                  
      2505.953   107212161.687 8  83387292.930 8                                
                                  20021098.305    20021100.238          50.000  
        49.800                                                                  
  23168132.375                                                                  
      -848.094   123499376.052 6  96054930.702 6                                
                                  23168130.215    23168134.039          39.900  
        39.400                                                                  
  24463718.781                                                                  
      2056.738   130726702.517 6 101676335.931 6                                
                                  24463718.434    24463721.445          39.500  
        36.500                                                                  
  24092567.633                                                                  
     -3330.375   128924299.887 6 100274526.743 6                                
                                  24092566.922    24092571.020          40.300  
        36.500                                                                  
  20518065.195                                                                  
     -1844.402   109526874.821 8  85187598.073 8                                
                                  20518064.555    20518066.488          51.300  
        49.500                                                                  
  20053048.055                                                                  
      1877.285   107270528.021 8                                                
                                  20053047.238                          49.500  
                                                                                
  23367295.219                                                                  
      3476.789   124955424.516 7  97187567.545 6                                
                                  23367295.031    23367298.277          43.100  
        41.400                                                                  
  38478084.188    38478067.789                                                  
         4.422   202204856.504 7                 150994927.493 7                
                                                                        43.900  
                        43.600                                                  
  40286656.391                                                                  
       -78.852   211707615.669 5                                                
                                                                        33.600  
                                                                                
  37806291.906    37806275.547                                                  
        -0.273   198674588.494 7                 148360075.253 7                
                                                                        45.300  
                        45.700                                                  
  67108863.984                                                                  
       -32.457   400806642.460 6                                                
                                                                        39.800  
                                                                                
 23 01 01 01 00 07.0000000  0 33E02E04E10E11E12E19E24E25E33G01G03G08
                                G10G14G17G21G22G27G32R01R06R07R08R14
                                R15R21R22R23R24S23S26S36S48
  27709823.898    27709825.238    27709817.590    27709822.402    27709825.000  
      1152.359   145616109.218 6                 108739302.228 6 118194869.739 7
 111575971.162 6 110157645.987 7                                        39.300  
                        39.000          43.400          40.400          43.800  
  26040907.992    26040909.117    26040901.422    26040907.031    26040909.227  
      2886.996   136845981.446 7                 102190230.047 7 111076292.206 7
 104856040.713 7 103523148.673 8                                        45.700  
                        46.800          47.700          46.500          50.500  
  23637123.359    23637125.152    23637118.004    23637122.488    23637124.887  
       385.805   124213977.324 8                  92757233.281 8 100823037.893 9
  95176973.562 8  93967109.216 9                                        52.200  
                        53.000          57.300          53.500          56.600  
  24417138.664    24417137.156    24417129.219    24417135.012    24417137.121  
      1469.922   128312944.627 7                  95818103.231 7 104150079.318 8
  98317688.019 7  97067922.422 8                                        46.400  
                        45.900          50.800          46.100          48.500  
  23871527.836    23871527.066    23871518.453    23871524.660    23871526.945  
      -729.453   125445752.803 8                  93677035.604 8 101822823.618 8
  96120773.819 8  94898910.502 8                                        48.600  
                        49.700          53.600          51.000          53.800  
  25961947.602    25961948.590    25961940.465    25961946.090    25961948.480  
       469.813   136430967.431 7                 101880273.772 7 110739396.710 7
 104538011.151 7 103209147.762 8                                        46.100  
                        45.100          47.300          45.100          49.200  
  27360518.555    27360520.633    27360513.223    27360517.645    27360520.227  
     -2875.062   143780500.363 7                 107368556.338 7 116704920.445 7
 110169461.673 7 108769017.795 7                                        42.400  
                        43.600          46.000          43.700          47.000  
  26307439.727    26307442.727    26307432.609    26307439.742    26307442.355  
     -1136.754   138246522.037 7                 103236045.470 7 112213054.098 8
 105929150.360 7 104582603.709 8                                        44.200  
                        45.900          48.600          45.500          50.100  
  27427847.227    27427849.305    27427842.066    27427846.051    27427848.965  
     -2153.437   144134560.196 7                 107633103.148 7 116992416.391 7
 110440892.968 6 109037003.862 7                                        42.100  
                        42.400          44.500          41.600          46.100  
  20518776.930    20518780.285                                                  
      1303.438   107826889.333 8  84021010.91446  80520124.232 9                
                                                  20518784.234          51.400  
        40.900          54.800                                                  
  22149939.516    22149944.129                                                  
      2891.457   116398601.061 7  90700350.99546  86921168.096 8                
                                                  22149946.051          44.600  
        36.900          51.300                                                  
  21426908.102    21426911.766                                                  
     -2419.168   112599106.436 8  87739662.23148  84083828.736 8                
                                                  21426914.922          50.000  
        53.300          53.900                                                  
  24664896.977    24664899.105                                                  
     -3303.707   129615128.477 6 100998980.09445  96790661.784 7                
                                                  24664903.465          38.700  
        33.000          42.500                                                  
  23210063.758    23210069.805                                                  
       204.656   121969711.313 6  95041350.89144  91081298.607 7                
                                                  23210067.934          40.200  
        29.400          47.700                                                  
  24660295.094                                                                  
      3264.309   129590653.89415 100979804.69953                                
                                                  24660299.746          34.500  
        20.600                                                                  
  20849676.734                                                                  
      -245.977   109565811.678 8  85375985.54347                                
                                                  20849680.027          48.700  
        43.800                                                                  
  22393745.578                                                                  
      1256.109   117680082.904 7  91698695.55345                                
                                                  22393750.418          45.900  
        34.000                                                                  
  23905822.258    23905825.434                                                  
     -3598.348   125625939.023 6  97890406.43246  93811630.349 7                
                                                  23905828.176          39.600  
        37.100          44.700                                                  
  22887504.516    22887507.227                                                  
      -655.664   120274649.221 7  93720561.80647  89815500.575 7                
                                                  22887510.387          44.600  
        45.500          47.200                                                  
  23544511.313                                                                  
      4546.738   125858925.025 6  97890307.089 5                                
                                  23544510.805    23544516.504          38.000  
        33.800                                                                  
  23613046.906                                                                  
     -4121.793   126003748.823 5                                                
                                  23613045.605                          32.000  
                                                                                
  20047445.898                                                                  
     -1484.758   107315641.593 8  83467719.502 8                                
                                  20047445.191    20047448.723          52.000  
        49.900                                                                  
  20020630.758                                                                  
      2505.137   107209656.187 8  83385344.196 8                                
                                  20020630.309    20020632.395          49.900  
        49.500                                                                  
  23168290.664                                                                  
      -848.906   123500224.635 6  96055590.706 6                                
                                  23168289.176    23168293.148          39.700  
        39.600                                                                  
  24463334.109                                                                  
      2055.969   130724646.213 6 101674736.606 6                                
                                  24463333.684    24463336.598          39.500  
        36.000                                                                  
  24093189.891                                                                  
     -3330.660   128927630.344 6 100277117.097 6                                
                                  24093189.332    24093193.438          40.100  
        36.400                                                                  
  20518410.742                                                                  
     -1844.875   109528719.424 8  85189032.788 8                                
                                  20518410.203    20518412.203          51.400  
        49.600                                                                  
  20052697.406                                                                  
      1876.902   107268650.917 8                                                
                                  20052696.426                          49.200  
                                                                                
  23366645.297                                                                  
      3476.668   124951947.708 7  97184863.363 6                                
                                  23366645.137    23366648.082          43.400  
        41.500                                                                  
  38478083.375    38478066.938                                                  
         4.383   202204852.073 7                 150994924.184 7                
                                                                        44.100  
                        43.100                                                  
  40286677.250                                                                  
       -78.984   211707694.433 5                                                
                                                                        33.400  
                                                                                
  37806291.703    37806275.598                                                  
        -0.328   198674588.705 7                 148360075.432 7                
                                                                        45.700  
                        46.000                                                  
  67108863.984                                                                  
       -32.441   400806674.850 6                                                
                                                                        39.500  
                                                                                
 23 01 01 01 00 08.0000000  0 33E02E04E10E11E12E19E24E25E33G01G03G08
                                G10G14G17G21G22G27G32R01R06R07R08R14
                                R15R21R22R23R24S23S26S36S48
  27709604.523    27709605.922    27709598.516    27709603.285    27709605.754  
      1151.844   145614957.121 6                 108738441.851 6 118193934.602 7
 111575088.360 6 110156774.398 7                                        39.300  
                        38.900          43.400          40.600          44.000  
  26040358.695    26040359.766    26040352.207    26040357.586    26040359.887  
      2886.844   136843094.581 7                 102188074.281 7 111073948.977 7
 104853828.702 7 103520964.789 8                                        45.700  
                        46.800          47.600          46.200          50.500  
  23637050.078    23637051.738    23637044.680    23637049.180    23637051.484  
       385.711   124213591.554 8                  92756945.200 8 100822724.766 9
  95176677.962 8  93966817.380 9                                        52.100  
                        53.200          57.300          53.500          56.800  
  24416858.906    24416857.469    24416849.465    24416855.457    24416857.426  
      1469.773   128311474.786 7                  95817005.636 7 104148886.265 8
  98316561.772 7  97066810.499 8                                        46.300  
                        45.600          50.800          46.000          48.500  
  23871666.742    23871665.875    23871657.324    23871663.500    23871665.766  
      -729.645   125446482.299 8                  93677580.361 8 101823415.738 8
  96121332.783 8  94899462.368 8                                        48.800  
                        49.700          53.600          51.000          53.800  
  25961858.188    25961859.156    25961851.395    25961856.922    25961859.105  
       469.391   136430497.851 7                 101879923.115 7 110739015.554 7
 104537651.362 7 103208792.536 8                                        46.100  
                        44.700          47.400          45.300          49.200  
  27361065.531    27361067.781    27361060.285    27361064.699    27361067.320  
     -2875.059   143783375.372 7                 107370703.252 7 116707254.056 7
 110171664.602 7 108771192.717 7                                        42.000  
                        43.200          46.000          43.400          47.300  
  26307655.445    26307658.996    26307649.063    26307656.160    26307658.711  
     -1137.113   138247658.997 7                 103236894.509 7 112213976.963 8
 105930021.529 7 104583463.814 8                                        44.000  
                        45.800          48.600          45.300          49.800  
  27428257.031    27428259.074    27428251.789    27428255.863    27428258.742  
     -2153.371   144136713.587 7                 107634711.192 7 116994164.274 7
 110442542.967 6 109038632.872 7                                        42.000  
                        42.600          44.500          41.500          46.200  
  20518528.883    20518532.297                                                  
      1303.098   107825586.118 8  84019995.41946  80519151.054 9                
                                                  20518536.219          51.300  
        41.000          54.800                                                  
  22149388.984    22149393.992                                                  
      2891.074   116395709.857 7  90698098.10946  86919009.078 8                
                                                  22149395.809          45.000  
        37.100          51.200                                                  
  21427368.648    21427372.082                                                  
     -2419.512   112601525.790 8  87741547.43348  84085635.397 9                
                                                  21427375.305          50.000  
        53.200          54.000                                                  
  24665525.055    24665527.887                                                  
     -3303.723   129618432.098 6 101001554.34345  96793128.791 7                
                                                  24665532.148          38.700  
        32.800          42.600                                                  
  23210024.789    23210030.977                                                  
       204.063   121969507.012 6  95041191.68544  91081146.049 7                
                                                  23210029.121          40.300  
        29.400          47.600                                                  
  24659674.180                                                                  
      3264.293   129587389.780 5 100977261.21843                                
                                                  24659678.602          34.600  
        21.100                                                                  
  20849723.406                                                                  
      -246.133   109566057.706 8  85376177.25147                                
                                                  20849726.793          48.900  
        43.500                                                                  
  22393506.641                                                                  
      1255.594   117678827.081 7  91697716.99745                                
                                                  22393511.438          46.100  
        33.600                                                                  
  23906506.555    23906510.230                                                  
     -3598.430   125629537.419 6  97893210.38046  93814317.450 7                
                                                  23906513.121          39.700  
        37.300          44.900                                                  
  22887629.609    22887632.125                                                  
      -656.258   120275305.150 7  93721072.92047  89815990.389 7                
                                                  22887635.195          44.700  
        45.300          47.400                                                  
  23543660.797                                                                  
      4546.875   125854378.205 6  97886770.673 5                                
                                  23543660.430    23543665.863          38.500  
        33.100                                                                  
  23613818.953                                                                  
     -4121.988   126007870.632 5                                                
                                  23613817.434                          31.900  
                                                                                
  20047723.359                                                                  
     -1485.570   107317126.832 8  83468874.691 8                                
                                  20047722.918    20047726.184          52.100  
        49.900                                                                  
  20020163.742                                                                  
      2504.430   107207151.442 8  83383396.069 8                                
                                  20020162.672    20020164.598          49.800  
        49.200                                                                  
  23168450.703                                                                  
      -849.734   123501074.032 6  96056251.356 6                                
                                  23168448.137    23168452.570          39.700  
        39.100                                                                  
  24462949.469                                                                  
      2055.180   130722590.611 6 101673137.822 6                                
                                  24462948.551    24462951.938          39.400  
        36.000                                                                  
  24093811.852                                                                  
     -3330.680   128930961.001 6 100279707.592 6                                
                                  24093811.680    24093815.949          40.200  
        36.400                                                                  
  20518756.641                                                                  
     -1845.211   109530564.488 8  85190467.840 8                                
                                  20518755.867    20518757.941          51.700  
        49.800                                                                  
  20052346.266                                                                  
      1876.621   107266774.187 8                                                
                                  20052345.691                          49.300  
                                                                                
  23365994.953                                                                  
      3476.762   124948470.940 7  97182159.215 6                                
                                  23365994.867    23365997.965          43.600  
        41.600                                                                  
  38478082.281    38478066.117                                                  
         4.316   202204847.694 7                 150994920.899 7                
                                                                        43.900  
                        43.200                                                  
  40286681.422                                                                  
       -78.902   211707773.171 5                                                
                                                                        32.600  
                                                                                
  37806291.672    37806275.691                                                  
        -0.391   198674589.020 7                 148360075.594 7                
                                                                        45.300  
                        45.800                                                  
  67108863.984                                                                  
       -32.555   400806707.326 6                                                
                                                                        39.000  
                                                                                
 23 01 01 01 00 09.0000000  0 33E02E04E10E11E12E19E24E25E33G01G03G08
                                G10G14G17G21G22G27G32R01R06R07R08R14
                                R15R21R22R23R24S23S26S36S48
  27709385.523    27709386.805    27709379.430    27709384.188    27709386.582  
      1151.504   145613805.376 6                 108737581.821 6 118192999.742 7
 111574205.877 6 110155903.163 7                                        39.100  
                        38.800          43.400          40.900          44.300  
  26039809.375    26039810.375    26039802.820    26039808.324    26039810.555  
      2886.699   136840207.835 7                 102185918.582 7 111071605.839 7
 104851616.770 7 103518780.974 8                                        45.500  
                        46.900          47.700          46.400          50.500  
  23636976.734    23636978.348    23636971.191    23636975.801    23636978.098  
       385.578   124213205.877 8                  92756657.198 8 100822411.724 9
  95176382.457 8  93966525.628 9                                        52.300  
                        53.400          57.300          53.500          56.700  
  24416579.352    24416577.695    24416569.762    24416575.773    24416577.723  
      1469.672   128310004.990 7                  95815908.056 7 104147693.250 8
  98315435.569 7  97065698.608 8                                        46.500  
                        45.700          50.800          45.600          48.500  
  23871805.594    23871804.758    23871796.164    23871802.336    23871804.625  
      -729.738   125447211.914 8                  93678125.209 8 101824007.964 8
  96121891.839 8  94900014.317 9                                        48.700  
                        50.100          53.600          51.000          54.000  
  25961769.047    25961769.906    25961761.906    25961767.418    25961769.836  
       468.934   136430028.723 7                 101879572.795 7 110738634.771 7
 104537291.897 7 103208437.638 8                                        46.000  
                        44.800          47.400          45.600          48.900  
  27361612.836    27361614.926    27361607.383    27361612.012    27361614.410  
     -2875.148   143786250.434 7                 107372850.203 7 116709587.712 7
 110173867.544 7 108773367.667 7                                        42.400  
                        43.200          46.000          43.200          47.300  
  26307872.078    26307875.547    26307865.574    26307872.395    26307875.137  
     -1137.500   138248796.347 7                 103237743.808 7 112214900.136 8
 105930893.004 7 104584324.207 8                                        44.300  
                        45.900          48.600          45.200          49.700  
  27428667.016    27428668.898    27428661.547    27428665.645    27428668.512  
     -2153.570   144138866.992 7                 107636319.256 7 116995912.158 7
 110444192.972 6 109040261.904 7                                        42.000  
                        42.500          44.600          41.400          46.200  
  20518280.797    20518284.320                                                  
      1302.773   107824283.186 8  84018980.14846  80518178.083 9                
                                                  20518288.379          51.100  
        40.200          55.000                                                  
  22148838.852    22148843.836                                                  
      2890.664   116392818.975 7  90695845.47446  86916850.300 8                
                                                  22148845.730          44.700  
        37.300          51.100                                                  
  21427829.188    21427832.578                                                  
     -2419.930   112603945.546 8  87743432.96148  84087442.354 9                
                                                  21427835.844          50.000  
        53.200          54.100                                                  
  24666153.289    24666156.574                                                  
     -3303.617   129621735.709 6 101004128.58845  96795595.778 7                
                                                  24666160.746          36.800  
        33.000          42.400                                                  
  23209986.227    23209992.117                                                  
       203.410   121969303.322 6  95041032.96644  91080993.936 7                
                                                  23209990.293          40.300  
        29.100          47.200                                                  
  24659053.328                                                                  
      3264.324   129584125.727 5 100974717.80643                                
                                                  24659057.453          34.100  
        20.600                                                                  
  20849770.352                                                                  
      -246.352   109566303.936 8  85376369.12247                                
                                                  20849773.719          49.100  
        43.800                                                                  
  22393267.695                                                                  
      1255.117   117677571.747 7  91696738.81345                                
                                                  22393272.625          46.200  
        33.300                                                                  
  23907191.188    23907195.031                                                  
     -3598.520   125633135.906 6  97896014.39746  93817004.627 7                
                                                  23907197.848          39.800  
        37.800          45.000                                                  
  22887754.625    22887756.977                                                  
      -656.723   120275961.620 7  93721584.45547  89816480.623 7                
                                                  22887759.883          44.600  
        45.800          47.500                                                  
  23542809.859                                                                  
      4546.742   125849831.447 6  97883234.333 5                                
                                  23542809.477    23542815.215          38.400  
        33.300                                                                  
  23614591.406                                                                  
     -4122.121   126011992.635 5                                                
                                  23614590.078                          31.600  
                                                                                
  20048001.070                                                                  
     -1486.383   107318612.857 8  83470030.485 8                                
                                  20048000.391    20048003.777          52.200  
        49.900                                                                  
  20019695.211                                                                  
      2503.738   107204647.406 8  83381448.485 8                                
                                  20019694.977    20019697.031          49.700  
        49.200                                                                  
  23168609.570                                                                  
      -850.355   123501924.114 6  96056912.538 6                                
                                  23168607.535    23168612.113          39.800  
        39.400                                                                  
  24462564.781                                                                  
      2054.621   130720535.665 6 101671539.511 6                                
                                  24462564.207    24462567.301          39.500  
        36.100                                                                  
  24094434.109                                                                  
     -3330.949   128934291.767 6 100282298.204 6                                
                                  24094433.766    24094438.410          40.000  
        36.800                                                                  
  20519102.570                                                                  
     -1845.656   109532409.927 8  85191903.183 8                                
                                  20519101.355    20519103.574          51.800  
        49.900                                                                  
  20051996.086                                                                  
      1876.289   107264897.749 8                                                
                                  20051994.688                          49.500  
                                                                                
  23365345.313                                                                  
      3476.824   124944994.118 7  97179455.011 6                                
                                  23365344.680    23365347.875          43.600  
        41.400                                                                  
  38478081.469    38478065.273                                                  
         4.422   202204843.258 7                 150994917.598 7                
                                                                        44.400  
                        42.900                                                  
  40286689.984                                                                  
       -78.730   211707851.877 5                                                
                                                                        32.300  
                                                                                
  37806292.281    37806275.715                                                  
        -0.133   198674589.176 7                 148360075.646 7                
                                                                        45.600  
                        46.000                                                  
  67108863.984                                                                  
       -32.363   400806739.650 6                                                
                                                                        39.300  
                                                                                
