     3.05           OBSERVATION DATA    G                   RINEX VERSION / TYPE
cnvtToRINEX 3.14.0  REGINA              20220102 000620 UTC PGM / RUN BY / DATE 
gfzrnx-2.00-8219    FILE PROCESSING     20240209 221741 UTC COMMENT             
TLSE                                                        MARKER NAME         
10003M009                                                   MARKER NUMBER       
Automatic           CNES                                    OBSERVER / AGENCY   
5048K71845          TRIMBLE NETR9       5.45                REC # / TYPE / VERS 
5129354206          TRM59800.00     NONE                    ANT # / TYPE        
        1.0530        0.0000        0.0000                  ANTENNA: DELTA H/E/N
  4627853.3468   119640.2373  4372995.2492                  APPROX POSITION XYZ 
G   16 C1C C2W C2X C5X D1C D2W D2X D5X L1C L2W L2X L5X S1C  SYS / # / OBS TYPES 
       S2W S2X S5X                                          SYS / # / OBS TYPES 
INITIAL_RINEX_VERSION: 3.04                                 COMMENT             
----------------------------------------------------------- COMMENT             
GEODETIC                                                    MARKER TYPE         
     0                                                      RCV CLOCK OFFS APPL 
G L2X -0.25000                                              SYS / PHASE SHIFT   
    18                                                      LEAP SECONDS        
DBHZ                                                        SIGNAL STRENGTH UNIT
GFZRNX.NUM_EPOCHS: 120                                      COMMENT
    14                                                      # OF SATELLITES     
   G01   120   120   120   120   120   119   119   119   120PRN / # OF OBS      
         120   120   120   120   120   120   120            PRN / # OF OBS      
   G03    41    40    41    41    41    31    40    40    34PRN / # OF OBS      
          34    41    41    41    40    41    41            PRN / # OF OBS      
   G07    26    14    22          26    13    21          26PRN / # OF OBS      
          14    22          26    14    22                  PRN / # OF OBS      
   G08   120   120   120   120   120   119   119   119   120PRN / # OF OBS      
         120   120   120   120   120   120   120            PRN / # OF OBS      
   G10   120   120   120   120   120   119   119   119   120PRN / # OF OBS      
         120   120   120   120   120   120   120            PRN / # OF OBS      
   G14    87    86    87    87    87    82    86    86    86PRN / # OF OBS      
          85    87    87    87    86    87    87            PRN / # OF OBS      
   G16   120   120               120   119               120PRN / # OF OBS      
         120               120   120                        PRN / # OF OBS      
   G21   120   120               120   119               120PRN / # OF OBS      
         120               120   120                        PRN / # OF OBS      
   G22   120   120               120   109               114PRN / # OF OBS      
         114               120   120                        PRN / # OF OBS      
   G23   117   114   117   117   117   113   116   116   116PRN / # OF OBS      
         114   117   117   117   114   117   117            PRN / # OF OBS      
   G26     9     9     9     9     9     8     8     8     9PRN / # OF OBS      
           9     9     9     9     9     9     9            PRN / # OF OBS      
   G27   120   120   120   120   120   119   119   119   120PRN / # OF OBS      
         120   120   120   120   120   120   120            PRN / # OF OBS      
   G30    52    31    52    52    52    30    50    50    47PRN / # OF OBS      
          31    52    52    52    31    52    52            PRN / # OF OBS      
   G32   120   120   120   120   120   119   119   119   120PRN / # OF OBS      
         120   120   120   120   120   120   120            PRN / # OF OBS      
    30.000                                                  INTERVAL            
  2022     1     1     0     0    0.0000000     GPS         TIME OF FIRST OBS   
  2022     1     1     0    59   30.0000000     GPS         TIME OF LAST OBS    
                                                            END OF HEADER      
> 2022 01 01 00 00 00.0000000  0 12
G01  23590139.203 6  23590148.227 3  23590147.465 6  23590146.297 7      3130.391 6                                                 123967008.572 6  96597711.760 3  96597707.774 6  92572810.567 7        38.600          22.000          40.900          45.400
G07  24998288.344 5                                                     -1562.125 5                                                 131366939.256 5                                                        34.900
G08  20554787.664 8  20554794.242 9  20554794.563 8  20554793.664 9      1097.641 8                                                 108016131.411 8  84168474.544 9  84168476.540 8  80661457.909 9        50.900          55.500          51.500          56.000
G10  21447903.727 8  21447910.074 9  21447909.977 8  21447908.996 9     -1169.531 8                                                 112709516.062 8  87825635.635 9  87825626.640 8  84166230.660 9        52.000          54.200          48.400          54.300
G16  22928686.734 7  22928690.602 5                                     -3449.199 7                                                 120491027.665 7  93889161.741 5                                        44.600          30.900
G21  21723481.234 8  21723484.727 6                                      1513.633 8                                                 114157760.066 8  88954056.191 6                                        48.000          36.600
G22  24595231.414 5  24595235.094 2                                      3751.094 5                                                 129248813.087 5 100713380.154 2                                        33.000          16.900
G23  23387486.727 6  23387490.699 4  23387491.023 7  23387493.402 7     -3003.113 6                                                 122902079.825 6  95767879.758 4  95767896.754 7  91777585.771 7        41.700          28.100          42.800          46.700
G26  25671033.578 6  25671040.719 4  25671040.234 5  25671039.859 6     -3646.793 6                                                 134902216.169 6 105118618.897 4 105118647.893 5 100738710.412 6        37.600          28.400          34.900          40.900
G27  20423421.984 8  20423428.113 9  20423428.262 8  20423428.043 9     -1038.910 8                                                 107325711.245 8  83630551.834 9  83630552.836 8  80145951.619 9        52.300          55.500          51.600          56.600
G30  25465085.734 4                  25465093.996 5  25465094.793 6      -628.926 4                                                 133820056.26314                 104275294.634 5  99930482.351 6        27.600                          32.500          37.300
G32  24620223.180 6  24620230.148 5  24620230.484 6  24620230.188 7      2766.563 6                                                 129380156.743 6 100815717.002 5 100815721.989 6  96615067.098 7        37.600          31.900          38.400          42.600
> 2022 01 01 00 00 30.0000000  0 12
G01  23572284.180 6  23572292.625 3  23572292.461 6  23572291.352 7      3124.840 6      2437.138 3      2437.138 6      2335.590 7 123873178.745 6  96524597.623 3  96524593.629 6  92502742.868 7        38.100          22.600          40.800          45.600
G07  25007238.320 5                                                     -1573.164 5                                                 131413968.536 5                                                        33.900
G08  20548556.000 8  20548562.344 9  20548563.066 8  20548561.617 9      1085.387 8       850.596 9       850.596 8       815.154 9 107983383.471 8  84142956.668 9  84142958.662 8  80637003.283 9        50.100          55.400          51.400          55.700
G10  21454630.367 8  21454636.926 9  21454636.621 8  21454635.762 9     -1187.051 8      -918.162 9      -918.162 8      -879.906 9 112744865.306 8  87853180.497 9  87853171.501 8  84192627.826 9        51.000          54.100          48.700          54.100
G16  22948399.656 7  22948403.363 5                                     -3456.898 7     -2690.689 5                                 120594619.193 7  93969882.410 5                                        44.500          31.800
G21  21714864.398 7  21714867.898 6                                      1505.078 7      1176.163 6                                 114112477.744 7  88918771.288 6                                        47.400          36.700
G22  24573827.445 5  24573830.758 2                                      3747.766 5                                                 129136330.63815 100625731.51412                                        31.500          17.400
G23  23404659.016 6  23404663.125 4  23404663.359 6  23404667.801 7     -3013.195 6     -2344.034 4     -2344.034 6     -2246.366 7 122992325.139 6  95838200.777 4  95838217.765 6  91844976.758 7        39.800          26.200          41.800          47.200
G26  25691843.195 5  25691850.504 4  25691849.934 5  25691849.285 6     -3643.777 5     -2840.404 4     -2840.405 5     -2722.055 6 135011571.759 5 105203831.028 4 105203860.051 5 100820372.056 6        35.900          25.200          33.800          39.400
G27  20429391.484 8  20429397.609 9  20429397.734 8  20429397.480 9     -1052.492 8      -814.790 9      -814.790 8      -780.841 9 107357080.667 8  83654995.539 9  83654996.534 8  80169376.835 9        51.600          55.000          51.900          56.700
G30  25468721.148 4                  25468728.430 5  25468728.348 5      -644.555 4                      -496.100 5      -475.428 5 133839156.15414                 104290177.625 5  99944745.184 5        29.600                          30.500          35.300
G32  24604440.688 6  24604446.145 5  24604446.773 6  24604446.023 7      2762.961 6      2154.394 5      2154.393 6      2064.627 7 129297212.575 6 100751085.195 5 100751090.192 6  96553128.300 7        40.300          34.000          37.900          42.600
> 2022 01 01 00 01 00.0000000  0 12
G01  23554459.727 6  23554467.555 3  23554468.137 6  23554467.180 7      3119.570 6      2432.951 3      2432.951 6      2331.579 7 123779510.137 6  96451609.106 3  96451605.100 6  92432795.502 7        38.000          23.000          39.900          46.200
G07  25016249.422 5                                                     -1584.289 5                                                 131461326.871 5                                                        32.000
G08  20542393.609 8  20542400.008 9  20542400.746 8  20542399.531 9      1073.328 8       841.118 9       841.118 8       806.072 9 107951000.430 8  84117723.131 9  84117725.133 8  80612821.137 9        49.700          56.100          51.000          55.800
G10  21461455.867 8  21461462.531 9  21461462.039 8  21461461.305 9     -1204.301 8      -931.658 9      -931.658 8      -892.839 9 112780734.146 8  87881130.242 9  87881121.253 8  84219412.995 9        50.900          54.100          49.300          54.000
G16  22968155.391 7  22968159.438 5                                     -3464.340 7     -2696.557 5                                 120698436.650 7  94050779.127 5                                        44.200          30.200
G21  21706295.906 8  21706299.469 6                                      1496.680 8      1169.569 6                                 114067449.294 8  88883684.209 6                                        48.200          37.000
G22  24552439.867 5  24552443.297 2                                      3744.500 5                                                 129023940.64515 100538154.93712                                        32.300          17.800
G23  23421889.430 6  23421893.477 4  23421893.195 6  23421897.559 7     -3023.176 6     -2351.794 4     -2351.796 6     -2253.803 7 123082869.239 6  95908754.611 4  95908771.644 6  91912590.854 7        40.200          26.700          41.600          46.900
G26  25712633.453 5  25712640.984 4  25712641.621 5  25712640.715 6     -3640.320 5     -2837.850 4     -2837.849 5     -2719.604 6 135120828.952 5 105288966.523 4 105288995.530 5 100901960.186 6        35.400          24.700          33.800          40.100
G27  20435437.758 8  20435443.867 9  20435443.949 8  20435443.758 9     -1065.906 8      -825.279 9      -825.280 8      -790.893 9 107388853.939 8  83679753.922 9  83679754.924 8  80193103.619 9        52.100          55.200          51.900          56.700
G30  25472446.273 4                  25472451.320 5  25472450.078 5      -659.887 4                      -508.088 5      -486.920 5 133858717.43514                 104305420.273 5  99959352.791 5        28.600                          30.900          34.300
G32  24588677.125 6  24588683.578 5  24588683.832 6  24588683.523 7      2759.305 6      2151.584 5      2151.584 6      2061.936 7 129214376.611 6 100686537.665 5 100686542.676 6  96491270.237 7        40.000          34.100          38.700          42.700
> 2022 01 01 00 01 30.0000000  0 12
G01  23536666.297 6  23536674.379 3  23536674.359 6  23536673.445 7      3114.219 6      2428.735 3      2428.734 6      2327.536 7 123686003.862 6  96378747.068 3  96378743.085 6  92362969.410 7        39.000          23.900          41.000          46.400
G07  25025326.195 5                                                     -1594.852 5                                                 131509012.201 5                                                        32.300
G08  20536301.203 8  20536307.438 9  20536308.051 8  20536307.082 9      1061.035 8       831.595 9       831.596 8       796.946 9 107918984.007 8  84092775.271 9  84092777.266 8  80588912.767 9        50.600          55.900          50.900          55.900
G10  21468380.719 8  21468386.836 9  21468386.445 8  21468385.574 8     -1221.570 8      -945.128 9      -945.128 8      -905.748 8 112817121.588 8  87909484.096 9  87909475.108 8  84246585.430 8        49.900          54.300          48.800          53.900
G16  22987954.047 7  22987957.246 4                                     -3471.742 7     -2702.347 4                                 120802477.031 7  94131849.540 4                                        43.800          29.600
G21  21697775.852 8  21697779.273 6                                      1488.191 8      1162.973 6                                 114022674.824 8  88848795.010 6                                        48.000          37.500
G22  24531070.438 5  24531074.730 2                                      3741.457 5                                                 128911645.57115 100450652.26912                                        31.600          16.900
G23  23439175.602 6  23439179.828 4  23439180.168 7  23439184.207 7     -3032.949 6     -2359.500 4     -2359.500 7     -2261.187 7 123173709.997 6  95979539.625 4  95979556.644 7  91980426.463 7        39.400          26.700          42.500          47.200
G26  25733405.867 6  25733413.301 4  25733412.527 5  25733413.145 6     -3636.914 6     -2835.260 4     -2835.260 5     -2717.124 6 135229986.499 6 105374024.315 4 105374053.321 5 100983473.909 6        36.800          27.300          35.700          41.100
G27  20441561.063 8  20441567.066 9  20441567.098 8  20441566.984 9     -1079.387 8      -835.784 9      -835.784 8      -800.959 9 107421031.635 8  83704827.447 9  83704828.442 8  80217132.403 9        51.200          55.000          51.200          56.700
G30  25476252.109 4                  25476260.703 5  25476261.039 5      -674.578 4                      -520.051 5      -498.383 5 133878739.37514                 104321021.805 5  99974304.281 5        25.900                          30.600          35.800
G32  24572934.531 6  24572941.898 5  24572941.676 6  24572941.488 7      2755.617 6      2148.685 5      2148.686 6      2059.156 7 129131652.247 6 100622077.119 5 100622082.107 6  96429495.547 7        40.300          34.300          39.000          42.900
> 2022 01 01 00 02 00.0000000  0 12
G01  23518902.938 6  23518911.207 3  23518911.316 6  23518910.684 7      3108.570 6      2424.491 3      2424.493 6      2323.472 7 123592660.886 6  96306012.326 3  96306008.299 6  92293265.251 7        37.700          22.500          40.700          46.800
G07  25034458.664 4                  25034465.309 5                     -1606.000 4                                                 131557022.031 4                 102511924.55115                        28.900                          31.000
G08  20530278.813 8  20530285.020 9  20530285.637 8  20530284.672 9      1048.695 8       822.035 9       822.035 8       787.783 9 107887335.680 8  84068114.227 9  84068116.223 8  80565279.281 9        50.500          55.800          51.100          55.900
G10  21475403.219 8  21475409.426 9  21475409.367 8  21475408.184 9     -1238.809 8      -958.559 9      -958.559 8      -918.619 9 112854026.122 8  87938240.877 9  87938231.882 8  84274144.012 9        51.300          54.100          48.800          54.200
G16  23007794.070 7  23007797.906 5                                     -3479.121 7     -2708.091 5                                 120906738.508 7  94213092.260 5                                        44.500          30.300
G21  21689303.500 7  21689307.012 6                                      1479.699 7      1156.380 6                                 113978154.168 7  88814103.604 6                                        47.400          36.900
G22  24509720.031 5  24509723.566 2                                      3737.813 5                                                 128799447.80815 100363225.43612                                        31.200          16.300
G23  23456518.250 6  23456522.609 4  23456522.492 7  23456525.895 7     -3042.762 6     -2367.139 4     -2367.138 7     -2268.509 7 123264844.830 6  96050553.782 4  96050570.785 7  92048481.720 7        40.000          26.200          42.600          46.600
G26  25754158.000 6  25754165.934 4  25754165.980 5  25754164.949 6     -3633.461 6     -2832.614 4     -2832.615 5     -2714.589 6 135339042.182 6 105459002.724 4 105459031.759 5 101064911.572 6        36.500          28.200          35.300          40.400
G27  20447761.133 8  20447767.297 9  20447767.422 8  20447767.211 9     -1092.867 8      -846.289 9      -846.289 8      -811.027 9 107453613.775 8  83730216.117 9  83730217.119 8  80241463.218 9        52.300          55.000          51.900          56.600
G30  25480150.203 4                  25480158.074 5  25480158.480 6      -690.570 4                      -531.985 5      -509.818 6                                 104336981.345 5  99989598.823 6        27.300                          30.900          36.300
G32  24557215.016 6  24557221.344 5  24557221.301 6  24557220.730 7      2751.633 6      2145.707 5      2145.707 6      2056.303 7 129049042.503 6 100557705.899 5 100557710.912 6  96367806.448 7        40.400          33.800          38.400          42.200
> 2022 01 01 00 02 30.0000000  0 12
G01  23501171.633 6  23501180.188 3  23501180.016 6  23501179.570 7      3103.223 6      2420.242 3      2420.240 6      2319.396 7 123499481.548 6  96233405.062 3  96233401.116 6  92223683.359 7        37.000          22.800          40.600          47.200
G07  25043657.711 5                  25043662.723 5                     -1616.418 5                     -1255.368 5                 131605353.841 5                 102549585.601 5                        31.600                          33.100
G08  20524326.375 8  20524332.926 9  20524333.445 8  20524332.262 9      1036.355 8       812.443 9       812.443 8       778.591 9 107856056.618 8  84043740.931 9  84043742.933 8  80541921.542 9        50.900          55.300          51.800          55.900
G10  21482524.422 8  21482530.402 9  21482530.168 8  21482529.137 8     -1255.980 8      -971.945 9      -971.945 8      -931.447 8 112891446.002 8  87967399.218 9  87967390.224 8  84302087.425 8        50.500          54.300          49.500          53.900
G16  23027675.492 7  23027679.918 5                                     -3486.301 7     -2713.767 5                                 121011218.549 7  94294505.273 5                                        43.300          30.400
G21  21680879.148 7  21680882.992 6                                      1471.246 7      1149.797 6                                 113933886.978 7  88779609.693 6                                        46.900          36.800
G22  24488388.836 5  24488391.641 2                                      3734.840 5                                                                                                                        32.300          17.400
G23  23473916.188 6  23473919.570 4  23473919.957 6  23473923.461 7     -3052.563 6     -2374.704 4     -2374.704 6     -2275.757 7 123356270.970 6  96121794.906 4  96121811.899 6  92116754.430 7        39.600          25.300          41.700          46.000
G26  25774890.563 6  25774898.594 4  25774897.863 5  25774897.598 6     -3630.078 6     -2829.910 4     -2829.910 5     -2711.995 6 135447993.750 6 105543900.015 4 105543929.048 5 101146271.425 6        36.400          26.500          34.800          39.400
G27  20454038.117 8  20454044.305 9  20454044.570 8  20454044.293 9     -1106.348 8      -856.788 9      -856.788 8      -821.089 9 107486600.124 8  83755919.750 9  83755920.752 8  80266095.872 9        50.900          55.100          52.300          56.700
G30  25484134.359 4                  25484141.281 4  25484143.195 6      -705.520 4                      -543.918 4      -521.210 6 133920159.95614                 104353297.53814 100005235.120 6        27.600                          28.600          38.100
G32  24541517.750 6  24541523.523 5  24541523.641 6  24541523.293 7      2747.727 6      2142.660 5      2142.660 6      2053.383 7 128966550.137 6 100493426.095 5 100493431.101 6  96306204.964 7        41.100          33.600          38.100          42.900
> 2022 01 01 00 03 00.0000000  0 11
G01  23483470.836 6  23483480.512 3  23483479.375 6  23483479.578 7      3097.879 6      2415.967 3      2415.969 6      2315.302 7 123406466.695 6  96160926.049 3  96160922.043 6  92154224.294 7        37.400          22.900          41.100          47.600
G07  25052915.820 4                  25052920.582 5                     -1626.977 4                     -1263.664 5                 131654005.06014                 102587495.523 5                        28.900                          33.600
G08  20518444.508 8  20518451.305 9  20518451.867 8  20518450.434 9      1024.117 8       802.816 9       802.817 8       769.365 9 107825148.197 8  84019656.449 9  84019658.435 8  80518840.579 9        50.300          55.000          51.300          55.900
G10  21489742.648 8  21489748.781 9  21489748.789 8  21489747.691 8     -1272.887 8      -985.290 9      -985.290 8      -944.236 8 112929379.666 8  87996957.912 9  87996948.923 8  84330414.515 8        51.800          54.100          48.900          53.800
G16  23047598.656 7  23047602.590 5                                     -3493.309 7     -2719.364 5                                 121115914.083 7  94376086.193 5                                        43.200          30.100
G21  21672504.227 8  21672507.691 6                                      1463.004 8      1143.221 6                                 113889872.972 8  88745313.074 6                                        48.000          37.200
G22  24467077.969 5  24467080.133 2                                      3731.656 5                                                                                                                        31.900          17.400
G23  23491368.625 6  23491372.426 4  23491372.941 6  23491377.168 7     -3061.879 6     -2382.201 4     -2382.201 6     -2282.943 7 123447985.673 6  96193260.930 4  96193277.922 6  92185242.730 7        40.400          25.100          41.000          47.300
G26  25795603.938 5  25795611.242 3  25795610.461 5  25795610.246 6     -3626.289 5     -2827.152 3     -2827.152 5     -2709.354 6 135556839.103 5 105628714.561 3 105628743.608 5 101227552.048 6        34.300          21.800          32.500          37.100
G27  20460392.117 8  20460398.359 9  20460398.414 8  20460398.438 9     -1119.707 8      -867.288 9      -867.288 8      -831.151 9 107519990.730 8  83781938.400 9  83781939.395 8  80291030.402 9        52.400          55.000          51.500          56.600
G32  24525842.148 6  24525848.820 5  24525849.008 6  24525848.215 7      2743.676 6      2139.534 5      2139.534 6      2050.385 7 128884178.119 6 100429240.088 5 100429245.090 6  96244693.403 7        40.000          34.200          37.500          42.700
> 2022 01 01 00 03 30.0000000  0 11
G01  23465803.398 6  23465811.098 3  23465811.199 6  23465810.340 7      3092.438 6      2411.679 3      2411.679 6      2311.192 7 123313616.998 6  96088575.687 3  96088571.678 6  92084888.545 7        37.700          22.300          40.800          47.200
G07  25062234.258 5                  25062238.590 5                     -1637.723 5                     -1271.903 5                 131702973.42115                 102625652.617 5                        30.800                          33.100
G08  20512633.703 8  20512640.336 9  20512640.746 8  20512639.617 9      1011.793 8       793.161 9       793.160 8       760.112 9 107794611.514 8  83995861.629 9  83995863.639 8  80496037.214 9        50.800          55.600          51.000          56.000
G10  21497058.758 8  21497065.027 9  21497064.695 8  21497063.695 8     -1289.930 8      -998.595 9      -998.595 8      -956.987 8 112967825.576 8  88026915.767 9  88026906.771 8  84359124.129 8        51.600          54.200          49.200          53.900
G16  23067561.672 7  23067565.664 4                                     -3500.367 7     -2724.884 4                                 121220822.156 7  94457832.723 4                                        43.400          28.700
G21  21664176.305 8  21664180.434 6                                      1454.621 8      1136.658 6                                 113846111.647 8  88711213.340 6                                        48.100          37.300
G22  24445784.594 5  24445786.902 2                                      3728.152 5                                                 128463458.77215 100101415.93912                                        34.100          16.900
G23  23508876.109 6  23508880.246 4  23508880.391 7  23508883.934 7     -3071.332 6     -2389.630 4     -2389.630 7     -2290.062 7 123539986.442 6  96264949.832 4  96264966.828 7  92253944.577 7        40.000          25.500          42.400          46.700
G26  25816295.469 5  25816303.359 3  25816302.152 5  25816301.980 6     -3622.543 5     -2824.354 3     -2824.352 5     -2706.673 6 135665576.653 5 105713445.169 3 105713474.172 5 101308752.228 6        33.000          20.600          31.200          36.400
G27  20466823.031 8  20466829.289 9  20466829.234 8  20466829.293 9     -1133.168 8      -877.788 9      -877.788 8      -841.213 9 107553785.581 8  83808272.037 9  83808273.047 8  80316266.798 9        51.100          55.100          51.100          56.600
G32  24510190.563 6  24510197.133 5  24510197.734 6  24510197.039 7      2739.563 6      2136.330 5      2136.330 6      2047.316 7 128801929.425 6 100365150.197 5 100365155.183 6  96183273.933 7        40.400          34.400          38.100          42.600
> 2022 01 01 00 04 00.0000000  0 11
G01  23448165.422 6  23448174.316 3  23448174.414 6  23448172.910 7      3086.727 6      2407.371 3      2407.370 6      2307.063 7 123220933.171 6  96016354.564 3  96016350.574 6  92015676.639 7        37.900          21.300          41.100          47.500
G07  25071611.719 5  25071617.828 2  25071617.242 5                     -1648.219 5                     -1280.142 5                 131752256.024 5 102664084.67212 102664054.62315                        30.800          14.800          33.600
G08  20506893.906 8  20506900.355 9  20506901.176 8  20506899.840 9       999.266 8       783.461 9       783.461 8       750.817 9 107764448.268 8  83972357.803 9  83972359.813 8  80473512.709 9        50.800          56.000          51.400          56.200
G10  21504471.805 8  21504478.188 9  21504477.742 8  21504476.809 8     -1306.988 8     -1011.857 9     -1011.857 8      -969.696 8 113006782.087 8  88057271.485 9  88057262.482 8  84388215.002 8        51.500          54.000          49.400          53.800
G16  23087565.063 7  23087569.234 4                                     -3507.457 7     -2730.353 4                                 121325940.732 7  94539743.310 4                                        43.000          28.700
G21  21655896.773 8  21655900.633 6                                      1446.109 8      1130.101 6                                 113802602.732 8  88677310.312 6                                        48.000          37.300
G22  24424511.813 5  24424514.398 3                                      3724.363 5                                                 128351670.54515 100014308.28213                                        33.200          18.600
G23  23526437.352 6  23526441.414 4  23526441.066 6  23526445.246 7     -3080.813 6     -2396.990 4     -2396.990 6     -2297.116 7 123632270.564 6  96336859.531 4  96336876.538 6  92322858.070 7        40.800          26.200          41.800          46.700
G26  25836967.398 5  25836974.203 3  25836974.109 4  25836973.242 5     -3619.152 5     -2821.509 3     -2821.552 4     -2703.945 5 135774204.894 5 105798090.425 3 105798119.49014 101389870.589 5        32.500          20.900          29.900          35.000
G27  20473331.109 8  20473337.180 9  20473337.254 8  20473337.195 9     -1146.633 8      -888.286 9      -888.286 8      -851.274 9 107587984.602 8  83834920.614 9  83834921.616 8  80341805.031 9        52.000          54.900          51.200          56.600
G32  24494562.828 6  24494570.129 5  24494570.488 6  24494569.531 7      2735.367 6      2133.049 5      2133.048 6      2044.172 7 128719807.017 6 100301158.724 5 100301163.757 6  96121948.760 7        39.600          33.800          38.900          42.600
> 2022 01 01 00 04 30.0000000  0 10
G01  23430559.844 6  23430568.547 3  23430568.379 6  23430567.906 7      3081.113 6      2403.047 3      2403.047 6      2302.920 7 123128415.822 6  95944263.162 3  95944259.157 6  91946589.041 7        37.700          22.600          40.700          47.500
G07  25081050.289 5  25081055.137 2  25081054.293 5                     -1658.258 5     -1288.176 2     -1288.176 5                 131801850.822 5 102702729.943 2 102702699.905 5                        32.600          15.600          35.400
G08  20501225.297 8  20501231.535 9  20501232.098 8  20501231.219 9       986.715 8       773.740 9       773.740 8       741.501 9 107734659.300 8  83949145.608 9  83949147.610 8  80451267.690 9        50.800          55.800          51.300          56.100
G10  21511981.984 8  21511988.180 9  21511987.719 8  21511986.547 8     -1324.008 8     -1025.076 9     -1025.077 8      -982.365 8 113046247.517 8  88088023.769 9  88088014.781 8  84417685.954 8        51.600          54.100          49.300          53.700
G16  23107608.500 7  23107612.059 4                                     -3514.340 7     -2735.738 4                                 121431266.676 7  94621815.455 4                                        43.600          28.300
G21  21647665.195 7  21647668.891 6                                      1437.633 7      1123.549 6                                 113759346.115 7  88643603.854 6                                        47.800          37.700
G22  24403259.570 5  24403261.801 2                                      3720.828 5                                                 128239990.06315  99927284.55512                                        32.800          17.800
G23  23544050.336 6  23544055.656 4  23544055.563 6  23544059.059 7     -3090.098 6     -2404.281 4     -2404.281 6     -2304.102 7 123724835.379 6  96408987.949 4  96409004.960 6  92391981.118 7        38.100          24.700          41.900          45.900
G27  20479915.711 8  20479921.996 9  20479922.098 8  20479921.977 9     -1160.230 8      -898.782 9      -898.782 8      -861.332 9 107622587.717 8  83861884.074 9  83861885.076 8  80367644.996 9        51.600          55.000          51.600          56.600
G32  24478960.352 6  24478967.047 5  24478966.910 6  24478966.500 7      2730.934 6      2129.695 5      2129.696 6      2040.958 7 128637813.838 6 100237267.881 5 100237272.894 6  96060720.019 7        39.700          33.700          38.100          43.000
> 2022 01 01 00 05 00.0000000  0 11
G01  23412987.008 6  23412995.152 3  23412994.465 6  23412994.055 7      3075.680 6      2398.705 3      2398.705 6      2298.759 7 123036065.622 6  95872301.999 3  95872297.998 6  91877626.281 7        39.500          22.900          40.400          47.600
G07  25090547.750 5  25090552.328 2  25090551.492 5                     -1668.703 5     -1296.216 2     -1296.219 5                 131851755.321 5 102741616.426 2 102741586.470 5                        32.600          15.600          34.600
G08  20495628.164 8  20495634.492 9  20495635.215 8  20495634.191 9       974.227 8       763.976 9       763.977 8       732.144 9 107705246.211 8  83926226.316 9  83926228.312 8  80429303.381 9        50.500          56.100          51.500          56.200
G10  21519588.352 8  21519594.613 8  21519594.297 8  21519593.316 8     -1340.758 8     -1038.251 8     -1038.251 8      -994.991 8 113086220.180 8  88119171.305 8  88119162.302 8  84447535.671 8        51.300          53.900          48.900          53.800
G16  23127690.148 7  23127693.543 4                                     -3520.980 7     -2741.048 4                                 121536797.036 7  94704046.898 4                                        43.800          27.600
G21  21639481.805 7  21639485.547 6                                      1429.383 7      1117.004 6                                 113716341.460 7  88610093.741 6                                        47.600          36.500
G22  24382028.078 5  24382030.941 3                                      3717.238 5                                                 128128419.50115  99840346.46413                                        32.000          18.600
G23  23561718.797 6  23561723.504 4  23561723.047 6  23561727.090 7     -3099.293 6     -2411.503 4     -2411.503 6     -2311.024 7 123817678.237 6  96481333.033 4  96481350.047 6  92461311.844 7        40.000          27.400          41.400          46.000
G27  20486577.344 8  20486583.707 9  20486583.859 8  20486583.656 9     -1173.598 8      -909.275 9      -909.275 8      -871.389 9 107657594.823 8  83889162.327 9  83889163.322 8  80393786.659 9        52.600          54.900          51.600          56.600
G30  25505356.664 4                  25505362.836 5  25505362.238 6      -780.809 4                                                 134031682.50014                 104440192.64315 100088506.75016        28.600                          32.400          38.100
G32  24463383.320 6  24463389.109 5  24463389.844 6  24463389.824 7      2726.594 6      2126.262 5      2126.263 6      2037.669 7 128555952.737 6 100173480.017 5 100173485.015 6  95999589.959 7        38.300          33.300          37.900          43.400
> 2022 01 01 00 05 30.0000000  0 11
G01  23395445.086 6  23395453.277 3  23395453.027 6  23395452.352 7      3070.000 6      2394.337 3      2394.337 6      2294.573 7 122943883.586 6  95800471.875 3  95800467.888 6  91808789.109 7        39.300          22.500          40.100          47.400
G07  25100102.586 5  25100106.992 2  25100106.285 5                     -1678.734 5     -1304.256 2     -1304.186 5                 131901966.65115 102780742.06412 102780712.038 5                        33.000          16.900          34.800
G08  20490102.914 8  20490109.410 9  20490110.121 8  20490108.832 9       961.594 8       754.170 9       754.169 8       722.746 9 107676210.680 8  83903601.227 9  83903603.230 8  80407621.001 9        50.900          55.300          51.100          56.100
G10  21527291.047 8  21527297.508 9  21527297.320 8  21527296.332 8     -1357.656 8     -1051.390 9     -1051.390 8     -1007.582 8 113126698.703 8  88150713.007 9  88150704.012 8  84477763.138 8        52.000          54.000          49.000          53.700
G16  23147810.344 7  23147813.570 4                                     -3527.715 7     -2746.306 4                                 121642529.802 7  94786436.071 4                                        42.800          28.300
G21  21631346.391 7  21631349.984 6                                      1420.965 7      1110.462 6                                 113673588.655 7  88576779.875 6                                        47.800          37.300
G22  24360818.523 5  24360821.238 3                                      3713.203 5      2895.027 3                                 128016960.985 5  99753495.654 3                                        32.600          19.000
G23  23579438.367 6  23579442.953 4  23579442.867 7  23579447.762 7     -3108.484 6     -2418.664 4     -2418.662 7     -2317.884 7 123910796.770 6  96553892.941 4  96553909.919 7  92530848.369 7        39.200          24.900          42.000          47.500
G27  20493315.758 8  20493322.152 9  20493322.305 8  20493322.109 9     -1187.055 8      -919.773 9      -919.773 8      -881.449 9 107693006.090 8  83916755.509 9  83916756.503 8  80420230.128 9        52.300          55.200          51.400          56.600
G30  25509856.094 4                  25509864.555 5  25509863.711 6      -795.730 4                      -614.427 5      -588.824 6 134055337.88814                 104458625.451 5 100106171.465 6        29.100                          32.900          38.300
G32  24447831.180 6  24447837.832 5  24447838.301 6  24447838.426 7      2721.902 6      2122.748 5      2122.749 6      2034.299 7 128474226.968 6 100109797.592 5 100109802.558 6  95938560.991 7        39.900          35.400          38.300          44.000
> 2022 01 01 00 06 00.0000000  0 11
G01  23377935.672 6  23377943.109 3  23377942.824 6  23377942.383 7      3064.340 6      2389.957 3      2389.957 6      2290.374 7 122851870.251 6  95728773.178 3  95728769.180 6  91740077.892 7        38.300          22.200          38.800          46.500
G07  25109714.875 5  25109718.984 2  25109719.215 5                     -1688.945 5     -1312.297 2     -1312.097 5                 131952482.46915 102820104.91612 102820074.959 5                        33.400          15.600          34.900
G08  20484649.813 8  20484655.949 9  20484656.719 8  20484655.805 9       949.039 8       744.335 9       744.335 8       713.321 9 107647553.794 8  83881271.187 9  83881273.182 8  80386221.368 9        50.900          55.000          51.300          56.300
G10  21535089.898 8  21535096.352 8  21535095.938 8  21535094.973 8     -1374.398 8     -1064.484 8     -1064.484 8     -1020.130 8 113167681.334 8  88182647.518 8  88182638.528 8  84508367.043 8        51.500          53.900          48.700          53.800
G16  23167969.000 7  23167971.922 4                                     -3534.320 7     -2751.503 4                                 121748462.671 7  94868981.164 4                                        43.100          27.500
G21  21623258.500 7  21623262.363 6                                      1412.586 7      1103.932 6                                 113631087.276 7  88543661.916 6                                        47.600          37.800
G22  24339630.328 5  24339632.828 2                                      3709.684 5      2892.064 2                                 127905616.467 5  99666733.731 2                                        32.800          17.800
G23  23597210.320 6  23597215.070 4  23597214.863 6  23597218.219 7     -3117.598 6     -2425.751 4     -2425.752 6     -2324.679 7 124004188.223 6  96626665.468 4  96626682.474 6  92600588.735 7        39.000          25.700          41.800          46.000
G27  20500131.195 8  20500137.504 9  20500137.758 8  20500137.387 9     -1200.484 8      -930.267 9      -930.268 8      -891.506 9 107728821.396 8  83944663.529 9  83944664.531 8  80446975.314 9        51.900          55.000          51.600          56.700
G30  25514444.898 5                  25514450.965 5  25514451.066 6      -810.531 5                      -626.048 5      -599.967 6 134079440.85515                 104477406.902 5 100124170.472 6        30.300                          32.200          39.000
G32  24432306.133 6  24432311.984 5  24432312.152 6  24432311.875 7      2717.273 6      2119.156 5      2119.154 6      2030.857 7 128392639.484 6 100046222.926 5 100046227.943 6  95877635.271 7        39.800          35.000          38.400          43.200
> 2022 01 01 00 06 30.0000000  0 11
G01  23360457.805 6  23360466.074 3  23360466.234 6  23360464.969 7      3058.520 6      2385.555 3      2385.555 6      2286.156 7 122760026.336 6  95657206.540 3  95657202.535 6  91671493.207 7        38.800          22.300          38.800          46.600
G07  25119384.367 5  25119388.746 2  25119389.352 5                     -1698.918 5     -1319.938 2     -1319.936 5                 132003300.033 5 102859703.046 2 102859673.042 5                        34.000          13.900          35.200
G08  20479268.953 8  20479275.086 9  20479275.496 8  20479274.438 9       936.215 8       734.477 9       734.476 8       703.873 9 107619276.460 8  83859236.893 9  83859238.901 8  80365105.185 9        50.200          55.100          51.300          56.100
G10  21542984.258 8  21542990.543 8  21542990.199 8  21542989.109 8     -1391.227 8     -1077.534 8     -1077.534 8     -1032.636 8 113209166.383 8  88214973.534 8  88214964.539 8  84539346.137 8        51.300          53.800          48.500          53.500
G16  23188164.750 7  23188167.609 4                                     -3540.957 7     -2756.608 4                                 121854592.089 7  94951679.415 4                                        44.100          27.700
G21  21615218.367 7  21615222.285 6                                      1404.164 7      1097.414 6                                 113588836.829 7  88510739.506 6                                        47.500          36.900
G22  24318464.352 5  24318466.559 3                                      3705.551 5      2889.040 3                                 127794388.366 5  99580062.528 3                                        33.300          18.600
G23  23615034.000 6  23615038.102 4  23615038.109 6  23615041.824 7     -3126.531 6     -2432.772 4     -2432.772 6     -2331.406 7 124097849.957 6  96699648.639 4  96699665.635 6  92670530.928 7        40.000          25.200          40.900          46.600
G27  20507023.758 8  20507029.871 9  20507030.016 8  20507029.758 9     -1214.094 8      -940.759 9      -940.759 8      -901.561 9 107765040.637 8  83972886.307 9  83972887.309 8  80474022.137 9        52.600          54.900          51.900          56.400
G30  25519116.242 4                  25519122.750 5  25519122.320 6      -826.109 4                      -637.635 5      -611.065 6                                 104496535.957 5 100142502.436 6        29.900                          33.100          39.000
G32  24416807.016 6  24416813.422 5  24416813.875 6  24416812.477 7      2712.445 6      2115.489 5      2115.490 6      2027.344 7 128311193.148 6  99982758.249 5  99982763.260 6  95816814.939 7        39.400          33.600          38.500          42.400
> 2022 01 01 00 07 00.0000000  0 11
G01  23343013.000 6  23343021.652 4  23343021.340 6  23343020.387 7      3052.824 6      2381.140 4      2381.140 6      2281.925 7 122668352.410 6  95585772.343 4  95585768.345 6  91603035.448 7        38.400          24.900          39.700          46.500
G07  25129111.039 5  25129116.566 2  25129116.914 5                     -1709.090 5     -1327.709 2     -1327.710 5                 132054416.933 5 102899534.330 2 102899504.336 5                        32.400          14.800          34.700
G08  20473960.164 8  20473966.645 9  20473967.250 8  20473966.305 9       923.422 8       724.561 9       724.561 8       694.371 9 107591380.868 8  83837500.064 9  83837502.066 8  80344274.053 9        51.500          55.300          51.500          56.400
G10  21550973.672 8  21550980.121 8  21550979.801 8  21550978.891 8     -1407.863 8     -1090.537 8     -1090.537 8     -1045.098 8 113251152.057 8  88247689.644 8  88247680.663 8  84570699.077 8        51.600          53.700          48.600          53.500
G16  23208397.070 7  23208400.207 4                                     -3547.441 7     -2761.658 4                                 121960915.880 7  95034529.144 4                                        43.500          28.900
G21  21607226.227 8  21607229.906 6                                      1395.754 8      1090.897 6                                 113546837.287 8  88478012.594 6                                        48.300          37.500
G22  24297321.648 5  24297323.047 3                                      3701.523 5      2885.969 3                                 127683278.563 5  99493483.472 3                                        33.000          18.600
G23  23632908.219 6  23632912.551 4  23632912.133 6  23632916.094 7     -3135.359 6     -2439.722 4     -2439.723 6     -2338.068 7 124191779.282 6  96772840.300 4  96772857.322 6  92740672.968 7        39.800          25.800          41.200          45.800
G27  20513993.109 8  20513998.977 9  20513999.133 8  20513998.852 9     -1227.539 8      -951.246 9      -951.245 8      -911.610 9 107801663.614 8  84001423.675 9  84001424.669 8  80501370.446 9        52.200          55.000          51.600          56.400
G30  25523872.852 5                  25523878.387 5  25523878.262 6      -840.449 5                      -649.175 5      -622.125 6 134128983.00115                 104516011.218 5 100161166.197 6        31.500                          33.200          39.100
G32  24401335.664 6  24401341.547 5  24401342.547 6  24401341.516 7      2707.629 6      2111.748 5      2111.748 6      2023.758 7 128229890.856 6  99919405.805 5  99919410.819 6  95756102.191 7        40.000          34.600          38.300          43.900
> 2022 01 01 00 07 30.0000000  0 11
G01  23325599.570 6  23325609.266 3  23325608.688 6  23325607.898 7      3047.223 6      2376.703 3      2376.703 6      2277.673 7 122576849.281 6  95514471.254 3  95514467.252 6  91534705.251 7        38.400          23.400          40.900          46.900
G07  25138894.953 5  25138900.660 2  25138900.656 5                     -1718.563 5     -1335.419 2     -1335.420 5                 132105830.700 5 102939596.908 2 102939566.921 5                        33.100          13.900          35.400
G08  20468724.852 8  20468731.109 9  20468731.660 8  20468730.633 9       910.711 8       714.637 9       714.637 8       684.860 9 107563867.341 8  83816060.957 9  83816062.959 8  80323728.244 9        50.900          56.100          51.200          56.300
G10  21559058.508 8  21559064.641 8  21559064.445 8  21559063.164 8     -1424.496 8     -1103.499 8     -1103.499 8     -1057.520 8 113293636.781 8  88280794.624 8  88280785.629 8  84602424.684 8        51.900          53.700          48.500          53.800
G16  23228666.422 7  23228669.707 4                                     -3553.723 7     -2766.629 4                                 122067431.112 7  95117528.018 4                                        43.800          27.900
G21  21599281.922 7  21599285.453 6                                      1387.375 7      1084.386 6                                 113505088.446 7  88445481.023 6                                        47.300          37.700
G22  24276200.500 5  24276202.496 2                                      3697.445 5      2882.833 2                                 127572289.478 5  99406998.466 2                                        34.100          17.800
G23  23650832.063 6  23650836.715 4  23650836.262 6  23650840.746 7     -3144.313 6     -2446.610 4     -2446.609 6     -2344.667 7 124285973.759 6  96846238.612 4  96846255.589 6  92811012.961 7        39.900          25.600          41.200          46.300
G27  20521038.727 8  20521045.059 9  20521044.980 8  20521044.828 9     -1240.969 8      -961.734 9      -961.734 8      -921.661 9 107838690.365 8  84030275.689 9  84030276.683 8  80529020.290 9        51.300          54.900          51.400          56.400
G30  25528711.867 5                  25528718.832 5  25528719.387 6      -855.109 5                      -660.679 5      -633.151 6                                 104535831.602 5 100180160.741 6        31.500                          32.900          40.200
G32  24385892.125 6  24385898.953 5  24385899.668 6  24385898.773 7      2702.668 6      2107.924 5      2107.924 6      2020.094 7 128148735.770 6  99856168.085 5  99856173.089 6  95695499.375 7        39.500          34.200          39.100          43.300
> 2022 01 01 00 08 00.0000000  0 11
G01  23308220.406 6  23308229.273 3  23308229.148 6  23308228.102 7      3041.355 6      2372.245 3      2372.245 6      2273.402 7 122485517.773 6  95443303.900 3  95443299.900 6  91466503.195 7        38.400          22.600          40.600          46.900
G07  25148734.492 5  25148740.152 2  25148740.160 5                     -1728.723 5     -1343.070 2     -1343.070 5                 132157539.046 5 102979889.009 2 102979859.031 5                        30.500          14.800          35.500
G08  20463562.141 8  20463568.414 9  20463569.156 8  20463568.027 9       897.781 8       704.671 9       704.671 8       675.310 9 107536737.522 8  83794920.833 9  83794922.835 8  80303468.956 9        50.500          55.400          51.900          56.200
G10  21567237.719 8  21567243.895 8  21567243.086 8  21567242.531 8     -1441.156 8     -1116.419 8     -1116.419 8     -1069.901 8 113336618.912 8  88314287.190 8  88314278.188 8  84634521.720 8        51.500          53.600          49.200          53.700
G16  23248971.602 7  23248974.840 4                                     -3560.063 7     -2771.547 4                                 122174135.695 7  95200674.436 4                                        43.200          28.200
G21  21591384.867 7  21591388.742 6                                      1378.934 7      1077.881 6                                 113463590.026 7  88413144.599 6                                        47.500          37.200
G22  24255104.133 5  24255106.055 3                                      3693.246 5      2879.645 3                                 127461423.141 5  99320609.112 3                                        34.000          19.600
G23  23668807.164 6  23668811.656 4  23668811.684 7  23668816.098 7     -3152.992 6     -2453.428 4     -2453.428 7     -2351.202 7 124380430.772 6  96919841.448 4  96919858.425 7  92881549.036 7        39.000          25.200          42.400          46.800
G27  20528161.672 8  20528167.875 9  20528168.137 8  20528167.664 9     -1254.555 8      -972.221 9      -972.221 8      -931.712 9 107876120.897 8  84059442.325 9  84059443.319 8  80556971.645 9        52.200          54.900          51.700          56.400
G30  25533636.922 5                  25533642.934 5  25533643.277 6      -870.004 5                      -672.144 5      -644.137 6 134180296.67015                 104555995.920 5 100199484.864 6        32.900                          32.200          40.500
G32  24370476.547 6  24370483.961 5  24370483.871 6  24370483.539 7      2697.469 6      2104.023 5      2104.025 6      2016.356 7 128067730.884 6  99793047.385 5  99793052.352 6  95635008.704 7        38.700          34.000          38.500          43.600
> 2022 01 01 00 08 30.0000000  0 11
G01  23290873.352 6  23290881.797 3  23290881.379 6  23290880.910 7      3035.816 6      2367.770 3      2367.770 6      2269.112 7 122394358.585 6  95372270.817 3  95372266.813 6  91398429.829 7        38.500          23.000          40.100          46.900
G07  25158630.633 5  25158635.957 2  25158635.832 6                     -1737.980 5     -1350.646 2     -1350.648 6                 132209538.994 5 103020408.385 2 103020378.461 6                        34.100          16.300          36.100
G08  20458472.789 8  20458478.945 9  20458479.875 8  20458478.711 9       884.988 8       694.662 9       694.663 8       665.718 9 107509993.030 8  83774080.963 9  83774082.958 8  80283497.409 9        51.000          55.400          51.200          56.400
G10  21575511.211 8  21575517.449 8  21575517.262 8  21575516.168 8     -1457.453 8     -1129.295 8     -1129.296 8     -1082.241 8 113380096.771 8  88348166.034 8  88348157.053 8  84666988.949 8        51.500          53.400          48.800          53.500
G16  23269312.578 7  23269315.602 4                                     -3566.117 7     -2776.382 4                                 122281026.415 7  95283965.907 4                                        43.700          29.000
G21  21583535.508 7  21583539.438 6                                      1370.777 7      1071.393 6                                 113422341.369 7  88381002.809 6                                        47.300          37.600
G22  24234030.789 5  24234032.113 3                                      3689.090 5      2876.457 3                                 127350681.91615  99234317.28613                                        34.200          18.600
G23  23686830.781 6  23686836.055 4  23686835.578 7  23686839.844 7     -3161.570 6     -2460.181 4     -2460.182 7     -2357.674 7 124475147.775 6  96993646.887 4  96993663.886 7  92952279.251 7        38.900          25.500          42.200          47.000
G27  20535361.297 8  20535367.422 9  20535367.406 8  20535367.234 9     -1267.902 8      -982.706 9      -982.706 8      -941.760 9 107913955.093 8  84088923.505 9  84088924.499 8  80585224.441 9        53.000          55.000          51.300          56.400
G30  25538642.859 5                  25538651.660 5  25538650.336 6      -884.453 5                      -683.568 5      -655.086 6 134206614.095 5                 104576502.945 5 100219137.448 6        30.500                          34.700          39.800
G32  24355091.969 6  24355098.160 5  24355098.754 6  24355097.484 7      2692.398 6      2100.043 5      2100.041 6      2012.541 7 127986879.192 6  99730046.093 5  99730051.131 6  95574632.461 7        40.300          34.200          38.300          42.800
> 2022 01 01 00 09 00.0000000  0 11
G01  23273559.445 6  23273567.395 3  23273567.152 6  23273566.672 7      3030.133 6      2363.284 3      2363.283 6      2264.813 7 122303372.087 6  95301372.288 3  95301368.317 6  91330485.436 7        38.100          23.000          40.000          46.900
G07  25168580.906 5  25168585.809 2  25168586.402 6                     -1747.641 5     -1358.163 2     -1358.161 6                 132261828.339 5 103061153.270 2 103061123.297 6                        34.500          15.600          36.200
G08  20453457.172 8  20453463.352 9  20453463.988 8  20453462.801 9       872.164 8       684.633 9       684.633 8       656.106 9 107483634.661 8  83753541.977 9  83753543.979 8  80263814.225 9        51.700          55.300          52.100          56.300
G10  21583878.594 8  21583884.785 8  21583884.934 8  21583883.777 8     -1473.934 8     -1142.120 8     -1142.120 8     -1094.532 8 113424068.369 8  88382429.624 8  88382420.643 8  84699824.897 8        51.100          53.400          48.400          53.400
G16  23289687.766 7  23289691.215 4                                     -3572.250 7     -2781.153 4                                 122388100.768 7  95367400.496 4                                        42.700          28.000
G21  21575733.672 7  21575737.383 6                                      1362.445 7      1064.913 6                                 113381342.189 7  88349055.411 6                                        47.300          37.900
G22  24212980.453 5  24212983.445 3                                      3685.191 5      2873.098 3                                 127240067.587 5  99148124.338 3                                        34.600          19.300
G23  23704904.492 6  23704909.109 4  23704908.496 6  23704912.105 7     -3170.262 6     -2466.860 4     -2466.860 6     -2364.074 7 124570121.932 6  97067652.697 4  97067669.678 6  93023201.480 7        39.500          25.100          41.700          46.000
G27  20542637.734 8  20542643.762 9  20542643.707 8  20542643.582 9     -1281.355 8      -993.181 9      -993.182 8      -951.799 9 107952192.583 8  84118718.950 9  84118719.951 8  80613778.417 9        52.400          55.000          51.700          56.300
G30  25543735.719 5  25543742.773 2  25543742.863 5  25543742.148 6      -899.363 5                      -694.943 5      -665.986 6 134233369.430 5 104597354.19312 104597351.239 5 100239117.035 6        31.900          16.300          34.800          40.100
G32  24339736.680 6  24339742.297 5  24339742.449 6  24339741.844 7      2687.254 6      2095.993 5      2095.993 6      2008.660 7 127906183.505 6  99667166.300 5  99667171.327 6  95514372.672 7        40.700          34.000          39.200          43.400
> 2022 01 01 00 09 30.0000000  0 11
G01  23256278.578 6  23256286.270 3  23256286.258 6  23256285.645 7      3024.270 6      2358.777 3      2358.777 6      2260.495 7 122212559.076 6  95230608.990 3  95230605.001 6  91262670.594 7        38.800          23.000          40.500          47.200
G07  25178585.398 5  25178590.809 2  25178591.145 5                     -1757.234 5     -1365.599 2     -1365.598 5                 132314403.938 5 103102121.230 2 103102091.228 5                        35.700          15.600          35.200
G08  20448514.523 8  20448521.215 9  20448521.766 8  20448520.828 9       859.199 8       674.567 9       674.567 8       646.460 9 107457663.850 8  83733304.970 9  83733306.966 8  80244420.424 9        52.100          55.500          51.300          56.600
G10  21592339.883 8  21592346.168 8  21592345.801 8  21592344.945 8     -1490.270 8     -1154.897 8     -1154.896 8     -1106.776 8 113468531.883 8  88417076.523 8  88417067.528 8  84733028.166 8        51.500          53.400          48.700          53.700
G16  23310097.984 7  23310101.484 4                                     -3578.129 7     -2785.847 4                                 122495355.910 7  95450975.916 4                                        42.500          27.300
G21  21567979.688 7  21567982.746 6                                      1354.199 7      1058.437 6                                 113340592.365 7  88317302.302 6                                        47.900          38.400
G22  24191955.883 5  24191958.980 3                                      3680.648 5      2869.750 3                                 127129582.128 5  99062031.828 3                                        34.800          19.300
G23  23723025.609 6  23723029.102 4  23723029.855 6  23723033.578 7     -3178.406 6     -2473.471 4     -2473.472 6     -2370.409 7 124665350.519 6  97141856.818 4  97141873.832 6  93094313.763 7        40.100          24.500          40.900          46.100
G27  20549990.719 8  20549996.777 9  20549996.988 8  20549996.707 9     -1294.746 8     -1003.653 9     -1003.653 8      -961.834 9 107990833.224 8  84148828.532 9  84148829.535 8  80642633.426 9        52.600          55.000          51.200          56.400
G30  25548910.008 5  25548916.324 2  25548917.266 5  25548917.336 6      -913.480 5      -706.275 2      -706.273 5      -676.846 6 134260560.946 5 104618542.431 2 104618539.435 5 100259422.423 6        33.900          15.600          34.600          40.800
G32  24324410.617 6  24324417.012 5  24324416.898 6  24324416.836 7      2681.773 6      2091.864 5      2091.865 6      2004.703 7 127825646.704 6  99604410.372 5  99604415.362 6  95454231.576 7        40.900          34.300          38.600          43.500
> 2022 01 01 00 10 00.0000000  0 11
G01  23239030.523 6  23239038.445 4  23239038.164 6  23239037.867 7      3018.273 6      2354.250 4      2354.251 6      2256.156 7 122121920.412 6  95159981.480 4  95159977.463 6  91194985.923 7        39.700          24.700          40.600          47.500
G07  25188645.375 5  25188649.547 2  25188650.113 5                     -1766.883 5     -1372.984 2     -1372.985 5                 132367263.811 5 103143310.741 2 103143280.780 5                        34.400          14.800          35.100
G08  20443647.000 8  20443653.188 9  20443653.660 8  20443652.656 9       846.176 8       664.458 9       664.458 8       636.772 9 107432082.223 8  83713371.237 9  83713373.231 8  80225317.269 9        51.800          55.600          51.300          56.400
G10  21600894.406 8  21600900.359 8  21600900.129 8  21600899.160 8     -1506.691 8     -1167.637 8     -1167.637 8     -1118.985 8 113513485.915 8  88452105.635 8  88452096.626 8  84766597.728 8        51.300          53.300          48.500          53.300
G16  23330541.969 6  23330545.473 4                                     -3584.078 6     -2790.488 4                                 122602789.708 6  95534690.561 4                                        41.900          27.700
G21  21560272.727 7  21560275.625 6                                      1345.852 7      1051.963 6                                 113300091.782 7  88285743.410 6                                        47.000          38.000
G22  24170955.672 5  24170959.367 3                                      3676.348 5      2866.402 3                                                                                                        34.100          19.000
G23  23741194.570 6  23741200.008 4  23741199.594 7  23741204.164 7     -3186.816 6     -2480.022 4     -2480.022 7     -2376.688 7 124760831.413 6  97216257.482 4  97216274.489 7  93165614.387 7        39.700          26.700          42.900          47.600
G27  20557420.727 8  20557426.648 9  20557426.984 8  20557426.629 9     -1308.219 8     -1014.129 9     -1014.129 8      -971.874 9 108029877.198 8  84179252.400 9  84179253.395 8  80671789.639 9        52.200          55.000          51.500          56.400
G30  25554168.273 5  25554172.996 2  25554173.969 5  25554173.945 6      -928.176 5      -717.573 2      -717.575 5      -687.675 6 134288187.510 5 104640069.618 2 104640066.676 5 100280052.667 6        34.900          16.300          34.800          41.800
G32  24309115.250 6  24309121.898 5  24309122.699 6  24309121.859 7      2676.367 6      2087.651 5      2087.651 6      2000.666 7 127745272.111 6  99541780.829 5  99541785.818 6  95394211.585 7        40.900          34.800          38.600          43.800
> 2022 01 01 00 10 30.0000000  0 11
G01  23221815.117 6  23221823.766 4  23221823.539 6  23221822.887 7      3012.625 6      2349.705 4      2349.704 6      2251.801 7 122031456.710 6  95089490.321 4  95089486.347 6  91127431.892 7        40.000          25.300          40.500          46.700
G07  25198756.883 5  25198762.504 2  25198762.246 5                     -1775.941 5     -1380.292 2     -1380.291 5                 132420405.067 5 103184719.496 2 103184689.522 5                        31.600          12.600          35.700
G08  20438853.039 8  20438859.500 9  20438860.063 8  20438858.895 9       833.207 8       654.318 9       654.318 8       627.055 9 107406890.957 8  83693741.682 9  83693743.684 8  80206505.610 9        51.800          55.300          51.500          56.200
G10  21609541.891 8  21609548.016 8  21609547.648 8  21609546.711 8     -1522.898 8     -1180.328 8     -1180.328 8     -1131.147 8 113558928.532 8  88487515.459 8  88487506.476 8  84800532.151 8        50.900          53.200          48.700          53.200
G16  23351019.453 6  23351022.941 4                                     -3589.867 6     -2795.043 4                                 122710398.872 6  95618541.842 4                                        41.800          28.100
G21  21552612.570 7  21552616.297 6                                      1337.613 7      1045.501 6                                 113259839.964 7  88254378.378 6                                        47.300          38.100
G22  24149982.102 5  24149985.117 2                                      3672.184 5      2863.054 2                                                                                                        34.300          16.300
G23  23759411.984 6  23759417.105 4  23759416.258 7  23759420.109 7     -3195.172 6     -2486.501 4     -2486.501 7     -2382.897 7 124856561.730 6  97290852.521 4  97290869.513 7  93237101.305 7        40.400          25.300          42.300          46.200
G27  20564927.242 8  20564933.195 9  20564933.480 8  20564933.215 9     -1321.570 8     -1024.599 9     -1024.599 8      -981.907 9 108069324.266 8  84209990.362 9  84209991.372 8  80701246.854 9        52.600          54.900          51.500          56.400
G30  25559507.133 5  25559513.078 2  25559513.809 5  25559513.246 7      -942.727 5      -728.826 2      -728.825 5      -698.458 7 134316247.296 5 104661934.407 2 104661931.435 5 100301006.401 7        34.300          16.900          35.400          42.200
G32  24293852.008 6  24293858.582 5  24293858.871 6  24293858.375 7      2670.902 6      2083.363 5      2083.363 6      1996.556 7 127665062.646 6  99479279.943 5  99479284.922 6  95334314.898 7        41.300          35.500          39.400          43.200
> 2022 01 01 00 11 00.0000000  0 11
G01  23204634.188 6  23204642.219 4  23204642.281 6  23204641.387 7      3006.637 6      2345.142 4      2345.142 6      2247.427 7 121941168.725 6  95019136.069 4  95019132.074 6  91060009.086 7        40.000          25.000          39.500          47.200
G07  25208923.547 5                  25208927.941 5                     -1785.473 5                     -1387.540 5                 132473825.39715                 103226315.714 5                        32.900                          33.500
G08  20434133.734 8  20434140.227 9  20434140.922 8  20434139.656 9       820.004 8       644.148 9       644.148 8       617.308 9 107382091.265 8  83674417.239 9  83674419.233 8  80187986.358 9        50.900          55.600          51.800          56.100
G10  21618282.289 8  21618288.168 8  21618288.063 8  21618286.719 8     -1539.176 8     -1192.974 8     -1192.973 8     -1143.266 8 113604858.008 8  88523304.666 8  88523295.663 8  84834830.134 8        51.400          53.300          48.800          53.400
G16  23371530.000 6  23371533.121 4                                     -3595.605 6     -2799.553 4                                 122818181.671 6  95702528.424 4                                        41.800          26.800
G21  21545000.047 7  21545003.797 6                                      1329.203 7      1039.044 6                                 113219836.756 7  88223207.055 6                                        47.600          38.600
G22  24129033.039 5  24129035.957 2                                      3667.473 5      2859.707 2                                                                                                        34.300          16.900
G23  23777675.250 6  23777679.566 3  23777679.730 6  23777684.527 7     -3203.348 6     -2492.917 3     -2492.918 6     -2389.046 7 124952539.070 6  97365640.033 3  97365657.047 6  93308772.678 7        37.700          22.500          40.600          46.200
G27  20572510.305 8  20572516.457 9  20572516.531 8  20572516.523 9     -1335.176 8     -1035.065 9     -1035.065 8      -991.937 9 108109174.298 8  84241042.324 9  84241043.326 8  80731004.978 9        52.300          55.100          51.900          56.300
G30  25564928.727 5  25564935.551 2  25564935.840 5  25564935.555 7      -956.641 5      -740.032 2      -740.033 5      -709.198 7 134344738.558 5 104684135.369 2 104684132.419 5 100322282.342 7        32.800          16.300          35.600          42.700
G32  24278620.836 6  24278627.063 5  24278627.891 6  24278627.680 7      2665.102 6      2078.997 5      2078.997 6      1992.373 7 127585021.269 6  99416910.028 5  99416915.002 6  95274543.721 7        41.200          34.400          39.100          44.100
> 2022 01 01 00 11 30.0000000  0 11
G01  23187486.352 6  23187494.469 4  23187493.930 6  23187493.914 7      3000.691 6      2340.563 4      2340.563 6      2243.040 7 121851057.035 6  94948919.183 4  94948915.185 6  90992717.903 7        40.800          24.500          40.200          47.400
G07  25219143.039 5                  25219145.313 5                     -1794.410 5                     -1394.707 5                 132527521.639 5                 103268156.933 5                        32.200                          32.700
G08  20429489.359 8  20429495.859 9  20429496.250 8  20429495.227 9       807.031 8       633.949 9       633.948 8       607.535 9 107357684.241 8  83655398.776 9  83655400.785 8  80169760.317 9        52.000          55.300          51.500          56.400
G10  21627114.344 8  21627120.563 8  21627120.398 8  21627119.227 8     -1555.121 8     -1205.568 8     -1205.568 8     -1155.336 8 113651272.387 8  88559471.714 8  88559462.712 8  84869490.217 8        50.900          53.200          48.800          53.500
G16  23392072.195 7  23392075.957 4                                     -3601.285 7     -2803.977 4                                 122926134.783 7  95786647.734 4                                        42.100          27.000
G21  21537434.977 7  21537438.402 6                                      1321.078 7      1032.604 6                                 113180081.495 7  88192228.941 6                                        47.200          38.400
G22  24108109.602 5  24108113.563 3                                      3662.266 5      2856.359 3                                                                                                        32.600          18.300
G23  23795986.641 6  23795990.051 4  23795990.770 6  23795994.258 7     -3211.422 6     -2499.260 4     -2499.260 6     -2395.124 7 125048760.600 6  97440617.839 4  97440634.855 6  93380626.408 7        39.800          25.200          41.000          45.500
G27  20580170.148 8  20580176.250 9  20580176.238 8  20580176.156 9     -1348.457 8     -1045.524 9     -1045.524 8     -1001.960 9 108149426.989 8  84272408.045 9  84272409.032 8  80761063.777 9        52.000          54.900          51.800          56.300
G30  25570432.578 5  25570438.980 2  25570439.078 6  25570439.035 7      -970.938 5      -751.195 2      -751.194 6      -719.895 7 134373659.523 5 104706671.231 2 104706668.224 6 100343879.185 7        33.500          16.900          36.100          43.200
G32  24263421.875 6  24263428.469 5  24263429.051 6  24263428.539 7      2659.336 6      2074.556 5      2074.557 6      1988.116 7 127505150.817 6  99354673.336 5  99354678.292 6  95214900.234 7        40.600          34.300          39.500          44.100
> 2022 01 01 00 12 00.0000000  0 11
G01  23170372.648 6  23170380.750 3  23170380.258 6  23170379.934 7      2995.008 6      2335.964 3      2335.964 6      2238.631 7 121761122.363 6  94878840.252 3  94878836.255 6  90925558.961 7        40.500          23.200          41.100          47.000
G07  25229409.414 4                  25229416.160 5                     -1803.617 4                     -1401.875 5                 132581491.62914                 103310211.40915                        28.000                          32.000
G08  20424919.797 8  20424926.141 9  20424926.828 8  20424925.848 9       793.922 8       623.713 9       623.714 8       597.725 9 107333671.291 8  83636687.377 9  83636689.379 8  80151828.568 9        52.100          55.600          51.500          56.400
G10  21636038.438 8  21636044.879 8  21636044.559 8  21636043.535 8     -1571.207 8     -1218.119 8     -1218.119 8     -1167.364 8 113698169.973 8  88596015.283 8  88596006.280 8  84904511.145 8        51.000          53.300          48.800          53.800
G16  23412647.117 6  23412651.121 4                                     -3606.727 6     -2808.327 4                                 123034255.397 6  95870897.556 4                                        41.400          27.300
G21  21529916.945 7  21529920.277 6                                      1312.859 7      1026.170 6                                 113140573.929 7  88161443.831 6                                        46.800          37.900
G22  24087214.867 5  24087217.711 3                                      3657.824 5      2853.011 3                                 126579167.72915  98633137.54713                                        33.100          18.600
G23  23814342.305 6  23814347.086 3  23814346.609 6  23814350.551 7     -3219.348 6     -2505.539 3     -2505.539 6     -2401.142 7 125145223.849 6  97515784.008 3  97515801.012 6  93452660.669 7        40.200          23.800          40.500          45.100
G27  20587906.586 8  20587912.793 9  20587912.813 8  20587912.664 9     -1361.840 8     -1055.981 9     -1055.981 8     -1011.982 9 108190082.272 8  84304087.482 9  84304088.470 8  80791423.238 9        52.500          54.900          51.300          56.400
G30  25576016.914 5  25576022.695 2  25576024.195 6  25576023.633 7      -985.277 5      -762.313 2      -762.315 6      -730.552 7 134403008.605 5 104729540.619 2 104729537.665 6 100365795.738 7        33.700          15.600          36.300          42.300
G32  24248257.055 6  24248263.012 5  24248263.414 6  24248262.453 7      2653.727 6      2070.036 5      2070.035 6      1983.784 7 127425454.439 6  99292572.252 5  99292577.256 6  95155386.715 7        40.300          35.400          39.900          43.800
> 2022 01 01 00 12 30.0000000  0 11
G01  23153292.078 6  23153300.844 4  23153300.180 6  23153299.305 7      2988.949 6      2331.348 4      2331.348 6      2234.209 7 121671365.386 6  94808899.809 4  94808895.801 6  90858532.702 7        39.900          25.200          41.100          47.300
G07  25239732.719 4                  25239738.496 5                     -1812.398 4                     -1409.042 5                 132635732.46214                 103352476.88515                        26.800                          30.800
G08  20420425.664 8  20420431.727 9  20420432.609 8  20420431.480 9       780.652 8       613.448 9       613.448 8       587.888 9 107310053.552 8  83618283.949 9  83618285.944 8  80134191.942 9        52.100          55.600          51.400          56.400
G10  21645054.352 8  21645060.586 8  21645060.449 8  21645059.520 8     -1587.340 8     -1230.622 8     -1230.622 8     -1179.346 8 113745548.918 8  88632933.949 8  88632924.947 8  84939891.519 8        50.900          53.200          48.400          53.500
G16  23433253.133 6  23433256.809 4                                     -3612.223 6     -2812.602 4                                 123142540.576 6  95955275.601 4                                        41.600          26.400
G21  21522446.172 7  21522449.469 6                                      1304.590 7      1019.739 6                                 113101313.953 7  88130851.655 6                                        47.100          37.600
G22  24066345.992 5  24066349.176 3                                      3653.266 5      2849.663 3                                 126469502.08115  98547683.81613                                        34.300          19.600
G23  23832744.609 6  23832748.254 4  23832748.988 6  23832752.020 7     -3227.355 6     -2511.752 4     -2511.753 6     -2407.095 7 125241926.290 6  97591136.560 4  97591153.594 6  93524873.519 7        40.600          24.400          40.500          45.400
G27  20595719.313 8  20595725.816 9  20595726.066 8  20595725.574 9     -1375.270 8     -1066.432 9     -1066.433 8     -1021.998 9 108231139.944 8  84336080.456 9  84336081.450 8  80822083.171 9        52.700          55.000          51.200          56.500
G30  25581683.461 5  25581689.098 2  25581690.246 6  25581689.992 7      -999.621 5      -773.391 2      -773.389 6      -741.165 7 134432784.119 5 104752742.347 2 104752739.337 6 100388030.677 7        34.800          16.900          36.900          42.400
G32  24233124.070 6  24233130.633 5  24233131.008 6  24233130.512 7      2647.648 6      2065.438 5      2065.438 6      1979.378 7 127345935.048 6  99230609.106 5  99230614.133 6  95096005.367 7        39.500          35.300          40.000          44.100
> 2022 01 01 00 13 00.0000000  0 10
G01  23136245.664 6  23136254.211 4  23136253.863 6  23136253.438 7      2983.094 6      2326.717 4      2326.717 6      2229.771 7 121581786.715 6  94739098.290 4  94739094.292 6  90791639.580 7        39.800          25.000          41.300          46.800
G08  20416006.789 8  20416012.988 9  20416013.832 8  20416012.828 9       767.480 8       603.144 9       603.144 8       578.012 9 107286832.541 8  83600189.640 9  83600191.635 8  80116851.579 9        52.100          55.700          51.500          56.500
G10  21654161.711 8  21654167.816 8  21654167.324 8  21654166.805 8     -1603.145 8     -1243.075 8     -1243.075 8     -1191.280 8 113793407.307 8  88670226.191 8  88670217.203 8  84975629.927 8        49.700          53.200          48.500          53.300
G16  23453890.164 6  23453893.777 4                                     -3617.555 6     -2816.832 4                                 123250988.634 6  96039780.573 4                                        41.700          26.100
G21  21515022.469 7  21515025.859 6                                      1296.348 7      1013.312 6                                 113062301.435 7  88100452.294 6                                        47.000          38.600
G22  24045505.328 5  24045508.379 3                                      3648.504 5      2846.315 3                                 126359980.38715  98462342.29313                                        33.900          19.300
G23  23851190.844 6  23851195.313 4  23851195.820 6  23851200.500 7     -3235.188 6     -2517.896 4     -2517.895 6     -2412.982 7 125338865.250 6  97666673.423 4  97666690.440 6  93597262.979 7        40.700          25.000          41.400          47.800
G27  20603609.391 8  20603615.344 9  20603615.316 8  20603615.047 9     -1388.617 8     -1076.878 9     -1076.878 8     -1032.009 9 108272599.776 8  84368386.810 9  84368387.804 8  80853043.427 9        52.300          55.000          51.500          56.100
G30  25587430.211 5  25587436.512 2  25587436.664 6  25587436.980 7     -1013.723 5      -784.411 2      -784.411 6      -751.727 7 134462983.952 5 104776274.662 2 104776271.680 6 100410582.496 7        35.000          16.900          36.400          42.500
G32  24218025.766 6  24218032.559 5  24218033.223 6  24218032.848 7      2641.656 6      2060.763 5      2060.765 6      1974.899 7 127266595.655 6  99168786.208 5  99168791.173 6  95036758.383 7        38.300          34.000          39.100          43.900
> 2022 01 01 00 13 30.0000000  0 10
G01  23119233.820 6  23119241.555 4  23119241.516 6  23119241.621 8      2977.004 6      2322.066 4      2322.066 6      2225.314 8 121492387.093 6  94669436.296 4  94669432.297 6  90724880.158 8        40.000          25.600          41.400          48.000
G08  20411663.969 8  20411669.895 9  20411670.590 8  20411669.727 9       754.105 8       592.797 9       592.797 8       568.097 9 107264009.851 8  83582405.728 9  83582407.730 8  80099808.665 9        52.200          55.400          51.400          56.400
G10  21663359.813 8  21663365.938 8  21663365.473 8  21663364.781 8     -1619.156 8     -1255.482 8     -1255.482 8     -1203.170 8 113841743.360 8  88707890.653 8  88707881.658 8  85011725.031 8        50.700          53.200          48.500          53.200
G16  23474557.414 6  23474560.910 4                                     -3622.957 6     -2820.990 4                                 123359596.733 6  96124410.258 4                                        41.800          25.500
G21  21507645.172 7  21507648.738 6                                      1288.035 7      1006.903 6                                 113023535.646 7  88070245.200 6                                        47.200          38.700
G22  24024692.313 5  24024694.313 3                                      3643.590 5      2840.918 3                                 126250605.017 5  98377114.740 3                                        33.700          20.100
G23  23869682.047 6  23869687.262 3  23869687.379 6  23869690.992 7     -3242.941 6     -2523.969 3     -2523.969 6     -2418.805 7 125436038.148 6  97742392.500 3  97742409.516 6  93669827.132 7        40.600          22.600          40.900          45.600
G27  20611575.141 8  20611581.352 9  20611581.383 8  20611581.223 9     -1402.152 8     -1087.320 9     -1087.320 8     -1042.014 9 108314461.602 8  84401006.398 9  84401007.393 8  80884303.859 9        52.500          55.200          51.300          56.100
G30  25593257.102 5  25593263.918 2  25593263.840 6  25593263.398 7     -1027.816 5      -795.394 2      -795.394 6      -762.253 7 134493606.592 5 104800136.469 2 104800133.493 6 100433450.101 7        34.900          16.300          36.800          42.600
G32  24202963.516 6  24202970.328 5  24202970.594 6  24202969.813 7      2635.504 6      2056.013 5      2056.011 6      1970.344 7 127187439.153 6  99107105.831 5  99107110.828 6  94977648.050 7        40.300          35.500          40.200          44.500
> 2022 01 01 00 14 00.0000000  0 10
G01  23102256.117 6  23102264.016 4  23102263.430 6  23102262.996 7      2971.031 6      2317.403 4      2317.403 6      2220.844 7 121403167.036 6  94599914.210 4  94599910.206 6  90658254.836 7        40.600          25.700          41.200          47.600
G08  20407396.984 8  20407402.930 9  20407403.512 8  20407402.680 9       740.738 8       582.433 9       582.433 8       558.165 9 107241586.203 8  83564932.750 9  83564934.752 8  80083063.724 9        52.000          55.500          51.100          56.700
G10  21672648.438 8  21672654.582 8  21672654.117 8  21672653.184 8     -1635.004 8     -1267.837 8     -1267.836 8     -1215.010 8 113890555.078 8  88745925.752 8  88745916.742 8  85048175.328 8        50.400          53.000          48.000          53.200
G16  23495254.633 6  23495258.211 4                                     -3627.957 6     -2825.064 4                                 123468361.692 6  96209162.182 4                                        41.800          25.200
G21  21500315.055 7  21500318.758 6                                      1279.844 7      1000.502 6                                 112985016.291 7  88040230.145 6                                        47.200          38.900
G22  24003906.641 5  24003909.211 3                                      3638.434 5      2837.070 3                                 126141377.787 5  98292002.641 3                                        34.500          19.300
G23  23888217.648 6  23888221.152 3  23888222.094 6  23888225.395 7     -3250.688 6     -2529.980 3     -2529.979 6     -2424.563 7 125533442.345 6  97818291.889 3  97818308.871 6  93742564.019 7        39.800          22.200          37.900          44.300
G27  20619617.961 8  20619623.816 9  20619623.984 8  20619623.695 9     -1415.516 8     -1097.753 9     -1097.754 8     -1052.014 9 108356725.115 8  84433938.999 9  84433940.002 8  80915864.275 9        52.700          55.200          51.000          56.300
G30  25599164.883 5  25599171.203 3  25599171.703 6  25599171.625 7     -1041.961 5      -806.331 3      -806.329 6      -772.732 7 134524650.276 5 104824326.387 3 104824323.366 6 100456632.054 7        34.300          18.600          37.200          43.800
G32  24187935.820 6  24187942.539 5  24187942.492 6  24187942.176 7      2629.273 6      2051.185 5      2051.184 6      1965.719 7 127108468.561 6  99045570.296 5  99045575.311 6  94918676.489 7        39.600          35.200          40.200          44.500
> 2022 01 01 00 14 30.0000000  0 10
G01  23085312.281 6  23085320.188 4  23085320.477 6  23085319.277 7      2964.871 6      2312.719 4      2312.719 6      2216.356 7 121314127.319 6  94530532.627 4  94530528.646 6  90591764.168 7        40.900          25.700          41.800          47.600
G08  20403205.352 8  20403211.988 9  20403212.621 8  20403211.434 9       727.344 8       572.046 9       572.046 8       548.211 9 107219562.428 8  83547771.361 9  83547773.371 8  80066617.394 9        51.700          55.600          52.000          56.600
G10  21682026.766 8  21682033.348 8  21682032.844 8  21682031.926 8     -1650.832 8     -1280.145 8     -1280.146 8     -1226.806 8 113939840.663 8  88784330.105 8  88784321.111 8  85084979.504 8        49.500          52.900          48.800          53.200
G16  23515981.438 6  23515985.113 4                                     -3633.277 6     -2829.078 4                                 123577281.205 6  96294034.529 4                                        41.800          25.600
G21  21493032.148 7  21493035.523 6                                      1271.586 7       994.103 6                                 112946743.303 7  88010407.052 6                                        47.100          38.400
G22  23983150.945 5  23983152.570 3                                      3633.184 5      2833.174 3                                 126032300.608 5  98207007.422 3                                        35.300          20.100
G23  23906797.047 6  23906800.789 4  23906801.355 6  23906805.117 7     -3258.168 6     -2535.923 4     -2535.924 6     -2430.260 7 125631075.382 6  97894369.583 4  97894386.591 6  93815471.811 7        40.200          24.600          40.700          45.500
G27  20627736.719 8  20627742.695 9  20627742.898 8  20627742.625 9     -1429.039 8     -1108.183 9     -1108.183 8     -1062.009 9 108399390.184 8  84467184.493 9  84467185.488 8  80947724.531 9        52.200          54.900          51.700          56.100
G30  25605151.891 5  25605158.707 2  25605159.117 6  25605159.230 7     -1055.820 5      -817.216 2      -817.217 6      -783.166 7 134556113.170 5 104848842.860 2 104848839.884 6 100480127.032 7        34.700          17.800          37.300          43.600
G32  24172943.891 6  24172951.051 5  24172951.637 6  24172950.426 7      2622.953 6      2046.277 5      2046.276 6      1961.015 7 127029686.856 6  98984181.982 5  98984187.016 6  94859846.051 7        39.600          35.900          39.700          44.500
> 2022 01 01 00 15 00.0000000  0 10
G01  23068403.039 6  23068410.828 4  23068410.434 6  23068410.082 8      2958.934 6      2308.018 4      2308.019 6      2211.851 8 121225268.549 6  94461292.080 4  94461288.072 6  90525408.645 8        39.900          26.300          41.200          48.000
G08  20399091.133 8  20399097.551 9  20399097.859 8  20399096.914 9       713.961 8       561.619 9       561.619 8       538.218 9 107197940.095 8  83530922.795 9  83530924.789 8  80050470.853 9        52.100          55.600          51.300          56.300
G10  21691495.398 8  21691501.809 8  21691501.535 8  21691500.668 8     -1666.469 8     -1292.403 8     -1292.403 8     -1238.553 8 113989598.165 8  88823102.191 8  88823093.189 8  85122136.090 8        51.000          52.900          48.000          53.200
G16  23536736.914 6  23536740.359 4                                     -3638.285 6     -2833.012 4                                 123686352.214 6  96379024.905 4                                        41.600          25.200
G21  21485795.984 7  21485799.441 6                                      1263.359 7       987.715 6                                 112908716.272 7  87980775.613 6                                        47.900          38.800
G22  23962422.898 5  23962424.629 3                                      3628.066 5      2829.208 3                                 125923376.067 5  98122131.176 3                                        34.000          20.100
G23  23925417.797 6  23925423.734 4  23925423.441 7  23925427.480 7     -3265.773 6     -2541.795 4     -2541.795 7     -2435.887 7 125728934.526 6  97970623.444 4  97970640.443 7  93888548.422 7        38.400          24.400          42.200          46.600
G27  20635931.969 8  20635938.055 9  20635938.160 8  20635937.848 9     -1442.324 8     -1118.605 9     -1118.605 8     -1071.996 9 108442456.477 8  84500742.630 9  84500743.632 8  80979884.411 9        52.200          55.200          51.100          56.300
G30  25611219.469 6  25611225.031 2  25611226.051 6  25611225.504 7     -1069.523 6      -828.058 2      -828.058 6      -793.555 7 134587993.349 6 104873684.596 2 104873681.624 6 100503933.696 7        36.000          16.300          37.800          43.200
G32  24157989.352 6  24157995.555 5  24157995.898 6  24157995.020 7      2616.328 6      2041.295 5      2041.297 6      1956.242 7 126951097.018 6  98922943.125 5  98922948.117 6  94801158.801 7        39.700          35.400          39.800          44.100
> 2022 01 01 00 15 30.0000000  0 10
G01  23051527.773 6  23051535.691 4  23051535.629 6  23051535.320 8      2952.906 6      2303.302 4      2303.302 6      2207.331 8 121136591.350 6  94392193.019 4  94392189.017 6  90459188.711 8        39.700          26.500          41.300          48.100
G08  20395053.047 8  20395059.438 9  20395059.953 8  20395058.996 9       700.672 8       551.166 9       551.166 8       528.201 9 107176720.187 8  83514387.803 9  83514389.805 8  80034624.825 9        51.500          55.700          51.800          56.400
G10  21701053.438 8  21701059.871 8  21701058.988 8  21701058.617 8     -1681.988 8     -1304.609 8     -1304.609 8     -1250.250 8 114039825.634 8  88862240.469 8  88862231.473 8  85159643.603 8        50.400          52.900          48.200          53.200
G16  23557520.648 6  23557524.246 4                                     -3643.063 6     -2836.887 4                                 123795572.392 6  96464131.530 4                                        41.000          24.200
G21  21478606.609 7  21478609.969 6                                      1255.359 7       981.341 6                                 112870934.630 7  87951335.378 6                                        47.800          39.000
G22  23941724.398 5  23941726.504 3                                      3623.070 5      2825.202 3                                 125814605.829 5  98037375.125 3                                        34.800          19.600
G23  23944084.406 6  23944087.926 4  23944087.801 6  23944092.566 7     -3273.133 6     -2547.602 4     -2547.599 6     -2441.451 7 125827017.266 6  98047051.489 4  98047068.425 6  93961791.964 7        40.200          24.600          40.200          46.400
G27  20644203.305 8  20644209.648 9  20644209.668 8  20644209.375 9     -1455.531 8     -1129.020 9     -1129.020 8     -1081.977 9 108485923.743 8  84534613.230 9  84534614.226 8  81012343.731 9        52.300          55.000          51.300          56.200
G30  25617364.281 5  25617370.758 3  25617370.820 6  25617370.766 6     -1083.547 5      -838.846 3      -838.844 6      -803.893 6 134620288.944 5 104898849.978 3 104898846.950 6 100528050.476 6        35.500          18.600          36.300          41.900
G32  24143070.609 6  24143077.098 5  24143077.754 6  24143077.402 7      2609.914 6      2036.237 5      2036.236 6      1951.394 7 126872701.921 6  98861856.023 5  98861861.030 6  94742616.984 7        39.400          35.300          39.400          44.600
> 2022 01 01 00 16 00.0000000  0 10
G01  23034687.766 6  23034695.895 4  23034695.684 6  23034695.090 8      2946.672 6      2298.564 4      2298.564 6      2202.790 8 121048096.579 6  94323236.086 4  94323232.088 6  90393105.011 8        40.200          25.900          41.400          48.100
G08  20391091.750 8  20391098.309 9  20391098.836 8  20391097.902 9       687.082 8       540.663 9       540.663 8       518.135 9 107155904.684 8  83498167.925 9  83498169.927 8  80019080.764 9        51.800          55.900          51.600          56.500
G10  21710700.430 8  21710706.672 8  21710706.461 7  21710705.496 8     -1697.656 8     -1316.775 8     -1316.775 7     -1261.909 8 114090521.460 8  88901743.711 8  88901734.716 7  85197500.877 8        49.300          52.600          47.800          53.400
G16  23578332.594 6  23578335.773 4                                     -3647.953 6     -2840.696 4                                 123904939.184 6  96549352.413 4                                        40.800          25.200
G21  21471463.469 7  21471466.953 6                                      1247.102 7       974.961 6                                 112833398.649 7  87922086.556 6                                        47.500          38.400
G22  23921055.859 5  23921057.664 3                                      3617.840 5      2821.128 3                                 125705992.365 5  97952741.279 3                                        33.800          19.000
G23  23962790.367 6  23962794.086 3  23962794.293 6  23962798.176 7     -3280.578 6     -2553.350 3     -2553.353 6     -2446.960 7 125925321.222 6  98123651.988 3  98123668.999 6  94035200.754 7        38.300          22.200          38.500          44.900
G27  20652551.469 8  20652557.695 9  20652557.582 8  20652557.332 9     -1468.930 8     -1139.434 9     -1139.434 8     -1091.958 9 108529791.985 8  84568796.263 9  84568797.258 8  81045102.471 9        52.500          54.900          51.700          56.200
G30  25623588.625 6  25623595.262 2  25623595.117 5  25623595.504 7     -1097.348 6      -849.596 2      -849.597 5      -814.197 7 134652998.405 6 104924337.852 2 104924334.860 5 100552476.396 7        36.200          17.400          35.000          42.600
G32  24128190.547 6  24128197.082 5  24128197.875 6  24128197.145 7      2603.320 6      2031.094 5      2031.093 6      1946.465 7 126794504.781 6  98800923.203 5  98800928.231 6  94684223.020 7        39.600          35.900          40.400          44.300
> 2022 01 01 00 16 30.0000000  0 11
G01  23017882.656 6  23017890.715 4  23017890.656 6  23017889.805 8      2940.789 6      2293.813 4      2293.813 6      2198.238 8 120959784.685 6  94254421.684 4  94254417.697 6  90327157.885 8        40.000          25.500          41.700          48.100
G08  20387208.109 8  20387214.250 9  20387215.020 8  20387213.961 9       673.645 8       530.146 9       530.147 8       508.057 9 107135494.054 8  83482263.535 9  83482265.529 8  80003839.059 9        51.500          56.100          51.900          56.400
G10  21720436.414 8  21720442.617 8  21720442.293 8  21720441.367 8     -1713.121 8     -1328.883 8     -1328.883 8     -1273.512 8 114141683.450 8  88941610.192 8  88941601.203 8  85235706.251 8        49.600          52.600          48.100          53.100
G14  25688910.828 5                  25688914.617 5  25688918.293 6      3308.586 5                                                 134996021.14615                 105191819.25615 100808830.79016        32.000                          33.800          37.900
G16  23599172.016 6  23599175.164 4                                     -3652.688 6     -2844.427 4                                 124014449.611 6  96634685.210 4                                        41.300          25.100
G21  21464367.492 7  21464370.211 6                                      1238.980 7       968.605 6                                 112796107.318 7  87893028.395 6                                        47.300          38.900
G22  23900417.688 5  23900419.559 3                                      3612.516 5      2817.007 3                                 125597537.624 5  97868231.070 3                                        33.900          19.000
G23  23981537.523 6  23981542.422 3  23981542.551 6  23981545.930 7     -3287.762 6     -2559.026 3     -2559.025 6     -2452.400 7 126023843.689 6  98200422.755 3  98200439.756 6  94108772.747 7        36.900          21.500          40.800          45.000
G27  20660975.656 8  20660981.551 9  20660981.465 8  20660981.355 9     -1482.281 8     -1149.837 9     -1149.837 8     -1101.927 9 108574060.733 8  84603291.377 9  84603292.372 8  81078160.286 9        52.300          55.200          51.300          56.100
G30  25629891.398 5  25629898.160 3  25629898.230 6  25629898.000 7     -1110.945 5      -860.293 3      -860.292 6      -824.447 7 134686119.706 5 104950146.637 3 104950143.623 6 100577209.804 7        35.900          18.600          36.100          42.500
G32  24113346.898 6  24113354.293 5  24113354.781 6  24113354.934 7      2596.586 6      2025.879 5      2025.879 6      1941.466 7 126716508.440 6  98740146.834 5  98740151.850 6  94625979.036 7        38.100          33.700          39.600          44.900
> 2022 01 01 00 17 00.0000000  0 11
G01  23001112.383 6  23001120.387 4  23001120.273 7  23001119.691 8      2934.430 6      2289.043 4      2289.043 7      2193.666 8 120871656.530 6  94185750.404 4  94185746.410 7  90261347.904 8        41.000          25.800          42.100          48.300
G08  20383401.367 8  20383407.797 9  20383408.203 8  20383407.313 9       660.004 8       519.584 9       519.584 8       497.934 9 107115490.071 8  83466676.015 9  83466678.010 8  79988901.030 9        50.900          55.500          51.500          56.600
G10  21730260.477 8  21730266.777 8  21730266.215 8  21730265.527 8     -1728.664 8     -1340.945 8     -1340.944 8     -1285.072 8 114193309.818 8  88981838.535 8  88981829.519 8  85274258.403 8        50.300          52.400          48.500          52.900
G14  25670042.820 5  25670046.375 2  25670046.250 6  25670050.844 6      3301.531 5                      2575.375 6      2468.067 6 134896869.23015 105114540.97412 105114558.002 6 100734788.782 6        33.900          14.800          36.100          40.800
G16  23620037.813 6  23620041.441 4                                     -3657.375 6     -2848.088 4                                 124124100.994 6  96720127.838 4                                        40.800          24.700
G21  21457317.227 8  21457320.750 6                                      1230.734 8       962.252 6                                 112759060.619 8  87864160.833 6                                        48.200          38.900
G22  23879809.961 5  23879812.242 3                                      3606.977 5      2812.823 3                                 125489243.882 5  97783846.366 3                                        33.800          19.300
G23  24000327.633 6  24000332.566 4  24000332.887 6  24000336.441 7     -3294.984 6     -2564.637 4     -2564.637 6     -2457.778 7 126122582.235 6  98277361.865 4  98277378.855 6  94182506.077 7        39.700          25.000          41.600          46.100
G27  20669475.672 8  20669481.754 9  20669482.004 8  20669481.711 9     -1495.676 8     -1160.236 9     -1160.236 8     -1111.893 9 108618729.826 8  84638098.459 9  84638099.455 8  81111517.069 9        52.400          55.000          51.400          56.200
G30  25636272.023 6  25636279.008 2  25636278.871 6  25636279.109 7     -1124.523 6      -870.944 2      -870.946 6      -834.654 7 134719651.046 6 104976274.948 2 104976271.993 6 100602249.423 7        36.200          17.400          36.600          42.300
G32  24098545.250 6  24098551.035 6  24098551.887 6  24098551.789 7      2589.645 6      2020.583 6      2020.583 6      1936.393 7 126638715.998 6  98679529.357 6  98679534.348 6  94567887.251 7        39.700          36.200          39.900          45.100
> 2022 01 01 00 17 30.0000000  0 11
G01  22984377.219 6  22984385.230 4  22984385.242 6  22984384.609 8      2928.461 6      2284.263 4      2284.263 6      2189.085 8 120783712.367 6  94117222.504 4  94117218.522 6  90195675.352 8        40.100          27.000          41.600          48.400
G08  20379672.313 8  20379678.672 9  20379679.250 8  20379678.266 9       646.430 8       508.995 9       508.995 8       487.787 9 107095893.762 8  83451406.155 9  83451408.149 8  79974267.406 9        51.700          55.700          51.700          56.600
G10  21740172.641 8  21740178.891 8  21740178.602 7  21740177.523 8     -1743.941 8     -1352.946 8     -1352.947 7     -1296.574 8 114245398.248 8  89022426.926 8  89022417.924 7  85313155.613 8        49.800          52.500          47.600          52.900
G14  25651214.875 5  25651218.820 2  25651218.348 5  25651222.938 6      3294.539 5                      2569.915 5      2462.836 6 134797927.49515 105037443.47312 105037460.542 5 100660903.696 6        33.100          16.300          34.700          40.800
G16  23640930.352 6  23640933.289 3                                     -3661.938 6     -2851.695 3                                 124233891.253 6  96805678.690 3                                        40.600          22.300
G21  21450313.828 8  21450317.699 6                                      1222.793 8       955.916 6                                 112722257.841 8  87835483.352 6                                        48.400          38.400
G22  23859233.438 5  23859235.484 3                                      3601.680 5      2808.601 3                                 125381112.671 5  97699588.328 3                                        33.600          20.100
G23  24019157.219 6  24019162.145 3  24019162.020 6  24019165.207 7     -3301.867 6     -2570.172 3     -2570.172 6     -2463.081 7 126221533.879 6  98354467.026 3  98354484.021 6  94256398.519 7        37.700          22.800          40.600          45.500
G27  20678052.258 8  20678058.234 9  20678058.160 8  20678057.922 9     -1508.938 8     -1170.620 9     -1170.620 8     -1121.843 9 108663798.695 8  84673217.045 9  84673218.040 8  81145172.370 9        52.400          55.100          51.100          56.100
G30  25642730.656 6  25642737.352 3  25642737.746 6  25642737.344 7     -1138.125 6      -881.537 3      -881.536 6      -844.807 7 134753590.282 6 105002721.068 3 105002718.072 6 100627593.619 7        36.500          18.300          36.100          42.100
G32  24083780.961 6  24083786.949 6  24083787.402 6  24083787.191 7      2582.789 6      2015.221 6      2015.220 6      1931.252 7 126561130.024 6  98619072.733 6  98619077.733 6  94509949.685 7        40.200          36.100          39.800          43.900
> 2022 01 01 00 18 00.0000000  0 11
G01  22967676.703 6  22967685.363 4  22967684.930 7  22967684.188 8      2922.363 6      2279.461 4      2279.461 7      2184.483 8 120695953.053 6  94048838.670 4  94048834.680 7  90130140.847 8        40.000          26.200          42.600          48.800
G08  20376021.164 8  20376027.258 9  20376027.879 8  20376027.012 9       632.832 8       498.386 9       498.386 8       477.620 9 107076705.897 8  83436454.560 9  83436456.561 8  79959938.801 9        51.400          55.200          52.100          56.800
G10  21750172.336 8  21750178.555 8  21750178.258 7  21750177.055 8     -1759.313 8     -1364.903 8     -1364.903 7     -1308.032 8 114297947.023 8  89063374.024 8  89063365.026 7  85352396.583 8        50.700          52.300          47.700          52.700
G14  25632427.977 5  25632430.746 2  25632430.703 5  25632434.813 6      3287.434 5                      2564.381 5      2457.532 6                                 104960529.111 5 100587177.740 6        31.300          14.800          35.100          40.900
G16  23661848.406 6  23661851.582 4                                     -3666.438 6     -2855.223 4                                 124343817.331 6  96891335.367 4                                        40.600          24.500
G21  21443356.945 8  21443360.434 6                                      1214.688 8       949.581 6                                 112685698.953 8  87806995.929 6                                        48.100          38.700
G22  23838687.836 5  23838690.492 3                                      3596.375 5      2804.316 3                                 125273146.483 5  97615458.838 3                                        34.500          20.600
G23  24038027.289 6  24038031.824 3  24038031.520 6  24038036.492 7     -3308.824 6     -2575.650 3     -2575.651 6     -2468.330 7 126320696.384 6  98431736.530 3  98431753.544 6  94330448.424 7        38.500          21.800          40.400          45.800
G27  20686704.547 8  20686710.559 9  20686710.629 8  20686710.289 9     -1522.188 8     -1181.000 9     -1181.000 8     -1131.792 9 108709267.215 8  84708647.051 9  84708648.053 8  81179126.134 9        52.000          54.900          51.500          56.100
G30  25649266.422 6  25649272.961 2  25649273.043 5  25649273.121 7     -1151.512 6      -892.087 2      -892.089 5      -854.917 7 134787935.636 6 105029483.678 2 105029480.727 5 100653241.143 7        36.700          16.900          35.800          42.200
G32  24069056.609 6  24069063.137 5  24069062.852 6  24069062.918 7      2575.801 6      2009.774 5      2009.773 6      1926.034 7 126483753.719 6  98558779.520 5  98558784.532 6  94452168.670 7        39.900          35.700          39.400          44.900
> 2022 01 01 00 18 30.0000000  0 11
G01  22951012.055 6  22951020.688 4  22951020.203 7  22951019.410 8      2916.027 6      2274.639 4      2274.639 7      2179.863 8 120608379.391 6  93980599.494 4  93980595.507 7  90064744.966 8        39.700          27.500          42.800          48.300
G08  20372447.820 8  20372454.125 9  20372454.652 8  20372453.727 9       619.176 8       487.732 9       487.732 8       467.410 9 107057928.210 8  83421822.596 9  83421824.598 8  79945916.500 9        52.000          55.800          52.100          56.400
G10  21760259.078 8  21760265.555 8  21760265.215 7  21760264.012 8     -1774.512 8     -1376.812 8     -1376.812 7     -1319.445 8 114350954.292 8  89104678.390 8  89104669.394 7  85391979.930 8        50.900          52.200          47.900          52.700
G14  25613680.492 5  25613683.496 2  25613684.113 5  25613689.055 6      3280.098 5                      2558.781 5      2452.166 6 134600685.76815 104883748.68912 104883765.669 5 100513612.771 6        32.600          16.300          34.900          40.600
G16  23682791.953 6  23682795.090 3                                     -3670.785 6     -2858.671 3                                 124453876.140 6  96977095.499 3                                        40.400          22.500
G21  21436446.422 8  21436449.844 6                                      1206.477 8       943.247 6                                 112649383.928 8  87778698.511 6                                        48.400          38.800
G22  23818174.133 5  23818176.313 3                                      3590.559 5      2799.969 3                                 125165347.635 5  97531459.752 3                                        35.700          20.600
G23  24056937.570 6  24056942.316 3  24056942.047 7  24056945.141 7     -3315.742 6     -2581.062 3     -2581.062 7     -2473.518 7 126420067.278 6  98509168.375 3  98509185.392 7  94404653.950 7        38.900          23.300          42.300          45.200
G27  20695432.938 8  20695439.059 9  20695439.113 8  20695438.766 9     -1535.566 8     -1191.377 9     -1191.377 8     -1141.736 9 108755135.234 8  84744388.363 9  84744389.365 8  81213378.227 9        52.100          55.000          51.200          56.100
G30  25655878.977 6  25655885.309 2  25655885.512 6  25655885.754 6     -1164.922 6      -902.584 2      -902.585 6      -864.976 6 134822685.254 6 105056561.204 2 105056558.275 6 100679190.423 6        36.200          17.800          36.200          41.600
G32  24054372.406 6  24054379.301 6  24054379.859 6  24054379.512 7      2568.500 6      2004.246 6      2004.247 6      1920.736 7 126406590.233 6  98498652.140 6  98498657.125 6  94394546.582 7        39.900          36.700          39.700          45.300
> 2022 01 01 00 19 00.0000000  0 11
G01  22934383.070 6  22934391.230 4  22934390.957 7  22934390.027 8      2909.664 6      2269.804 4      2269.805 7      2175.230 8 120520991.876 6  93912505.366 4  93912501.357 7  89999488.073 8        39.500          26.900          42.200          49.100
G08  20368952.453 8  20368959.125 9  20368959.570 8  20368958.492 9       605.254 8       477.060 9       477.060 8       457.182 9 107039561.408 8  83407510.801 9  83407512.789 8  79932201.030 9        51.000          55.800          52.100          56.400
G10  21770432.680 8  21770439.262 8  21770438.855 7  21770437.879 8     -1789.797 8     -1388.666 8     -1388.667 7     -1330.805 8 114404417.943 8  89146338.377 8  89146329.388 7  85431904.086 8        50.500          52.000          47.700          52.700
G14  25594975.594 5  25594979.094 2  25594979.629 5  25594983.656 6      3272.734 5      2553.121 2      2553.121 5      2446.741 6 134502390.693 5 104807155.051 2 104807172.050 5 100440210.539 6        33.400          17.400          35.900          41.400
G16  23703759.836 6  23703763.629 4                                     -3675.340 6     -2862.063 4                                 124564065.567 6  97062957.384 4                                        40.200          24.200
G21  21429582.359 8  21429585.699 6                                      1198.254 8       936.933 6                                 112613312.016 8  87750590.533 6                                        49.100          39.000
G22  23797693.375 6  23797695.371 3                                      3584.934 6      2795.580 3                                 125057717.783 6  97447592.345 3                                        36.800          19.900
G23  24075885.750 6  24075890.242 3  24075890.598 6  24075894.375 7     -3322.641 6     -2586.406 3     -2586.405 6     -2478.640 7 126519643.928 6  98586760.552 3  98586777.553 6  94479013.141 7        37.900          21.300          40.500          45.900
G27  20704237.195 8  20704243.328 9  20704243.367 8  20704243.086 9     -1548.953 8     -1201.742 9     -1201.742 8     -1151.669 9 108801402.308 8  84780440.614 9  84780441.617 8  81247928.295 9        52.700          54.900          51.000          56.100
G30  25662568.367 5  25662575.008 2  25662575.602 6  25662575.117 7     -1178.598 5      -913.039 2      -913.037 6      -874.994 7 134857837.211 5 105083952.362 2 105083949.371 6 100705440.240 7        35.000          15.600          36.600          42.400
G32  24039729.758 6  24039736.730 6  24039736.992 6  24039736.262 7      2561.258 6      1998.646 6      1998.646 6      1915.368 7 126329642.348 6  98438692.751 6  98438697.744 6  94337085.534 7        40.500          37.400          39.900          44.700
> 2022 01 01 00 19 30.0000000  0 11
G01  22917789.328 6  22917797.613 4  22917796.934 7  22917796.469 8      2903.414 6      2264.952 4      2264.951 7      2170.578 8 120433791.171 6  93844556.820 4  93844552.818 7  89934370.739 8        40.900          27.100          42.000          49.000
G08  20365536.188 8  20365542.398 9  20365543.188 8  20365541.988 9       591.508 8       466.351 9       466.351 8       446.920 9 107021606.897 8  83393520.259 9  83393522.261 8  79918793.428 9        51.800          56.000          51.800          56.800
G10  21780693.375 8  21780699.453 8  21780699.414 8  21780698.336 8     -1804.926 8     -1400.469 8     -1400.468 8     -1342.116 8 114458335.992 8  89188352.441 8  89188343.438 8  85472167.569 8        49.700          51.800          48.000          52.900
G14  25576312.734 5  25576315.965 2  25576316.309 6  25576320.879 7      3265.473 5      2553.121 2      2547.391 6      2441.250 7 134404316.14515 104730733.34512 104730750.333 6 100366973.043 7        32.200          15.600          36.500          42.500
G16  23724752.844 6  23724756.223 3                                     -3679.500 6     -2865.391 3                                 124674383.155 6  97148919.124 3                                        39.500          22.200
G21  21422764.219 8  21422767.582 6                                      1190.188 8       930.623 6                                 112577483.009 8  87722671.844 6                                        49.000          38.700
G22  23777244.422 6  23777246.609 3                                      3578.820 6      2791.131 3                                 124950259.274 6  97363858.427 3                                        37.500          22.500
G23  24094873.492 6  24094878.668 3  24094877.730 6  24094881.555 7     -3329.469 6     -2591.685 3     -2591.684 6     -2483.698 7 126619423.827 6  98664511.099 3  98664528.079 6  94553524.066 7        38.300          23.300          40.600          45.000
G27  20713117.313 8  20713123.535 9  20713123.613 8  20713123.309 9     -1562.262 8     -1212.099 9     -1212.099 8     -1161.595 9 108848068.140 8  84816803.595 9  84816804.590 8  81282776.148 9        51.800          55.000          51.200          56.100
G30  25669332.875 5  25669340.258 2  25669340.797 6  25669340.344 7     -1191.781 5      -923.435 2      -923.434 6      -884.959 7 134893389.495 5 105111655.419 2 105111652.396 6 100731988.998 7        34.000          16.900          36.500          42.400
G32  24025128.648 6  24025135.863 6  24025135.914 6  24025134.898 7      2553.836 6      1992.969 6      1992.969 6      1909.929 7 126252913.044 6  98378903.683 6  98378908.684 6  94279787.662 7        40.800          37.100          39.600          44.400
> 2022 01 01 00 20 00.0000000  0 11
G01  22901231.141 6  22901239.430 4  22901239.219 7  22901238.328 8      2897.223 6      2260.086 4      2260.085 7      2165.915 8 120346777.839 6  93776754.251 4  93776750.256 7  89869393.300 8        40.700          27.100          42.300          49.100
G08  20362198.086 8  20362204.441 9  20362205.156 8  20362204.031 9       577.773 8       455.611 9       455.611 8       436.627 9 107004065.879 8  83379851.934 9  83379853.928 8  79905694.618 9        52.400          55.600          51.900          56.700
G10  21791039.609 8  21791045.949 8  21791045.598 7  21791044.672 8     -1819.844 8     -1412.217 8     -1412.218 7     -1353.375 8 114512706.363 8  89230718.960 8  89230709.971 7  85512768.808 8        50.600          51.700          47.400          52.900
G14  25557692.188 5  25557696.438 2  25557696.004 6  25557700.301 7      3257.867 5      2541.594 2      2541.593 6      2435.693 7 134306464.790 5 104654485.534 2 104654502.551 6 100293902.241 7        33.800          16.900          37.400          42.600
G16  23745769.617 6  23745772.980 4                                     -3683.480 6     -2868.645 4                                 124784825.977 6  97234978.473 4                                        40.300          25.800
G21  21415992.492 8  21415995.883 6                                      1182.105 8       924.330 6                                 112541896.287 8  87694941.940 6                                        49.500          39.000
G22  23756829.039 6  23756830.992 3                                      3573.262 6      2786.635 3                                 124842973.810 6  97280259.378 3                                        37.400          22.300
G23  24113899.336 6  24113903.512 3  24113903.551 6  24113907.520 7     -3335.980 6     -2596.895 3     -2596.896 6     -2488.692 7 126719404.265 6  98742417.958 3  98742434.957 6  94628184.837 7        37.400          22.000          40.600          45.100
G27  20722073.234 8  20722079.566 9  20722079.766 8  20722079.281 9     -1575.438 8     -1222.445 9     -1222.445 8     -1171.510 9 108895132.290 8  84853476.948 9  84853477.950 8  81317921.453 9        51.400          55.300          51.900          55.900
G30  25676174.414 5  25676181.746 2  25676182.078 6  25676181.469 7     -1205.004 5      -933.781 2      -933.783 6      -894.875 7 134929340.182 5 105139668.836 2 105139665.872 6 100758835.259 7        34.400          16.900          36.600          42.500
G32  24010570.516 6  24010576.672 6  24010577.066 6  24010575.918 7      2546.426 6      1987.216 6      1987.217 6      1904.416 7 126176405.211 6  98319287.206 6  98319292.187 6  94222655.193 7        41.200          37.400          39.600          43.900
> 2022 01 01 00 20 30.0000000  0 11
G01  22884708.859 6  22884716.984 4  22884716.582 6  22884716.016 8      2891.125 6      2255.200 4      2255.199 6      2161.233 8 120259952.575 6  93709098.256 4  93709094.277 6  89804556.318 8        41.100          26.200          41.600          49.400
G08  20358938.680 8  20358945.309 9  20358946.105 8  20358944.805 9       563.941 8       444.847 9       444.847 8       426.311 9 106986939.283 8  83366506.533 9  83366508.528 8  79892905.275 9        51.800          56.000          51.900          56.600
G10  21801471.578 8  21801477.883 8  21801477.504 7  21801476.723 8     -1834.855 8     -1423.915 8     -1423.915 7     -1364.586 8 114567527.101 8  89273436.416 8  89273427.413 7  85553706.381 8        49.900          51.800          47.800          52.600
G14  25539114.750 5  25539118.570 2  25539119.086 6  25539122.840 7      3250.367 5      2535.729 2      2535.728 6      2430.073 7 134208839.330 5 104578413.663 2 104578430.725 6 100221000.053 7        33.800          17.400          36.800          43.200
G16  23766808.992 6  23766812.609 3                                     -3687.469 6     -2871.817 3                                 124895390.956 6  97321132.989 3                                        40.200          23.400
G21  21409266.695 8  21409269.816 6                                      1174.066 8       918.032 6                                 112506552.041 8  87667400.969 6                                        48.800          38.900
G22  23736446.328 6  23736448.699 3                                      3567.230 6      2782.081 3                                 124735863.677 6  97196796.941 3                                        38.100          21.700
G23  24132962.727 6  24132967.305 3  24132967.004 6  24132971.086 7     -3342.711 6     -2602.043 3     -2602.042 6     -2493.623 7 126819582.940 6  98820479.261 3  98820496.234 6  94702993.534 7        37.500          22.000          41.100          45.800
G27  20731105.078 8  20731111.375 9  20731111.426 8  20731111.016 9     -1588.727 8     -1232.785 9     -1232.785 8     -1181.418 9 108942594.521 8  84890460.498 9  84890461.493 8  81353364.006 9        52.500          55.300          51.600          56.100
G30  25683091.070 5  25683097.832 2  25683097.906 6  25683098.766 7     -1218.156 5      -944.079 2      -944.079 6      -904.740 7 134965687.183 5 105167991.218 2 105167988.254 6 100785977.473 7        35.100          16.900          36.400          42.600
G32  23996053.844 6  23996060.414 6  23996060.500 6  23996060.398 7      2538.996 6      1981.385 6      1981.385 6      1898.828 7 126100121.883 6  98259845.645 6  98259850.654 6  94165690.359 7        41.300          36.500          39.800          45.000
> 2022 01 01 00 21 00.0000000  0 11
G01  22868222.852 6  22868230.668 4  22868230.250 6  22868229.801 8      2884.711 6      2250.299 4      2250.300 6      2156.535 8 120173316.044 6  93641589.296 4  93641585.293 6  89739860.261 8        40.600          27.400          41.700          49.600
G08  20355758.789 8  20355765.344 9  20355766.070 8  20355764.980 9       550.105 8       434.049 9       434.049 8       415.963 9 106970228.409 8  83353485.066 9  83353487.060 8  79880426.371 9        51.800          55.600          52.100          56.700
G10  21811988.977 8  21811995.336 8  21811994.648 7  21811994.063 8     -1849.727 8     -1435.561 8     -1435.562 7     -1375.746 8 114622796.202 8  89316503.247 8  89316494.260 7  85594978.761 8        49.400          51.800          47.500          52.800
G14  25520581.086 5  25520584.457 2  25520584.520 6  25520588.898 7      3242.508 5      2529.794 2      2529.795 6      2424.387 7 134111442.265 5 104502519.838 2 104502536.860 6 100148268.443 7        33.100          16.900          37.700          43.100
G16  23787872.695 6  23787875.566 4                                     -3691.383 6     -2874.931 4                                 125006075.805 6  97407380.926 4                                        40.600          25.300
G21  21402586.773 8  21402589.930 6                                      1166.023 8       911.749 6                                 112471449.704 8  87640048.510 6                                        48.400          38.700
G22  23716097.656 6  23716099.984 3                                      3561.449 6      2777.528 3                                 124628931.28616  97113473.01613                                        37.500          21.500
G23  24152062.922 6  24152067.902 3  24152067.863 6  24152072.395 7     -3349.090 6     -2607.122 3     -2607.122 6     -2498.492 7 126919957.154 6  98898692.913 3  98898709.905 6  94777948.300 7        37.500          22.200          40.200          46.300
G27  20740212.484 8  20740218.738 9  20740219.063 8  20740218.488 9     -1601.953 8     -1243.116 9     -1243.116 8     -1191.319 9 108990454.488 8  84927753.967 9  84927754.962 8  81389103.587 9        51.900          55.000          51.100          55.900
G30  25690082.266 5  25690089.324 2  25690090.180 6  25690090.313 7     -1231.168 5      -954.324 2      -954.324 6      -914.559 7 135002428.674 5 105196620.930 2 105196617.966 6 100813414.255 7        34.100          17.400          36.400          43.100
G32  23981580.680 6  23981587.484 6  23981587.703 6  23981587.336 7      2531.309 6      1975.477 6      1975.478 6      1893.164 7 126024066.020 6  98200581.341 6  98200586.324 6  94108895.426 7        41.000          36.600          40.300          44.500
> 2022 01 01 00 21 30.0000000  0 11
G01  22851771.938 6  22851780.371 4  22851779.785 6  22851779.469 8      2878.383 6      2245.385 4      2245.385 6      2151.827 8 120086868.709 6  93574227.747 4  93574223.752 6  89675305.460 8        41.100          26.800          41.800          48.800
G08  20352658.250 8  20352664.652 9  20352665.301 8  20352664.352 9       536.047 8       423.224 9       423.224 8       405.590 9 106953934.289 8  83340788.346 9  83340790.333 8  79868258.681 9        51.600          55.600          51.300          56.700
G10  21822591.258 8  21822597.535 8  21822596.965 7  21822596.270 8     -1864.719 8     -1447.151 8     -1447.151 7     -1386.853 8 114678511.515 8  89359917.780 8  89359908.785 7  85636584.342 8        49.500          51.600          47.800          52.800
G14  25502090.578 5  25502095.484 2  25502094.664 6  25502098.254 7      3234.844 5      2523.798 2      2523.800 6      2418.641 7 134014276.060 5 104426805.891 2 104426822.852 6 100075709.207 7        32.400          16.900          37.200          42.600
G16  23808957.297 6  23808960.574 3                                     -3695.445 6     -2877.975 3                                 125116877.873 6  97493720.187 3                                        40.200          23.600
G21  21395953.242 8  21395956.473 6                                      1157.863 8       905.476 6                                 112436588.869 8  87612884.243 6                                        48.600          39.000
G22  23695783.617 6  23695785.773 3                                      3555.277 6      2772.800 3                                 124522178.484 6  97030289.025 3                                        37.000          22.300
G23  24171200.484 6  24171204.828 3  24171204.828 6  24171208.840 7     -3355.496 6     -2612.135 3     -2612.136 6     -2503.296 7 127020524.368 6  98977056.969 3  98977073.981 6  94853047.177 7        37.500          21.800          39.600          44.900
G27  20749395.734 8  20749401.637 9  20749401.789 8  20749401.605 9     -1615.410 8     -1253.433 9     -1253.433 8     -1201.206 9 109038711.680 8  84965356.955 9  84965357.950 8  81425139.778 9        52.100          54.900          51.100          56.000
G30  25697149.383 5  25697155.891 2  25697156.004 6  25697156.816 7     -1244.598 5      -964.513 2      -964.512 6      -924.326 7 135039562.441 5 105225556.314 2 105225553.340 6 100841144.033 7        34.800          16.900          37.600          43.600
G32  23967151.141 6  23967158.215 6  23967158.391 6  23967157.895 7      2523.539 6      1969.495 6      1969.495 6      1887.433 7 125948240.440 6  98141496.491 6  98141501.473 6  94052272.438 7        41.100          36.400          40.100          44.400
> 2022 01 01 00 22 00.0000000  0 11
G01  22835358.211 6  22835365.699 4  22835365.309 6  22835364.813 8      2872.008 6      2240.451 4      2240.450 6      2147.098 8 120000611.275 6  93507014.227 4  93507010.244 6  89610892.521 8        41.100          27.000          41.800          48.400
G08  20349637.109 8  20349643.465 9  20349644.082 8  20349643.164 9       522.125 8       412.371 9       412.371 8       395.189 9 106938058.001 8  83328417.211 9  83328419.213 8  79856403.007 9        52.400          55.300          51.600          56.600
G10  21833278.281 8  21833284.285 8  21833283.840 7  21833283.141 8     -1879.453 8     -1458.689 8     -1458.689 7     -1397.911 8 114734671.060 8  89403678.464 8  89403669.461 7  85678521.662 8        49.900          51.500          47.800          52.500
G14  25483643.922 5  25483649.547 2  25483648.902 6  25483653.121 7      3226.836 5      2517.734 2      2517.732 6      2412.827 7 133917343.369 5 104351273.875 2 104351290.879 6 100003324.402 7        32.400          16.300          37.100          42.200
G16  23830064.359 6  23830067.363 4                                     -3699.203 6     -2880.959 4                                 125227794.797 6  97580148.959 4                                        40.200          24.800
G21  21389364.773 8  21389368.426 6                                      1149.926 8       899.218 6                                 112401968.959 8  87585907.696 6                                        48.200          39.200
G22  23675503.508 6  23675506.008 3                                      3549.000 6      2768.072 3                                 124415606.93416  96947246.28113                                        36.900          22.000
G23  24190374.320 6  24190378.086 3  24190377.883 6  24190381.438 7     -3361.801 6     -2617.086 3     -2617.086 6     -2508.042 7 127121282.139 6  99055569.543 3  99055586.572 6  94928288.420 7        36.800          20.400          40.000          43.300
G27  20758654.266 8  20758660.387 9  20758660.387 8  20758660.293 9     -1628.539 8     -1263.743 9     -1263.743 8     -1211.087 9 109087365.791 8  85003269.240 9  85003270.242 8  81461472.390 9        52.600          55.100          51.100          55.900
G30  25704289.844 5  25704296.734 2  25704297.027 6  25704296.992 7     -1257.516 5      -974.651 2      -974.651 6      -934.041 7 135077086.517 5 105254795.830 2 105254792.869 6 100869165.255 7        34.800          17.800          36.200          42.200
G32  23952766.594 6  23952773.668 6  23952773.793 6  23952773.609 7      2515.809 6      1963.437 6      1963.435 6      1881.626 7 125872648.132 6  98082593.393 6  98082598.426 6  93995823.657 7        41.600          36.600          40.200          44.800
> 2022 01 01 00 22 30.0000000  0 11
G01  22818979.203 6  22818987.688 4  22818987.191 7  22818986.586 8      2865.719 6      2235.497 4      2235.498 7      2142.352 8 119914544.605 6  93439949.304 4  93439945.301 7  89546621.957 8        41.500          27.200          42.400          48.200
G08  20346695.820 8  20346702.082 9  20346702.719 8  20346701.777 9       508.270 8       401.480 9       401.480 8       384.751 9 106922601.046 8  83316372.820 9  83316374.822 8  79844860.478 9        52.900          55.700          52.000          56.600
G10  21844049.297 8  21844055.273 8  21844054.809 7  21844054.105 8     -1894.035 8     -1470.179 8     -1470.179 7     -1408.922 8 114791272.964 8  89447783.839 8  89447774.844 7  85720789.319 8        50.000          51.400          47.800          52.800
G14  25465243.859 5  25465248.461 2  25465248.453 6  25465252.668 7      3219.285 5      2511.669 2      2511.593 6      2406.945 7 133820647.03915 104275926.08812 104275943.099 6  99931116.065 7        31.500          16.900          37.400          42.500
G16  23851192.234 6  23851195.512 4                                     -3702.762 6     -2883.867 4                                 125338823.680 6  97666664.958 4                                        40.500          24.500
G21  21382822.781 8  21382826.211 6                                      1142.016 8       892.958 6                                 112367590.066 8  87559118.961 6                                        49.100          38.900
G22  23655257.773 5  23655260.844 3                                      3543.336 5      2763.324 3                                 124309218.904 5  96864346.550 3                                        35.700          22.500
G23  24209582.734 6  24209588.039 3  24209588.418 6  24209592.398 7     -3367.879 6     -2621.974 3     -2621.973 6     -2512.725 7 127222228.160 6  99134228.750 3  99134245.772 6  95003670.171 7        38.400          21.500          41.300          45.200
G27  20767988.328 8  20767994.434 9  20767994.563 8  20767994.277 9     -1641.570 8     -1274.048 9     -1274.048 8     -1220.963 9 109136416.643 8  85041490.670 9  85041491.672 8  81498101.264 9        52.100          55.000          51.000          55.900
G30  25711504.391 5  25711510.832 2  25711511.145 5  25711511.457 6     -1270.152 5      -984.740 2      -984.740 5      -943.709 6 135114999.043 5 105284338.044 2 105284335.071 5 100897476.516 6        34.400          16.300          35.600          41.100
G32  23938427.250 7  23938434.012 6  23938434.375 6  23938433.504 7      2507.973 7      1957.294 6      1957.295 6      1875.740 7 125797292.300 7  98023874.576 6  98023879.579 6  93939551.457 7        42.300          36.400          40.700          44.900
> 2022 01 01 00 23 00.0000000  0 11
G01  22802637.898 6  22802646.637 4  22802646.355 7  22802645.242 8      2859.480 6      2230.529 4      2230.529 7      2137.590 8 119828669.176 6  93373033.430 4  93373029.442 7  89482494.253 8        41.400          27.300          43.100          48.800
G08  20343834.563 8  20343840.629 9  20343841.219 8  20343840.414 9       494.223 8       390.564 9       390.564 8       374.290 9 106907564.349 8  83304655.915 9  83304657.909 8  79833631.763 9        52.600          56.400          52.100          56.700
G10  21854903.805 8  21854910.035 8  21854909.676 8  21854908.918 8     -1908.668 8     -1481.614 8     -1481.615 8     -1419.880 8 114848315.103 8  89492232.265 8  89492223.281 8  85763385.725 8        49.100          51.300          48.000          52.500
G14  25446888.852 5  25446893.313 2  25446893.406 6  25446897.156 6      3211.250 5      2505.391 2      2505.391 6      2400.998 6 133724189.615 5 104200764.363 2 104200781.384 6  99859086.127 6        30.500          16.900          36.500          41.500
G16  23872341.398 6  23872344.906 4                                     -3706.355 6     -2886.704 4                                 125449961.817 6  97753266.070 4                                        39.800          25.400
G21  21376326.453 7  21376329.965 6                                      1134.051 7       886.713 6                                 112333451.610 7  87532517.583 6                                        47.300          39.000
G22  23635048.695 6  23635051.012 3                                      3536.914 6      2758.494 3                                 124203016.858 6  96781591.724 3                                        36.500          22.200
G23  24228828.469 6  24228832.816 3  24228832.520 6  24228837.273 7     -3374.102 6     -2626.796 3     -2626.796 6     -2517.345 7 127323359.853 6  99213032.644 3  99213049.642 6  95079190.530 7        39.500          22.200          40.000          46.000
G27  20777397.367 8  20777403.977 9  20777404.063 8  20777403.816 9     -1654.781 8     -1284.342 9     -1284.342 8     -1230.828 9 109185863.836 8  85080020.935 9  85080021.930 8  81535026.093 9        51.600          55.400          51.100          55.900
G30  25718792.484 5  25718798.539 2  25718799.371 5  25718799.961 6     -1283.164 5      -994.777 2      -994.777 5      -953.327 6 135153297.968 5 105314181.360 2 105314178.385 5 100926076.337 6        32.600          16.300          32.100          40.400
G32  23924133.406 7  23924139.555 6  23924139.586 6  23924139.621 7      2499.906 7      1951.077 6      1951.077 6      1869.782 7 125722175.801 7  97965342.256 6  97965347.257 6  93883457.982 7        42.400          36.600          40.300          44.600
> 2022 01 01 00 23 30.0000000  0 11
G01  22786333.406 6  22786341.328 4  22786341.145 7  22786340.215 8      2853.004 6      2225.548 4      2225.548 7      2132.817 8 119742985.522 6  93306266.980 4  93306263.001 7  89418509.744 8        41.400          26.900          42.700          48.800
G08  20341053.156 8  20341059.406 9  20341060.023 8  20341059.203 9       480.156 8       379.630 9       379.629 8       363.811 9 106892948.618 8  83293267.028 9  83293269.030 8  79822717.432 9        51.600          55.800          51.500          56.700
G10  21865842.008 8  21865848.133 8  21865847.906 7  21865846.980 8     -1923.289 8     -1492.991 8     -1492.990 7     -1430.783 8 114905795.276 8  89537021.997 8  89537012.994 7  85806309.212 8        49.600          51.300          47.600          52.400
G14  25428579.141 5  25428583.379 2  25428584.059 6  25428587.805 6      3203.055 5      2499.118 2      2499.118 6      2394.990 6 133627973.591 5 104125790.815 2 104125807.828 6  99787236.422 6        30.700          15.600          37.100          41.800
G16  23893510.172 6  23893513.777 4                                     -3709.750 6     -2889.480 4                                 125561206.793 6  97839950.460 4                                        40.400          25.000
G21  21369875.711 7  21369879.270 6                                      1126.016 7       880.474 6                                 112299553.334 7  87506103.353 6                                        47.900          39.000
G22  23614875.656 6  23614876.930 3                                      3530.664 6      2753.622 3                                 124097002.440 6  96698983.077 3                                        36.200          22.200
G23  24248107.953 6  24248112.742 3  24248112.289 6  24248116.637 7     -3380.137 6     -2631.548 3     -2631.549 6     -2521.901 7 127424674.419 6  99291979.083 3  99291996.112 6  95154847.555 7        38.300          22.800          40.500          45.500
G27  20786882.414 8  20786888.840 9  20786888.492 8  20786888.465 9     -1668.055 8     -1294.620 9     -1294.621 8     -1240.678 9 109235706.746 8  85118859.550 9  85118860.552 8  81572246.424 9        51.400          55.100          51.000          55.900
G30  25726153.406 5  25726159.547 2  25726160.566 5  25726161.086 6     -1295.656 5     -1004.752 2     -1004.754 5      -962.889 6 135191981.007 5 105344323.926 2 105344321.013 5 100954963.010 6        33.900          15.600          33.100          39.100
G32  23909884.750 6  23909891.445 6  23909892.082 6  23909891.172 7      2491.910 6      1944.791 6      1944.790 6      1863.758 7 125647301.339 6  97906998.526 6  97907003.567 6  93827545.244 7        41.600          36.400          40.900          44.800
> 2022 01 01 00 24 00.0000000  0 11
G01  22770065.086 7  22770072.637 4  22770072.148 7  22770071.707 8      2846.414 7      2220.550 4      2220.550 7      2128.027 8 119657494.300 7  93239650.473 4  93239646.490 7  89354668.930 8        42.300          28.100          42.000          48.600
G08  20338352.266 8  20338358.621 9  20338359.305 8  20338358.590 9       465.973 8       368.649 9       368.649 8       353.289 9 106878755.644 8  83282207.557 9  83282209.552 8  79812118.773 9        52.500          55.600          51.900          56.700
G10  21876863.313 8  21876868.980 8  21876869.137 7  21876868.125 8     -1937.883 8     -1504.315 8     -1504.315 7     -1441.635 8 114963711.393 8  89582151.444 8  89582142.433 7  85849558.263 8        49.600          51.200          47.500          52.300
G14  25410316.742 5  25410321.234 2  25410321.398 6  25410325.379 6      3194.875 5      2492.845 2      2492.783 6      2388.917 6 133532001.46115 104051007.29512 104051024.323 6  99715568.920 6        31.900          14.800          36.500          41.100
G16  23914699.063 6  23914702.594 3                                     -3713.332 6     -2892.179 3                                 125672555.675 6  97926715.824 3                                        41.100          23.400
G21  21363470.734 7  21363474.164 6                                      1117.867 7       874.241 6                                 112265895.042 7  87479876.114 6                                        47.900          39.000
G22  23594737.719 6  23594739.422 3                                      3524.285 6      2748.694 3                                 123991177.713 6  96616522.266 3                                        36.200          21.500
G23  24267421.156 5  24267426.141 3  24267425.090 6  24267430.352 7     -3386.105 5     -2636.237 3     -2636.238 6     -2526.394 7 127526169.594 5  99371066.204 3  99371083.249 6  95230639.373 7        35.900          19.000          38.700          44.500
G27  20796442.266 8  20796448.809 9  20796448.938 8  20796448.578 9     -1681.266 8     -1304.889 9     -1304.889 8     -1250.519 9 109285944.983 8  85158006.219 9  85158007.214 8  81609761.984 9        51.200          55.400          51.000          55.800
G30  25733586.703 5  25733594.234 2  25733595.684 5  25733594.793 6     -1308.473 5     -1014.681 2     -1014.678 5      -972.403 6 135231046.270 5 105374764.359 2 105374761.357 5 100984135.088 6        32.400          16.300          33.200          38.700
G32  23895683.219 7  23895689.777 6  23895690.590 6  23895689.723 7      2483.582 7      1938.425 6      1938.426 6      1857.657 7 125572671.975 7  97848845.786 6  97848850.775 6  93771815.546 7        42.300          36.100          39.400          44.400
> 2022 01 01 00 24 30.0000000  0 11
G01  22753833.273 7  22753840.586 4  22753840.742 7  22753839.938 8      2840.219 7      2215.537 4      2215.537 7      2123.222 8 119572196.090 7  93173184.354 4  93173180.374 7  89290972.254 8        42.500          28.400          42.200          49.300
G08  20335732.211 8  20335738.406 9  20335738.969 8  20335738.191 9       452.102 8       357.652 9       357.652 8       342.750 9 106864986.032 8  83271477.984 9  83271479.986 8  79801836.267 9        52.200          55.700          52.100          56.700
G10  21887966.773 8  21887972.777 8  21887972.566 7  21887971.719 8     -1952.055 8     -1515.585 8     -1515.585 7     -1452.436 8 115022061.424 8  89627618.999 8  89627609.989 7  85893131.339 8        48.800          51.000          47.200          52.300
G14  25392100.500 5  25392105.582 2  25392105.785 6  25392109.574 6      3186.758 5      2486.375 2      2486.377 6      2382.780 6 133436276.004 5 103976416.035 2 103976433.002 6  99644085.528 6        31.500          16.300          37.000          40.600
G16  23935907.258 6  23935910.840 3                                     -3716.406 6     -2894.818 3                                 125784006.136 6  98013560.360 3                                        40.800          22.800
G21  21357111.383 8  21357115.051 6                                      1110.188 8       868.033 6                                 112232475.766 8  87453835.127 6                                        48.100          39.300
G22  23574635.727 6  23574637.965 3                                      3518.000 6      2743.713 3                                 123885544.797 6  96534210.876 3                                        36.900          22.300
G23  24286769.781 6  24286773.816 3  24286773.500 6  24286776.348 7     -3391.949 6     -2640.862 3     -2640.861 6     -2530.826 7 127627842.817 6  99450292.068 3  99450309.084 6  95306564.161 7        37.600          21.800          39.200          43.400
G27  20806077.867 8  20806083.875 9  20806083.984 8  20806083.859 9     -1694.188 8     -1315.148 9     -1315.149 8     -1260.351 9 109336578.214 8  85197460.672 9  85197461.682 8  81647572.507 9        51.100          55.000          51.000          55.900
G30  25741094.063 5                  25741100.863 5  25741101.410 6     -1321.039 5                     -1024.551 5      -981.860 6 135270491.475 5                 105405497.896 5 101013590.883 6        33.100                          32.600          37.400
G32  23881528.930 6  23881536.102 6  23881536.238 6  23881535.223 7      2475.215 6      1931.982 6      1931.981 6      1851.483 7 125498290.653 6  97790886.335 6  97790891.331 6  93716271.051 7        41.700          37.700          41.200          44.500
> 2022 01 01 00 25 00.0000000  0 11
G01  22737638.047 7  22737645.336 4  22737645.695 6  22737645.203 8      2833.676 7      2210.506 4      2210.507 6      2118.402 8 119487091.571 7  93106869.172 4  93106865.162 6  89227420.187 8        42.400          27.700          41.900          48.800
G08  20333192.602 8  20333198.852 9  20333199.488 8  20333198.617 9       437.848 8       346.627 9       346.627 8       332.184 9 106851640.898 8  83261079.173 9  83261081.182 8  79791870.739 9        51.500          55.500          52.500          56.800
G10  21899152.320 8  21899158.551 8  21899158.520 7  21899157.672 8     -1966.480 8     -1526.800 8     -1526.800 7     -1463.183 8 115080843.207 8  89673422.985 8  89673413.996 7  85937026.840 8        48.200          50.900          47.200          52.400
G14  25373932.641 5  25373936.754 2  25373936.473 5  25373940.117 6      3178.301 5      2479.901 2      2479.901 5      2376.571 6 133340799.843 5 103902019.001 2 103902035.958 5  99572788.388 6        31.600          15.600          35.700          39.600
G16  23957134.516 6  23957138.379 3                                     -3720.016 6     -2897.383 3                                 125895555.405 6  98100481.860 3                                        40.100          23.500
G21  21350797.359 7  21350801.164 6                                      1102.102 7       861.823 6                                 112199295.566 7  87427980.441 6                                        47.400          39.200
G22  23554572.094 6  23554574.117 3                                      3511.520 6      2738.674 3                                 123780105.815 6  96452050.658 3                                        36.800          21.700
G23  24306150.758 6  24306155.434 3  24306155.645 6  24306159.785 7     -3397.734 6     -2645.423 3     -2645.423 6     -2535.198 7 127729691.571 6  99529654.758 3  99529671.774 6  95382620.086 7        39.700          22.900          40.800          45.200
G27  20815788.078 8  20815794.293 9  20815794.363 8  20815794.363 9     -1707.398 8     -1325.396 9     -1325.395 8     -1270.171 9 109387605.961 8  85237222.537 9  85237223.539 8  81685677.624 9        51.900          55.000          51.300          56.000
G30  25748672.172 5                  25748679.910 5  25748679.375 6     -1333.512 5                     -1034.366 5      -991.267 6 135310314.606 5                 105436528.873 5 101043328.899 6        31.600                          31.300          36.600
G32  23867422.547 6  23867429.613 6  23867429.805 6  23867428.938 7      2466.988 6      1925.466 6      1925.465 6      1845.237 7 125424160.220 6  97733122.358 6  97733127.392 6  93660913.932 7        41.800          37.000          40.600          44.900
> 2022 01 01 00 25 30.0000000  0 11
G01  22721480.281 7  22721487.961 4  22721487.699 7  22721487.242 8      2827.195 7      2205.459 4      2205.459 7      2113.564 8 119402181.377 7  93040705.396 4  93040701.388 7  89164013.253 8        42.400          28.000          42.300          49.000
G08  20330733.922 8  20330740.512 9  20330741.164 8  20330740.043 9       423.605 8       335.569 9       335.569 8       321.587 9 106838721.494 8  83251012.097 9  83251014.099 8  79782223.116 9        51.600          55.800          51.700          56.800
G10  21910419.961 8  21910426.242 8  21910425.664 7  21910425.105 8     -1980.754 8     -1537.965 8     -1537.964 7     -1473.882 8 115140054.842 8  89719561.924 8  89719552.921 7  85981243.309 8        48.700          50.800          47.600          52.200
G14  25355811.539 5  25355816.855 2  25355816.113 5  25355820.043 6      3170.352 5      2473.361 2      2473.359 5      2370.303 6 133245575.546 5 103827818.172 2 103827835.187 5  99501679.289 6        32.400          15.600          35.100          39.600
G16  23978379.359 6  23978383.633 3                                     -3723.035 6     -2899.866 3                                 126007200.276 6  98187477.828 3                                        39.800          23.800
G21  21344528.945 7  21344532.313 6                                      1094.129 7       855.612 6                                 112166354.511 7  87402312.094 6                                        47.700          39.000
G22  23534544.477 6  23534546.500 3                                      3504.938 6      2733.587 3                                 123674862.761 6  96370043.061 3                                        37.200          22.200
G23  24325563.906 6  24325569.711 3  24325569.227 6  24325573.879 7     -3403.359 6     -2649.922 3     -2649.922 6     -2539.509 7 127831713.600 6  99609152.417 3  99609169.440 6  95458805.350 7        36.900          20.900          40.200          45.700
G27  20825573.414 8  20825579.570 9  20825579.332 8  20825579.441 9     -1720.516 8     -1335.633 9     -1335.633 8     -1279.981 9 109439027.848 8  85277291.528 9  85277292.522 8  81724077.067 9        51.700          55.000          50.700          55.900
G30  25756320.617 4                  25756328.766 4  25756328.172 5     -1346.141 4                     -1044.129 4     -1000.624 5                                 105467852.757 4 101073347.627 5        29.600                          29.700          35.600
G32  23853364.492 7  23853370.879 6  23853370.672 6  23853371.215 7      2458.496 7      1918.869 6      1918.870 6      1838.917 7 125350283.733 7  97675556.275 6  97675561.279 6  93605746.438 7        42.900          36.600          39.700          44.900
> 2022 01 01 00 26 00.0000000  0 11
G01  22705359.492 6  22705367.523 4  22705367.129 7  22705366.434 8      2820.625 6      2200.398 4      2200.397 7      2108.714 8 119317466.015 6  92974693.462 4  92974689.472 7  89100751.828 8        41.400          27.900          42.600          49.100
G08  20328357.063 8  20328363.242 9  20328363.781 8  20328362.879 9       409.355 8       324.486 9       324.486 8       310.966 9 106826228.779 8  83241277.511 9  83241279.506 8  79772894.146 9        52.600          56.100          52.200          56.700
G10  21921768.766 8  21921775.309 8  21921775.004 7  21921774.051 8     -1995.008 8     -1549.068 8     -1549.068 7     -1484.523 8 115199693.949 8  89766033.950 8  89766024.955 7  86025779.004 8        48.300          50.800          47.500          52.600
G14  25337740.125 5  25337744.324 2  25337743.879 5  25337747.867 6      3161.676 5      2466.750 2      2466.750 5      2363.968 6 133150605.755 5 103753815.674 2 103753832.678 5  99430760.260 6        33.500          16.900          34.900          38.700
G16  23999642.375 6  23999646.875 3                                     -3726.352 6     -2902.302 3                                 126118938.921 6  98274546.906 3                                        40.500          22.800
G21  21338306.148 7  21338309.156 6                                      1086.152 7       849.422 6                                 112133651.772 7  87376829.437 6                                        47.800          39.500
G22  23514554.984 6  23514556.969 3                                      3498.227 6      2728.448 3                                 123569817.503 6  96288189.618 3                                        37.200          21.800
G23  24345011.922 6  24345014.816 3  24345015.609 6  24345020.539 7     -3409.258 6     -2654.353 3     -2654.353 6     -2543.753 7 127933906.209 6  99688783.002 3  99688800.028 6  95535117.941 7        38.600          19.000          39.300          45.300
G27  20835433.500 8  20835439.559 9  20835439.703 8  20835439.398 9     -1733.777 8     -1345.857 9     -1345.857 8     -1289.779 9 109490843.357 8  85317667.236 9  85317668.231 8  81762770.447 9        51.000          55.100          51.000          55.800
G30  25764041.438 4                  25764048.520 4  25764049.910 5     -1358.211 4                     -1053.893 4     -1009.928 5 135391086.49914                 105499467.82914 101103645.480 5        29.900                          28.500          35.000
G32  23839354.828 6  23839361.227 6  23839361.609 6  23839361.504 7      2449.680 6      1912.200 6      1912.201 6      1832.526 7 125276664.036 6  97618190.273 6  97618195.262 6  93550770.671 7        41.300          37.000          39.600          45.200
> 2022 01 01 00 26 30.0000000  0 11
G01  22689275.344 6  22689284.184 4  22689283.375 7  22689282.738 8      2814.109 6      2195.321 4      2195.320 7      2103.848 8 119232946.134 6  92908833.847 4  92908829.870 7  89037636.387 8        40.900          27.500          43.100          49.300
G08  20326060.891 8  20326067.340 9  20326067.660 8  20326066.914 9       395.008 8       313.377 9       313.376 8       300.319 9 106814163.792 8  83231876.210 9  83231878.212 8  79763884.571 9        51.800          56.000          51.900          56.700
G10  21933198.945 8  21933204.953 8  21933204.664 7  21933203.996 8     -2009.164 8     -1560.117 8     -1560.117 7     -1495.112 8 115259758.466 8  89812837.472 8  89812828.475 7  86070632.372 8        48.800          50.800          46.900          52.500
G14  25319716.219 5  25319721.109 2  25319720.883 5  25319724.137 6      3152.742 5      2460.070 2      2460.071 5      2357.569 6 133055893.098 5 103680013.580 2 103680030.561 5  99360033.182 6        33.900          16.900          35.400          38.300
G16  24020923.672 6  24020927.219 3                                     -3729.117 6     -2904.669 3                                 126230768.658 6  98361686.989 3                                        40.500          23.000
G21  21332127.695 7  21332131.480 6                                      1078.270 7       843.244 6                                 112101186.846 7  87351532.112 6                                        47.500          39.100
G22  23494604.438 6  23494605.543 3                                      3491.539 6      2723.254 3                                 123464972.225 6  96206491.991 3                                        37.400          22.500
G23  24364490.422 6  24364494.809 3  24364494.457 6  24364497.727 7     -3414.766 6     -2658.719 3     -2658.718 6     -2547.939 7 128036266.852 6  99768544.565 3  99768561.573 6  95611556.106 7        39.000          21.700          40.500          43.800
G27  20845368.195 8  20845374.578 9  20845374.781 8  20845374.531 9     -1746.840 8     -1356.069 9     -1356.069 8     -1299.566 9 109543052.001 8  85358349.295 9  85358350.290 8  81801757.415 9        51.000          55.100          51.300          55.800
G30  25771833.023 4                  25771838.746 4  25771841.570 5     -1370.770 4                     -1063.656 4     -1019.176 5 135432030.86914                 105531372.64814 101134220.771 5        29.600                          28.900          34.800
G32  23825395.070 7  23825401.609 6  23825401.895 6  23825401.441 7      2441.000 7      1905.457 6      1905.456 6      1826.062 7 125203303.964 7  97561026.572 6  97561031.572 6  93495988.822 7        42.200          36.400          39.900          44.800
> 2022 01 01 00 27 00.0000000  0 11
G01  22673229.828 7  22673237.227 4  22673236.836 7  22673236.605 8      2807.520 7      2190.225 4      2190.225 7      2098.966 8 119148622.408 7  92843127.106 4  92843123.108 7  88974667.408 8        42.600          28.100          42.300          49.000
G08  20323846.672 8  20323853.172 9  20323853.598 8  20323852.691 9       380.730 8       302.235 9       302.235 8       289.642 9 106802527.747 8  83222809.157 9  83222811.152 8  79755195.305 9        51.400          55.500          51.800          56.700
G10  21944709.703 8  21944715.680 8  21944715.309 7  21944714.234 8     -2023.227 8     -1571.114 8     -1571.114 7     -1505.651 8 115320246.359 8  89859970.897 8  89859961.901 7  86115801.907 8        49.300          50.700          47.600          52.300
G14  25301742.336 5  25301747.316 2  25301746.539 5  25301751.168 6      3144.031 5      2453.324 2      2453.323 5      2351.102 6 132961440.247 5 103606413.866 2 103606430.855 5  99289500.123 6        32.900          14.800          34.900          38.900
G16  24042220.672 6  24042224.051 3                                     -3731.816 6     -2906.958 3                                 126342686.567 6  98448895.736 3                                        38.400          22.300
G21  21325995.188 7  21325998.625 6                                      1070.332 7       837.068 6                                 112068959.725 7  87326420.067 6                                        47.800          39.200
G22  23474690.016 6  23474693.094 3                                      3484.762 6      2718.013 3                                 123360328.711 6  96124951.613 3                                        36.800          23.600
G23  24383999.016 6  24384004.344 3  24384004.785 6  24384008.535 7     -3420.152 6     -2663.023 3     -2663.023 6     -2552.065 7 128138793.241 6  99848435.265 3  99848452.269 6  95688118.047 7        36.700          20.400          40.700          43.200
G27  20855377.898 8  20855384.266 9  20855384.613 8  20855384.305 9     -1759.867 8     -1366.269 9     -1366.269 8     -1309.341 9 109595653.385 8  85399337.364 9  85399338.366 8  81841037.644 9        50.800          55.000          50.900          55.800
G30  25779694.203 4                  25779701.301 4  25779702.629 5     -1383.383 4                     -1073.420 4     -1028.371 5 135473344.71314                 105563565.09714 101165071.909 5        27.600                          28.400          33.700
G32  23811484.500 6  23811491.699 6  23811492.168 6  23811491.570 7      2432.320 6      1898.634 6      1898.633 6      1819.524 7 125130206.541 6  97504067.560 6  97504072.586 6  93441403.111 7        41.700          38.100          39.800          45.100
> 2022 01 01 00 27 30.0000000  0 11
G01  22657220.281 6  22657228.219 4  22657227.945 7  22657227.723 8      2800.980 6      2185.114 4      2185.114 7      2094.066 8 119064495.498 6  92777573.683 4  92777569.695 7  88911845.418 8        41.700          27.100          42.400          49.100
G08  20321714.313 8  20321720.645 9  20321721.273 8  20321720.191 9       366.375 8       291.070 9       291.070 8       278.942 9 106791321.557 8  83214077.055 9  83214079.057 8  79746827.038 9        52.000          55.900          52.000          56.700
G10  21956300.102 8  21956306.141 8  21956306.215 7  21956305.160 8     -2037.340 8     -1582.056 8     -1582.056 7     -1516.137 8 115381155.529 8  89907432.576 8  89907423.589 7  86161286.023 8        48.600          50.500          46.900          52.500
G14  25283819.797 5  25283824.328 2  25283823.387 6  25283827.254 6      3135.207 5      2446.578 2      2446.504 6      2344.567 6 132867249.87515 103533018.68612 103533035.738 6  99219163.122 6        33.700          16.900          36.300          39.900
G16  24063533.641 6  24063537.801 3                                     -3734.770 6     -2909.178 3                                 126454689.917 6  98536171.076 3                                        37.200          22.500
G21  21319907.820 8  21319911.207 6                                      1062.395 8       830.898 6                                 112036970.122 8  87301493.129 6                                        48.000          39.200
G22  23454816.555 6  23454819.289 4                                      3477.859 6      2712.711 4                                 123255889.325 6  96043570.267 4                                        36.700          24.700
G23  24403541.063 6  24403545.895 3  24403546.414 6  24403550.063 7     -3425.559 6     -2667.264 3     -2667.265 6     -2556.129 7 128241483.011 6  99928453.188 3  99928470.207 6  95764801.919 7        38.300          20.900          40.500          44.700
G27  20865462.164 8  20865468.723 9  20865468.848 8  20865468.664 9     -1772.902 8     -1376.459 9     -1376.459 8     -1319.107 9 109648647.085 8  85440631.147 9  85440632.149 8  81880610.851 9        51.200          55.100          50.600          55.900
G30  25787625.539 4                  25787633.238 5  25787634.438 5     -1395.559 4                     -1083.183 5     -1037.515 5                                 105596043.90515 101196197.358 5        27.300                          30.100          33.500
G32  23797625.727 6  23797632.426 6  23797632.785 6  23797631.645 7      2423.234 6      1891.734 6      1891.735 6      1812.912 7 125057374.765 6  97447315.540 6  97447320.526 6  93387015.743 7        40.600          37.200          40.800          44.500
> 2022 01 01 00 28 00.0000000  0 10
G01  22641249.594 6  22641257.020 4  22641256.441 7  22641255.961 8      2794.297 6      2179.989 4      2179.990 7      2089.156 8 118980565.897 6  92712174.024 4  92712170.007 7  88849170.729 8        41.800          28.900          42.800          49.100
G08  20319663.758 8  20319670.145 9  20319670.707 8  20319669.457 9       352.039 8       279.884 9       279.884 8       268.222 9 106780546.033 8  83205680.540 9  83205682.542 8  79738780.379 9        51.700          55.400          51.500          56.800
G10  21967970.375 8  21967976.398 8  21967976.199 7  21967975.285 8     -2051.211 8     -1592.939 8     -1592.939 7     -1526.567 8 115442483.683 8  89955220.759 8  89955211.754 7  86207083.018 8        49.200          50.400          47.200          52.600
G14  25265946.070 5  25265950.531 2  25265950.500 6  25265954.328 6      3126.527 5      2439.832 2      2439.623 6      2337.973 6 132773324.47015 103459830.03212 103459847.042 6  99149023.929 6        33.800          16.900          36.200          40.200
G16  24084863.203 6  24084866.965 3                                     -3737.484 6     -2911.332 3                                 126566776.245 6  98623511.028 3                                        38.200          22.600
G21  21313865.445 7  21313868.672 6                                      1054.492 7       824.749 6                                 112005217.274 7  87276750.655 6                                        47.800          39.200
G22  23434981.547 6  23434983.969 4                                      3471.016 6      2707.361 4                                 123151655.903 6  95962349.451 4                                        37.900          24.900
G23  24423113.828 6  24423117.617 3  24423117.289 6  24423122.063 7     -3431.008 6     -2671.441 3     -2671.441 6     -2560.130 7 128344333.478 6 100008596.422 3 100008613.439 6  95841605.812 7        39.000          21.100          39.400          45.300
G27  20875621.523 8  20875627.691 9  20875627.727 8  20875627.609 9     -1785.988 8     -1386.634 9     -1386.633 8     -1328.857 9 109702032.492 8  85482230.155 9  85482231.150 8  81920476.569 9        50.800          55.000          50.800          55.800
G32  23783817.313 7  23783823.762 6  23783824.094 6  23783823.098 7      2414.285 7      1884.764 6      1884.763 6      1806.232 7 124984811.351 7  97390772.614 6  97390777.626 6  93332828.780 7        42.100          37.000          39.900          44.200
> 2022 01 01 00 28 30.0000000  0 10
G01  22625315.695 7  22625323.668 4  22625323.188 7  22625322.570 8      2787.785 7      2174.848 4      2174.847 7      2084.229 8 118896834.202 7  92646928.573 4  92646924.587 7  88786643.862 8        42.500          28.400          42.400          49.300
G08  20317695.555 8  20317701.848 9  20317702.441 8  20317701.473 9       337.563 8       268.652 9       268.652 8       257.458 9 106770202.952 8  83197620.988 9  83197622.990 8  79731056.641 9        51.400          55.300          51.900          56.700
G10  21979719.969 8  21979726.414 8  21979725.988 7  21979725.180 8     -2065.105 8     -1603.769 8     -1603.769 7     -1536.945 8 115504228.783 8  90003333.819 8  90003324.826 7  86253191.362 8        49.100          50.500          47.200          52.000
G14  25248123.742 5  25248127.297 2  25248127.680 5  25248131.930 6      3117.559 5      2432.671 2      2432.672 5      2331.310 6 132679666.689 5 103386849.915 2 103386866.895 5  99079084.636 6        33.900          16.300          35.700          41.000
G16  24106208.156 6  24106212.152 3                                     -3740.273 6     -2913.418 3                                 126678942.842 6  98710913.579 3                                        38.300          23.000
G21  21307867.914 7  21307871.469 6                                      1046.574 7       818.595 6                                 111973701.368 7  87252192.811 6                                        47.900          39.600
G22  23415186.148 6  23415188.910 3                                      3463.926 6      2701.956 3                                 123047630.618 6  95881290.788 3                                        37.200          22.800
G23  24442714.773 6  24442719.305 3  24442719.531 6  24442723.383 7     -3436.266 6     -2675.555 3     -2675.555 6     -2564.073 7 128447342.327 6 100088863.081 3 100088880.088 6  95918527.987 7        38.000          19.900          39.900          43.800
G27  20885854.305 8  20885861.023 9  20885861.156 8  20885860.941 9     -1799.102 8     -1396.796 9     -1396.796 8     -1338.596 9 109755809.156 8  85524134.037 9  85524135.038 8  81960634.454 9        50.000          55.400          50.800          55.700
G32  23770059.844 6  23770067.543 6  23770067.277 6  23770066.336 7      2405.133 6      1877.715 6      1877.716 6      1799.478 7 124912519.311 6  97334441.169 6  97334446.144 6  93278844.454 7        40.500          37.300          40.400          44.000
> 2022 01 01 00 29 00.0000000  0 10
G01  22609419.320 6  22609427.391 4  22609427.223 7  22609426.820 8      2780.973 6      2169.695 4      2169.695 7      2079.291 8 118813300.923 6  92581837.733 4  92581833.735 7  88724265.131 8        41.500          28.100          42.900          49.100
G08  20315809.594 8  20315815.977 9  20315816.551 8  20315815.625 9       323.004 8       257.411 9       257.411 8       246.685 9 106760292.634 8  83189898.659 9  83189900.667 8  79723656.082 9        52.100          55.600          51.900          56.800
G10  21991548.844 8  21991554.906 8  21991554.934 7  21991553.742 8     -2078.996 8     -1614.538 8     -1614.538 7     -1547.266 8 115566388.494 8  90051769.959 8  90051760.959 7  86299609.332 8        49.400          50.600          47.700          52.100
G14  25230352.063 5  25230355.777 2  25230356.949 6  25230360.805 6      3108.184 5      2425.653 2      2425.652 6      2324.584 6 132586279.180 5 103314080.328 2 103314097.329 6  99009347.117 6        32.800          17.400          36.900          41.200
G16  24127567.266 6  24127571.887 3                                     -3742.824 6     -2915.448 3                                 126791187.645 6  98798377.036 3                                        38.600          22.500
G21  21301915.797 8  21301919.340 6                                      1038.625 8       812.461 6                                 111942421.596 8  87227818.975 6                                        48.100          40.000
G22  23395430.750 5  23395433.129 3                                      3456.699 5      2696.509 3                                 122943815.014 5  95800395.534 3                                        35.800          22.500
G23  24462346.445 6  24462351.148 3  24462351.434 6  24462354.055 7     -3441.531 6     -2679.600 3     -2679.600 6     -2567.951 7 128550506.963 6 100169251.094 3 100169268.091 6  95995566.516 7        37.700          21.500          40.800          43.500
G27  20896162.359 8  20896168.680 9  20896168.906 8  20896168.371 9     -1812.246 8     -1406.943 9     -1406.942 8     -1348.320 9 109809976.463 8  85566342.312 9  85566343.307 8  82001084.046 9        51.000          54.900          50.700          55.600
G32  23756355.867 6  23756362.367 6  23756363.031 6  23756362.297 7      2395.867 6      1870.596 6      1870.596 6      1792.654 7 124840501.341 6  97278323.282 6  97278328.274 6  93225064.834 7        41.100          37.400          40.400          44.700
> 2022 01 01 00 29 30.0000000  0 10
G01  22593561.414 6  22593569.648 4  22593569.363 7  22593568.543 8      2774.426 6      2164.523 4      2164.523 7      2074.334 8 118729966.773 6  92516902.030 4  92516898.051 7  88662035.100 8        40.800          26.800          43.000          49.400
G08  20314006.398 8  20314012.688 9  20314013.328 8  20314012.242 9       308.648 8       246.140 9       246.141 8       235.884 9 106750816.242 8  83182514.450 9  83182516.452 8  79716579.551 9        51.500          55.500          52.300          56.700
G10  22003455.906 8  22003462.098 8  22003461.645 7  22003460.645 8     -2092.543 8     -1625.254 8     -1625.254 7     -1557.535 8 115628960.776 8  90100527.579 8  90100518.582 7  86346335.378 8        49.700          50.600          47.600          52.500
G14  25212632.594 5  25212637.059 2  25212637.234 6  25212641.242 6      3099.297 5      2418.567 2      2418.566 6      2317.792 6 132493164.462 5 103241523.322 2 103241540.348 6  98939813.359 6        32.000          15.600          37.000          41.100
G16  24148940.242 6  24148945.281 3                                     -3745.184 6     -2917.390 3                                 126903507.170 6  98885898.735 3                                        38.100          21.700
G21  21296008.500 8  21296011.828 6                                      1030.992 8       806.335 6                                 111911377.684 8  87203628.922 6                                        48.200          39.900
G22  23375715.000 6  23375718.449 3                                      3449.910 6      2691.003 3                                 122840211.349 6  95719665.446 3                                        36.300          22.200
G23  24482007.156 6  24482012.270 3  24482011.574 6  24482015.883 7     -3446.301 6     -2683.586 3     -2683.586 6     -2571.772 7 128653825.111 6 100249758.666 3 100249775.674 6  96072719.672 7        38.300          20.600          40.000          44.900
G27  20906544.445 8  20906550.605 9  20906550.930 8  20906550.473 9     -1825.008 8     -1417.077 9     -1417.077 8     -1358.033 9 109864533.954 8  85608854.630 9  85608855.625 8  82041825.024 9        50.200          55.400          50.700          55.700
G32  23742703.359 6  23742710.707 6  23742710.879 6  23742710.188 7      2386.805 6      1863.398 6      1863.398 6      1785.757 7 124768760.514 6  97222421.345 6  97222426.334 6  93171492.124 7        40.800          37.700          40.300          44.600
> 2022 01 01 00 30 00.0000000  0 10
G01  22577741.641 6  22577749.734 4  22577749.527 7  22577748.441 8      2767.672 6      2159.337 4      2159.337 7      2069.364 8 118646832.292 6  92452121.929 4  92452117.939 7  88599954.178 8        40.200          27.800          42.900          49.300
G08  20312286.078 8  20312292.117 9  20312293.078 8  20312291.785 9       293.934 8       234.845 9       234.845 8       225.060 9 106741774.713 8  83175469.100 9  83175471.103 8  79709827.764 9        51.700          55.600          51.700          56.800
G10  22015441.117 8  22015447.082 8  22015446.672 7  22015445.973 8     -2106.406 8     -1635.913 8     -1635.913 7     -1567.750 8 115691943.431 8  90149604.966 8  90149595.977 7  86393367.875 8        48.900          50.400          47.000          52.300
G14  25194966.836 5  25194971.137 2  25194970.691 6  25194975.047 6      3090.066 5      2411.481 2      2411.408 6      2310.936 6 132400325.24115 103169181.04212 103169198.119 6  98870485.295 6        33.100          14.800          38.000          41.100
G16  24170328.961 6  24170332.887 3                                     -3747.777 6     -2919.288 3                                 127015899.763 6  98973477.368 3                                        38.500          22.000
G21  21290145.727 8  21290149.152 6                                      1022.883 8       800.218 6                                 111880569.279 8  87179622.389 6                                        48.100          39.900
G22  23356040.422 6  23356043.215 3                                      3442.418 6      2685.444 3                                 122736821.775 6  95639102.137 3                                        36.600          22.500
G23  24501697.266 6  24501700.734 3  24501701.469 6  24501705.813 7     -3451.609 6     -2687.510 3     -2687.512 6     -2575.529 7 128757294.243 6 100330383.974 3 100330401.032 6  96149985.534 7        39.000          20.400          39.600          45.300
G27  20917000.266 8  20917006.813 9  20917006.863 8  20917006.805 9     -1838.262 8     -1427.199 9     -1427.199 8     -1367.732 9 109919481.132 8  85651670.602 9  85651671.596 8  82082856.987 9        50.700          54.900          50.700          55.700
G32  23729105.156 6  23729112.215 6  23729112.695 6  23729111.676 7      2377.246 6      1856.126 6      1856.125 6      1778.787 7 124697299.670 6  97166737.574 6  97166742.578 6  93118128.521 7        41.400          37.300          41.000          45.000
> 2022 01 01 00 30 30.0000000  0 10
G01  22561959.539 6  22561967.754 4  22561967.672 7  22561966.902 8      2761.031 6      2154.139 4      2154.140 7      2064.384 8 118563897.894 6  92387497.769 4  92387493.742 7  88538022.668 8        39.600          27.700          43.200          49.400
G08  20310648.023 8  20310654.418 9  20310654.988 8  20310654.105 9       279.582 8       223.534 9       223.534 8       214.220 9 106733168.666 8  83168763.086 9  83168765.095 8  79703401.167 9        51.000          54.900          52.300          56.800
G10  22027503.883 8  22027510.180 8  22027509.523 7  22027508.855 8     -2119.750 8     -1646.508 8     -1646.508 7     -1577.904 8 115755333.996 8  90199000.210 8  90198991.214 7  86440704.987 8        48.700          50.300          47.300          52.200
G14  25177353.945 5  25177357.520 3  25177356.770 6  25177361.453 6      3080.836 5      2404.189 3      2404.192 6      2304.016 6 132307763.975 5 103097055.369 3 103097072.364 6  98801364.805 6        33.800          18.600          36.900          41.700
G16  24191729.523 6  24191733.848 3                                     -3749.984 6     -2921.099 3                                 127128362.127 6  99061110.351 3                                        38.400          22.000
G21  21284327.805 7  21284331.332 6                                      1015.176 7       794.120 6                                 111849995.654 7  87155798.797 6                                        47.800          39.400
G22  23336408.430 6  23336410.270 3                                      3435.543 6      2679.839 3                                 122633647.937 6  95558706.953 3                                        36.700          22.000
G23  24521414.992 6  24521419.180 3  24521418.855 6  24521423.309 7     -3456.441 6     -2691.362 3     -2691.362 6     -2579.222 7 128860911.690 6 100411124.833 3 100411141.900 6  96227362.203 7        38.300          19.900          39.300          44.600
G27  20927530.695 8  20927536.934 9  20927537.074 8  20927536.863 9     -1851.098 8     -1437.298 9     -1437.299 8     -1377.411 9 109974817.139 8  85694789.557 9  85694790.553 8  82124179.316 9        49.800          55.200          50.300          55.600
G32  23715560.969 6  23715567.109 6  23715567.723 6  23715566.559 7      2367.828 6      1848.787 6      1848.786 6      1771.754 7 124626121.354 6  97111273.976 6  97111278.983 6  93064975.905 7        41.400          37.700          40.500          44.700
> 2022 01 01 00 31 00.0000000  0 10
G01  22546216.602 6  22546224.012 4  22546223.859 7  22546223.359 8      2754.422 6      2148.916 4      2148.915 7      2059.377 8 118481164.596 6  92323030.293 4  92323026.291 7  88476241.363 8        41.500          29.600          43.100          49.600
G08  20309093.734 8  20309099.930 9  20309100.574 8  20309099.574 9       264.996 8       212.178 9       212.178 8       203.337 9 106724999.819 8  83162397.748 9  83162399.743 8  79697301.044 9        51.000          55.800          51.900          56.800
G10  22039643.859 8  22039650.246 8  22039650.227 7  22039648.902 8     -2133.285 8     -1657.061 8     -1657.061 7     -1588.016 8 115819130.841 8  90248712.034 8  90248703.045 7  86488345.477 8        48.900          50.100          46.800          52.000
G14  25159791.641 5  25159797.141 2  25159797.023 6  25159801.426 6      3071.336 5      2396.893 2      2396.892 6      2297.022 6 132215483.688 5 103025148.575 2 103025165.613 6  98732454.138 6        33.800          17.400          37.300          41.700
G16  24213143.047 6  24213147.262 3                                     -3752.113 6     -2922.836 3                                 127240891.324 6  99148795.445 3                                        38.700          22.300
G21  21278554.555 8  21278557.922 6                                      1007.340 8       788.000 6                                 111819657.645 8  87132158.804 6                                        48.100          39.500
G22  23316814.656 5  23316818.723 3                                      3428.133 5      2674.176 3                                 122530692.161 5  95478481.688 3                                        35.900          21.800
G23  24541159.766 6  24541165.063 3  24541164.750 6  24541168.230 7     -3461.172 6     -2695.167 3     -2695.166 6     -2582.868 7 128964675.639 6 100491979.845 3 100491996.884 6  96304848.232 7        37.100          19.300          40.600          43.200
G27  20938134.750 8  20938140.961 9  20938141.305 8  20938141.012 9     -1863.949 8     -1447.398 9     -1447.398 8     -1387.090 9 110030541.975 8  85738211.499 9  85738212.501 8  82165792.019 9        50.100          54.900          50.300          55.700
G32  23702070.281 7  23702076.723 6  23702077.133 6  23702076.918 7      2358.223 7      1841.359 6      1841.359 6      1764.635 7 124555229.035 7  97056033.213 6  97056038.225 6  93012036.839 7        42.000          38.400          41.200          45.200
> 2022 01 01 00 31 30.0000000  0 10
G01  22530510.922 7  22530518.906 4  22530518.723 7  22530517.973 8      2747.703 7      2143.685 4      2143.685 7      2054.365 8 118398632.723 7  92258719.745 4  92258715.750 7  88414610.414 8        42.000          29.300          43.800          49.300
G08  20307622.625 8  20307628.645 9  20307629.352 8  20307628.387 9       250.387 8       200.816 9       200.816 8       192.448 9 106717268.426 8  83156373.283 9  83156375.270 8  79691527.602 9        51.600          55.400          51.900          56.700
G10  22051860.688 8  22051867.090 8  22051866.594 7  22051865.949 8     -2146.746 8     -1667.546 8     -1667.545 7     -1598.064 8 115883331.345 8  90298738.405 8  90298729.398 7  86536287.412 8        48.000          50.000          47.000          51.900
G14  25142285.516 5  25142290.832 2  25142290.898 6  25142295.254 6      3061.750 5      2389.534 2      2389.536 6      2289.972 6 132123486.691 5 102953462.547 2 102953479.534 6  98663754.980 6        34.500          17.400          37.500          41.700
G16  24234570.078 6  24234573.336 3                                     -3754.125 6     -2924.516 3                                 127353485.201 6  99236530.927 3                                        39.100          22.000
G21  21272826.094 8  21272829.520 6                                       999.602 8       781.907 6                                 111789554.241 8  87108701.602 6                                        48.200          39.700
G22  23297265.039 6  23297268.348 3                                      3420.730 6      2668.466 3                                 122427956.195 6  95398427.707 3                                        36.600          22.500
G23  24560933.883 6  24560938.359 3  24560938.695 6  24560941.840 7     -3465.828 6     -2698.897 3     -2698.896 6     -2586.445 7 129068583.244 6 100572946.749 3 100572963.774 6  96382441.568 7        38.700          21.800          41.500          43.500
G27  20948812.750 8  20948818.879 9  20948819.109 8  20948818.789 9     -1876.852 8     -1457.473 9     -1457.472 8     -1396.744 9 110086654.682 8  85781935.677 9  85781936.664 8  82207694.352 9        50.700          55.000          50.000          55.500
G32  23688634.641 6  23688641.348 6  23688641.211 6  23688641.480 7      2348.637 6      1833.867 6      1833.866 6      1757.455 7 124484625.137 6  97001017.211 6  97001022.229 6  92959313.180 7        41.400          37.300          41.100          45.700
> 2022 01 01 00 32 00.0000000  0 10
G01  22514844.281 6  22514851.984 4  22514851.633 7  22514851.117 8      2740.949 6      2138.438 4      2138.437 7      2049.336 8 118316302.847 6  92194566.622 4  92194562.637 7  88353130.340 8        40.900          29.900          44.300          49.700
G08  20306234.742 8  20306240.934 9  20306241.629 8  20306240.676 9       235.797 8       189.418 9       189.417 8       181.525 9 106709975.853 8  83150690.752 9  83150692.753 8  79686081.850 9        52.200          55.300          52.100          56.700
G10  22064153.969 8  22064160.480 8  22064160.301 7  22064159.207 8     -2159.988 8     -1677.976 8     -1677.976 7     -1608.060 8 115947933.412 8  90349077.670 8  90349068.677 7  86584529.225 8        49.100          50.100          47.000          52.300
G14  25124833.914 5  25124839.434 2  25124838.313 6  25124842.609 6      3052.320 5      2382.110 2      2382.107 6      2282.853 6 132031775.594 5 102881999.258 2 102882016.323 6  98595269.392 6        33.800          17.400          37.400          41.300
G16  24256006.844 6  24256011.285 3                                     -3756.215 6     -2926.135 3                                 127466141.393 6  99324314.963 3                                        38.600          22.800
G21  21267142.125 8  21267145.566 6                                       991.793 8       775.826 6                                 111759684.922 8  87085426.822 6                                        48.800          39.900
G22  23277757.945 6  23277760.164 3                                      3413.480 6      2662.700 3                                 122325442.215 6  95318546.704 3                                        38.000          22.500
G23  24580733.406 6  24580737.996 3  24580737.355 6  24580741.734 7     -3470.516 6     -2702.569 3     -2702.568 6     -2589.961 7 129172632.129 6 100654023.808 3 100654040.813 6  96460140.398 7        37.700          21.500          39.500          45.100
G27  20959564.086 8  20959570.453 9  20959570.727 8  20959570.324 9     -1889.758 8     -1467.535 9     -1467.536 8     -1406.388 9 110143154.805 8  85825961.737 9  85825962.731 8  82249885.988 9        50.300          55.300          50.600          55.600
G32  23675254.852 6  23675261.137 6  23675261.547 6  23675261.027 7      2338.914 6      1826.298 6      1826.298 6      1750.202 7 124414312.667 6  96946228.281 6  96946233.293 6  92906807.131 7        41.700          37.900          40.800          45.400
> 2022 01 01 00 32 30.0000000  0 10
G01  22499215.961 6  22499223.520 4  22499223.281 7  22499222.934 8      2734.020 6      2133.173 4      2133.173 7      2044.291 8 118234175.640 6  92130571.429 4  92130567.436 7  88291801.615 8        40.700          28.700          43.900          49.900
G08  20304930.656 8  20304936.965 9  20304937.719 8  20304936.746 9       220.973 8       177.987 9       177.987 8       170.571 9 106703123.347 8  83145351.139 9  83145353.133 8  79680964.713 9        52.100          55.700          52.500          56.700
G10  22076523.391 8  22076529.977 8  22076529.566 7  22076528.836 8     -2173.453 8     -1688.349 8     -1688.349 7     -1618.001 8 116012934.860 8  90399728.152 8  90399719.155 7  86633069.250 8        50.900          50.100          47.200          52.200
G14  25107436.391 5  25107441.355 2  25107440.977 6  25107445.195 6      3042.387 5      2374.609 2      2374.613 6      2275.671 6 131940353.163 5 102810760.987 2 102810777.941 6  98526999.257 6        33.200          17.400          38.300          41.400
G16  24277456.141 6  24277459.520 3                                     -3758.316 6     -2927.679 3                                 127578857.066 6  99412145.322 3                                        38.500          22.200
G21  21261502.758 8  21261505.910 6                                       983.828 8       769.756 6                                 111730049.309 8  87062334.136 6                                        49.000          40.100
G22  23258292.977 6  23258294.938 3                                      3405.855 6      2656.892 3                                 122223151.881 6  95238839.940 3                                        37.100          22.300
G23  24600558.773 6  24600563.270 3  24600563.414 6  24600568.188 7     -3475.082 6     -2706.178 3     -2706.180 6     -2593.420 7 129276819.940 6 100735209.163 3 100735226.217 6  96537942.986 7        36.600          18.600          37.700          44.700
G27  20970389.703 8  20970395.797 9  20970395.648 8  20970395.680 9     -1902.840 8     -1477.582 9     -1477.582 8     -1416.016 9 110200041.731 8  85870289.192 9  85870290.187 8  82292366.462 9        50.200          55.000          50.400          55.600
G32  23661930.984 7  23661937.277 6  23661937.344 6  23661936.676 7      2328.969 7      1818.656 6      1818.656 6      1742.878 7 124344294.450 7  96891668.617 6  96891673.627 6  92854520.791 7        42.500          38.100          40.700          44.700
> 2022 01 01 00 33 00.0000000  0 10
G01  22483626.047 6  22483633.859 5  22483633.848 7  22483633.156 8      2727.402 6      2127.897 5      2127.896 7      2039.234 8 118152251.595 6  92066734.526 5  92066730.540 7  88230624.610 8        41.100          30.200          43.700          50.100
G08  20303710.492 8  20303717.035 9  20303717.598 8  20303716.520 9       206.281 8       166.546 9       166.545 8       159.606 9 106696711.356 8  83140354.772 9  83140356.774 8  79676176.529 9        50.600          55.600          52.000          56.800
G10  22088968.867 8  22088974.766 8  22088974.387 7  22088973.457 8     -2186.609 8     -1698.664 8     -1698.664 7     -1627.886 8 116078333.417 8  90450688.062 8  90450679.065 7  86681905.836 8        49.800          50.000          47.300          51.600
G14  25090094.453 5  25090100.066 2  25090099.703 6  25090103.770 7      3032.707 5      2367.109 2      2367.048 6      2268.421 7 131849221.86615 102739749.48212 102739766.495 6  98458946.621 7        32.000          17.400          38.000          43.100
G16  24298915.922 6  24298920.082 3                                     -3760.020 6     -2929.157 3                                 127691629.588 6  99500020.028 3                                        38.900          22.300
G21  21255907.563 8  21255910.953 6                                       976.180 8       763.686 6                                 111700647.402 8  87039423.554 6                                        49.000          40.000
G22  23238870.813 6  23238872.723 3                                      3398.207 6      2651.033 3                                 122121087.121 6  95159308.958 3                                        37.900          22.500
G23  24620411.867 6  24620416.949 3  24620416.613 6  24620419.785 7     -3479.543 6     -2709.723 3     -2709.723 6     -2596.818 7 129381144.376 6 100816500.857 3 100816517.913 6  96615847.536 7        37.200          19.300          40.500          43.400
G27  20981288.219 8  20981294.582 9  20981294.465 8  20981294.438 9     -1915.543 8     -1487.613 9     -1487.613 8     -1425.629 9 110257314.842 8  85914917.581 9  85914918.584 8  82335135.341 9        50.000          55.000          50.500          55.400
G32  23648662.922 6  23648670.105 6  23648670.277 6  23648669.898 7      2318.930 6      1810.938 6      1810.939 6      1735.483 7 124274573.302 6  96837340.466 6  96837345.466 6  92802456.300 7        41.700          38.600          41.000          45.700
> 2022 01 01 00 33 30.0000000  0 10
G01  22468075.641 6  22468083.172 4  22468083.113 7  22468082.477 8      2720.551 6      2122.599 4      2122.599 7      2034.157 8 118070531.527 6  92003056.569 4  92003052.579 7  88169599.906 8        41.200          29.900          43.700          50.100
G08  20302574.688 8  20302580.801 9  20302581.383 8  20302580.492 9       191.699 8       155.079 9       155.079 8       148.617 9 106690740.840 8  83135702.415 9  83135704.410 8  79671718.023 9        51.500          56.100          52.400          56.700
G10  22101488.898 8  22101494.961 8  22101494.617 7  22101493.730 8     -2199.648 8     -1708.927 8     -1708.927 7     -1637.721 8 116144127.111 8  90501955.864 8  90501946.869 7  86731037.477 8        48.800          50.000          46.600          51.800
G14  25072809.641 5  25072814.184 2  25072814.051 6  25072817.605 7      3022.934 5      2359.411 2      2359.411 6      2261.103 7 131758384.528 5 102668967.140 2 102668984.168 6  98391113.523 7        33.400          16.300          38.100          43.000
G16  24320386.242 6  24320389.934 3                                     -3761.723 6     -2930.551 3                                 127804455.803 6  99587936.549 3                                        39.400          22.200
G21  21250357.375 8  21250360.445 6                                       968.441 8       757.639 6                                 111671478.314 8  87016694.394 6                                        48.400          40.000
G22  23219491.813 6  23219493.590 3                                      3390.723 6      2645.112 3                                 122019250.298 6  95079955.588 3                                        37.700          21.800
G23  24640289.648 6  24640294.555 3  24640293.945 6  24640297.820 7     -3484.098 6     -2713.214 3     -2713.214 6     -2600.165 7 129485603.142 6 100897897.290 3 100897914.330 6  96693852.475 7        37.900          20.400          39.700          43.000
G27  20992260.320 8  20992266.703 9  20992266.695 8  20992266.543 9     -1928.355 8     -1497.634 9     -1497.634 8     -1435.232 9 110314973.770 8  85959846.601 9  85959847.596 8  82378192.309 9        49.700          55.100          50.800          55.400
G32  23635453.500 7  23635459.590 6  23635460.109 6  23635459.449 7      2309.012 7      1803.143 6      1803.143 6      1728.011 7 124205152.276 7  96783246.173 6  96783251.170 6  92750615.957 7        42.100          38.600          41.200          45.300
> 2022 01 01 00 34 00.0000000  0 10
G01  22452562.719 7  22452571.082 5  22452570.613 7  22452570.305 8      2713.813 7      2117.299 5      2117.299 7      2029.078 8 117989015.470 7  91939537.605 5  91939533.618 7  88108727.572 8        42.600          30.500          44.100          50.100
G08  20301522.383 8  20301528.785 9  20301529.434 8  20301528.438 9       176.879 8       143.589 9       143.589 8       137.606 9 106685212.678 8  83131394.747 9  83131396.749 8  79667589.850 9        51.300          55.400          51.900          56.800
G10  22114083.477 8  22114089.895 8  22114089.617 7  22114088.422 8     -2212.715 8     -1719.117 8     -1719.117 7     -1647.487 8 116210313.101 8  90553529.370 8  90553520.374 7  86780462.077 8        49.100          49.800          47.000          51.900
G14  25055580.695 5  25055584.754 2  25055584.254 6  25055588.828 7      3013.074 5      2351.721 2      2351.722 6      2253.733 7 131667843.281 5 102598415.518 2 102598432.500 6  98323501.520 7        33.900          17.800          38.900          44.000
G16  24341866.586 6  24341870.020 3                                     -3763.430 6     -2931.904 3                                 127917334.095 6  99675893.671 3                                        38.600          21.800
G21  21244850.586 8  21244854.145 6                                       960.684 8       751.601 6                                 111642541.668 8  86994146.376 6                                        48.100          40.400
G22  23200157.297 6  23200158.734 4                                      3382.996 6      2639.153 4                                 121917642.886 6  95000780.998 4                                        39.100          24.700
G23  24660192.141 6  24660197.188 3  24660197.457 6  24660201.051 7     -3488.527 6     -2716.625 3     -2716.626 6     -2603.434 7 129590193.298 6 100979396.053 3 100979413.113 6  96771955.500 7        37.000          19.600          40.100          44.700
G27  21003305.891 8  21003311.965 9  21003311.906 8  21003311.715 9     -1941.277 8     -1507.625 9     -1507.624 8     -1444.807 9 110373017.342 8  86005075.339 9  86005076.327 8  82421536.516 9        50.800          55.500          49.800          55.700
G32  23622299.500 7  23622306.500 6  23622306.598 6  23622305.664 7      2298.848 7      1795.289 6      1795.289 6      1720.485 7 124136033.692 7  96729387.518 6  96729392.514 6  92699001.413 7        42.200          37.800          40.900          44.800
> 2022 01 01 00 34 30.0000000  0 10
G01  22437089.906 6  22437097.875 5  22437097.555 7  22437097.199 8      2706.996 6      2111.974 5      2111.974 7      2023.975 8 117907704.426 6  91876178.379 5  91876174.385 7  88048008.313 8        41.400          30.800          44.400          49.900
G08  20300554.805 8  20300561.223 9  20300561.516 8  20300560.945 9       162.094 8       132.073 9       132.073 8       126.570 9 106680127.857 8  83127432.553 9  83127434.548 8  79663792.745 9        50.700          56.100          52.400          56.700
G10  22126752.773 8  22126758.797 8  22126758.520 7  22126757.590 8     -2225.660 8     -1729.259 8     -1729.259 7     -1657.207 8 116276889.595 8  90605407.147 8  90605398.142 7  86830178.291 8        49.400          49.800          46.800          51.600
G14  25038408.609 5  25038411.633 2  25038411.977 6  25038416.520 7      3002.777 5      2343.953 2      2343.953 6      2246.289 7 131577601.178 5 102528096.924 2 102528113.912 6  98256112.839 7        34.000          17.800          38.600          43.900
G16  24363355.211 6  24363359.133 3                                     -3764.984 6     -2933.172 3                                 128030261.228 6  99763888.835 3                                        38.400          21.500
G21  21239388.469 8  21239391.746 6                                       952.984 8       745.568 6                                 111613837.295 8  86971779.331 6                                        48.500          40.600
G22  23180865.352 6  23180867.266 3                                      3375.344 6      2633.134 3                                 121816267.249 6  94921786.983 3                                        40.100          23.200
G23  24680119.727 5  24680124.781 3  24680124.145 6  24680128.145 7     -3492.633 5     -2719.992 3     -2719.989 6     -2606.656 7 129694912.951 5 101060995.806 3 101061012.788 6  96850155.177 7        35.900          18.300          38.000          44.500
G27  21014424.195 8  21014430.473 9  21014430.594 8  21014430.215 9     -1953.996 8     -1517.609 9     -1517.610 8     -1454.375 9 110431445.318 8  86050603.625 9  86050604.628 8  82465167.779 9        50.000          55.600          49.900          55.200
G32  23609205.320 6  23609211.742 6  23609212.336 6  23609211.270 7      2288.664 6      1787.351 6      1787.351 6      1712.878 7 124067220.682 6  96675767.000 6  96675771.986 6  92647615.087 7        41.800          39.200          41.400          44.900
> 2022 01 01 00 35 00.0000000  0 10
G01  22421655.945 6  22421663.969 4  22421663.922 7  22421662.773 8      2700.105 6      2106.635 4      2106.635 7      2018.858 8 117826598.973 6  91812979.347 4  91812975.341 7  87987442.569 8        41.700          29.900          44.600          49.800
G08  20299671.813 8  20299678.305 9  20299678.797 8  20299677.773 9       147.344 8       120.528 9       120.528 8       115.506 9 106675487.549 8  83123816.720 9  83123818.722 8  79660327.574 9        51.900          55.300          52.300          56.700
G10  22139495.617 8  22139501.887 8  22139501.363 7  22139500.551 8     -2238.527 8     -1739.346 8     -1739.346 7     -1666.873 8 116343854.387 8  90657587.513 8  90657578.516 7  86880184.478 8        49.300          49.800          46.900          51.600
G14  25021290.953 5  25021297.000 2  25021297.363 6  25021301.523 7      2993.137 5      2336.186 2      2336.117 6      2238.779 7 131487660.65715 102458013.37712 102458030.412 6  98188949.481 7        33.400          17.400          39.200          44.900
G16  24384853.734 6  24384857.223 3                                     -3766.504 6     -2934.380 3                                 128143234.868 6  99851920.239 3                                        38.100          21.800
G21  21233969.922 8  21233973.781 6                                       945.305 8       739.530 6                                 111585365.356 8  86949593.423 6                                        48.100          40.000
G22  23161619.172 6  23161620.445 4                                      3367.629 6      2627.066 4                                 121715125.229 6  94842975.005 4                                        40.800          24.400
G23  24700071.844 6  24700075.938 3  24700075.875 6  24700080.238 7     -3496.844 6     -2723.292 3     -2723.292 6     -2609.820 7 129799759.668 6 101142694.562 3 101142711.557 6  96928449.780 7        39.000          20.900          39.200          43.500
G27  21025615.836 8  21025621.957 9  21025622.207 8  21025621.828 9     -1966.672 8     -1527.579 9     -1527.579 8     -1463.930 9 110490257.117 8  86096430.991 9  86096431.993 8  82509085.676 9        49.900          55.500          50.400          55.200
G32  23596169.688 7  23596176.629 6  23596176.414 7  23596175.785 7      2278.414 7      1779.338 6      1779.337 7      1705.199 7 123998716.158 7  96622386.869 6  96622391.873 7  92596459.111 7        42.900          39.400          42.000          45.500
> 2022 01 01 00 35 30.0000000  0 10
G01  22406261.367 7  22406269.852 5  22406269.379 7  22406268.492 8      2693.199 7      2101.282 5      2101.282 7      2013.728 8 117745699.611 7  91749940.893 5  91749936.889 7  87927030.716 8        42.700          30.900          44.900          49.900
G08  20298873.492 8  20298879.945 9  20298880.484 8  20298879.512 9       132.449 8       108.965 9       108.965 8       104.425 9 106671292.408 8  83120547.777 9  83120549.786 8  79657194.834 9        51.400          55.800          52.600          56.800
G10  22152312.055 8  22152318.133 8  22152317.961 7  22152316.984 8     -2251.387 8     -1749.372 8     -1749.372 7     -1676.481 8 116411205.196 8  90710068.662 8  90710059.672 7  86930478.901 8        48.800          49.600          46.700          51.800
G14  25004235.148 5  25004239.711 2  25004240.043 6  25004244.039 7      2982.574 5      2328.418 2      2328.214 6      2231.205 7 131398024.50115 102388167.02712 102388184.006 6  98122013.331 7        34.000          16.900          39.000          44.200
G16  24406360.445 6  24406364.172 3                                     -3767.938 6     -2935.529 3                                 128256252.723 6  99939986.106 3                                        37.900          19.900
G21  21228596.609 8  21228599.762 6                                       937.551 8       733.514 6                                 111557125.057 8  86927587.996 6                                        48.000          41.100
G22  23142416.680 6  23142418.555 4                                      3359.637 6      2620.948 4                                 121614218.769 6  94764346.569 4                                        40.200          25.600
G23  24720047.273 6  24720052.309 3  24720051.762 6  24720054.867 7     -3501.039 6     -2726.529 3     -2726.529 6     -2612.925 7 129904731.074 6 101224490.438 3 101224507.428 6  97006837.517 7        36.500          20.100          40.000          42.600
G27  21036879.883 8  21036886.332 9  21036886.398 8  21036886.160 9     -1979.473 8     -1537.530 9     -1537.530 8     -1473.466 9 110549452.031 8  86142556.883 9  86142557.878 8  82553289.647 9        49.300          55.000          49.900          55.000
G32  23583192.953 7  23583199.152 6  23583199.719 6  23583199.500 7      2267.961 7      1771.253 6      1771.254 6      1697.451 7 123930522.918 7  96569249.282 6  96569254.264 6  92545535.579 7        43.000          39.400          41.800          45.900
> 2022 01 01 00 36 00.0000000  0 10
G01  22390906.211 7  22390914.277 5  22390914.133 7  22390913.609 8      2686.340 7      2095.913 5      2095.913 7      2008.583 8 117665006.926 7  91687063.494 5  91687059.512 7  87866773.235 8        42.600          30.400          44.600          50.600
G08  20298160.039 8  20298166.492 9  20298167.039 8  20298166.016 9       117.539 8        97.382 9        97.383 8        93.325 9 106667543.187 8  83117626.309 9  83117628.304 8  79654395.095 9        51.900          55.700          52.500          56.600
G10  22165201.484 8  22165207.785 8  22165207.289 7  22165206.410 8     -2264.242 8     -1759.339 8     -1759.339 7     -1686.033 8 116478939.730 8  90762848.821 8  90762839.826 7  86981059.888 8        48.700          49.400          46.600          51.400
G14  24987236.078 5  24987241.160 2  24987241.188 6  24987245.648 7      2972.387 5      2320.650 2      2320.244 6      2223.567 7 131308695.21015 102318559.72312 102318576.688 6  98055306.318 7        33.600          17.800          39.300          43.900
G16  24427874.539 6  24427878.215 3                                     -3769.340 6     -2936.608 3                                 128369312.176 6 100028084.341 3                                        38.600          21.700
G21  21223266.219 7  21223269.824 6                                       929.785 7       727.510 6                                 111529115.934 7  86905762.709 6                                        47.800          40.300
G22  23123260.680 6  23123262.629 4                                      3351.809 6      2614.785 4                                 121513549.526 6  94685903.011 4                                        39.900          24.000
G23  24740045.469 6  24740050.559 3  24740050.383 6  24740053.789 7     -3504.961 6     -2729.707 3     -2729.708 6     -2615.972 7 130009824.847 6 101306381.646 3 101306398.683 6  97085316.669 7        36.900          19.300          38.700          43.500
G27  21048217.563 8  21048223.566 9  21048223.625 8  21048223.613 9     -1992.281 8     -1547.464 9     -1547.465 8     -1482.987 9 110609029.423 8  86188980.816 9  86188981.818 8  82597779.254 9        49.800          55.200          50.500          55.200
G32  23570275.898 7  23570282.109 6  23570282.391 6  23570281.691 7      2257.379 7      1763.097 6      1763.097 6      1689.634 7 123862643.687 7  96516356.384 6  96516361.366 6  92494846.564 7        43.600          39.700          41.400          45.600
> 2022 01 01 00 36 30.0000000  0 10
G01  22375590.797 6  22375598.637 5  22375598.484 7  22375597.613 8      2679.340 6      2090.526 5      2090.528 7      2003.422 8 117584521.627 6  91624347.709 5  91624343.688 7  87806670.574 8        41.500          30.400          45.000          50.800
G08  20297531.813 8  20297538.090 9  20297538.672 8  20297537.609 9       102.715 8        85.773 9        85.772 8        82.199 9 106664240.949 8  83115053.129 9  83115055.130 8  79651929.130 9        51.800          55.100          52.300          56.600
G10  22178163.516 8  22178169.801 8  22178169.641 7  22178168.480 8     -2276.734 8     -1769.249 8     -1769.249 7     -1695.530 8 116547055.817 8  90815926.291 8  90815917.296 7  87031925.799 8        48.800          49.400          47.000          51.400
G14  24970296.977 5  24970301.645 2  24970301.500 6  24970305.945 7      2962.031 5      2312.883 2      2312.204 6      2215.862 7 131219675.40715 102249193.59912 102249210.564 6  97988830.446 7        32.800          17.800          38.000          44.100
G16  24449397.375 6  24449400.785 3                                     -3770.539 6     -2937.617 3                                 128482410.387 6 100116212.846 3                                        39.300          21.500
G21  21217980.164 8  21217983.809 6                                       922.152 8       721.508 6                                 111501337.874 8  86884117.471 6                                        48.000          40.900
G22  23104149.047 6  23104151.430 4                                      3343.895 6      2608.568 4                                 121413119.664 6  94607645.969 4                                        40.500          26.700
G23  24760067.359 6  24760071.641 3  24760071.723 6  24760076.238 7     -3508.922 6     -2732.827 3     -2732.827 6     -2618.958 7 130115038.711 6 101388366.456 3 101388383.493 6  97163885.399 7        37.100          20.100          38.900          44.600
G27  21059627.109 8  21059633.574 9  21059633.492 8  21059633.492 9     -2004.887 8     -1557.382 9     -1557.382 8     -1492.491 9 110668988.658 8  86235702.283 9  86235703.285 8  82642553.997 9        50.000          55.100          49.800          55.400
G32  23557418.773 7  23557425.371 6  23557425.828 6  23557424.875 7      2246.875 7      1754.865 6      1754.864 6      1681.746 7 123795081.393 7  96463710.438 6  96463715.434 6  92444394.186 7        44.000          40.200          41.100          45.300
> 2022 01 01 00 37 00.0000000  0 10
G01  22360313.898 7  22360322.223 5  22360321.480 7  22360321.004 8      2672.523 7      2085.133 5      2085.132 7      1998.251 8 117504244.008 7  91561793.734 5  91561789.742 7  87746723.054 8        42.000          30.700          44.600          51.100
G08  20296988.492 8  20296994.793 9  20296995.398 8  20296994.484 9        87.711 8        74.148 9        74.148 8        71.059 9 106661386.239 8  83112828.679 9  83112830.680 8  79649797.367 9        50.300          55.600          52.300          56.600
G10  22191197.555 8  22191203.977 8  22191203.730 7  22191202.520 8     -2289.434 8     -1779.096 8     -1779.096 7     -1704.967 8 116615551.033 8  90869299.183 8  90869290.182 7  87083074.817 8        49.500          49.100          46.400          51.300
G14  24953418.180 5  24953421.391 2  24953420.293 6  24953424.965 7      2951.797 5      2305.115 2      2304.101 6      2208.098 7 131130967.46615 102180070.56512 102180087.523 6  97922587.517 7        33.400          17.800          39.000          43.600
G16  24470925.859 6  24470928.938 3                                     -3771.734 6     -2938.545 3                                 128595544.434 6 100204369.212 3                                        39.500          21.100
G21  21212738.172 8  21212741.590 6                                       914.441 8       715.524 6                                 111473790.213 8  86862651.761 6                                        48.100          40.600
G22  23085084.031 6  23085085.980 4                                      3335.512 6      2602.299 4                                 121312931.150 6  94529576.995 4                                        40.900          26.000
G23  24780111.453 6  24780115.836 3  24780115.781 6  24780119.465 7     -3513.066 6     -2735.881 3     -2735.880 6     -2621.885 7 130220370.125 6 101470442.895 3 101470459.894 6  97242541.940 7        38.400          19.900          39.400          43.200
G27  21071109.500 8  21071115.832 9  21071115.828 8  21071115.609 9     -2017.629 8     -1567.280 9     -1567.280 8     -1501.976 9 110729328.932 8  86282720.669 9  86282721.671 8  82687613.278 9        49.300          55.000          50.200          55.100
G32  23544622.992 7  23544629.668 6  23544630.258 7  23544629.754 7      2236.094 7      1746.565 6      1746.566 7      1673.792 7 123727838.598 7  96411313.475 6  96411318.457 7  92394180.436 7        43.900          40.500          42.000          46.000
> 2022 01 01 00 37 30.0000000  0 10
G01  22345077.836 7  22345085.316 5  22345084.867 7  22345084.648 8      2665.523 7      2079.722 5      2079.722 7      1993.067 8 117424174.719 7  91499402.083 5  91499398.074 7  87686931.042 8        42.600          30.800          43.900          50.800
G08  20296530.422 8  20296537.031 9  20296537.492 8  20296536.477 9        72.730 8        62.492 9        62.492 8        59.889 9 106658980.286 8  83110953.913 9  83110955.909 8  79648000.711 9        51.900          55.800          52.200          56.500
G10  22204303.547 8  22204310.070 8  22204309.305 7  22204308.664 8     -2301.941 8     -1788.885 8     -1788.885 7     -1714.348 8 116684423.111 8  90922965.740 8  90922956.732 7  87134505.259 8        48.400          49.000          47.000          51.300
G14  24936594.898 5  24936599.551 2  24936599.957 6  24936604.520 7      2941.230 5      2297.348 2      2295.932 6      2200.268 7 131042574.05815 102111192.51812 102111209.558 6  97856579.477 7        33.100          16.300          38.100          43.600
G16  24492460.797 6  24492464.078 3                                     -3772.727 6     -2939.418 3                                 128708712.009 6 100292551.756 3                                        39.400          21.800
G21  21207539.813 8  21207543.313 6                                       906.777 8       709.532 6                                 111446473.234 8  86841365.810 6                                        48.100          40.900
G22  23066064.836 6  23066067.000 4                                      3327.453 6      2595.989 4                                 121212985.553 6  94451697.321 4                                        40.200          26.900
G23  24800177.313 6  24800181.609 3  24800181.418 6  24800185.324 7     -3516.672 6     -2738.873 3     -2738.872 6     -2624.754 7 130325816.729 6 101552609.083 3 101552626.064 6  97321284.550 7        37.500          19.000          38.500          43.400
G27  21082664.117 8  21082670.516 9  21082670.625 8  21082670.602 9     -2030.320 8     -1577.158 9     -1577.157 8     -1511.443 9 110790049.522 8  86330035.409 9  86330036.396 8  82732956.568 9        49.100          54.900          50.000          55.200
G32  23531888.570 7  23531895.055 6  23531895.801 7  23531894.949 7      2225.230 7      1738.194 6      1738.194 7      1665.769 7 123660918.114 7  96359167.656 6  96359172.638 7  92344207.361 7        44.100          39.800          42.200          45.600
> 2022 01 01 00 38 00.0000000  0 10
G01  22329880.250 7  22329888.277 5  22329888.547 7  22329887.602 8      2658.543 7      2074.295 5      2074.295 7      1987.865 8 117344314.343 7  91437173.234 5  91437169.235 7  87627295.094 8        42.800          30.700          44.200          50.900
G08  20296158.109 8  20296164.609 9  20296165.148 8  20296164.250 9        57.711 8        50.824 9        50.824 8        48.706 9 106657023.550 8  83109429.182 9  83109431.192 8  79646539.524 9        51.200          55.700          52.500          56.700
G10  22217480.883 8  22217487.340 8  22217486.883 7  22217485.555 8     -2314.477 8     -1798.621 8     -1798.622 7     -1723.679 8 116753670.030 8  90976924.385 8  90976915.397 7  87186215.632 8        49.300          48.900          46.600          51.300
G14  24919835.148 5  24919839.656 2  24919839.406 6  24919843.828 7      2930.605 5      2289.580 2      2287.688 6      2192.369 7 130954498.12515 102042561.88912 102042578.915 6  97790808.406 7        32.800          16.900          38.900          43.400
G16  24514001.109 6  24514005.234 3                                     -3773.703 6     -2940.218 3                                 128821910.455 6 100380758.301 3                                        39.500          21.800
G21  21202385.734 8  21202388.629 6                                       899.063 8       703.556 6                                 111419386.295 8  86820259.117 6                                        48.100          40.500
G22  23047092.531 6  23047094.535 4                                      3319.152 6      2589.617 4                                 121113285.308 6  94374008.805 4                                        40.400          27.700
G23  24820264.234 6  24820268.844 3  24820269.332 6  24820272.996 7     -3520.477 6     -2741.813 3     -2741.814 6     -2627.570 7 130431376.526 6 101634863.478 3 101634880.483 6  97400111.653 7        36.300          19.000          38.200          43.800
G27  21094291.508 8  21094297.723 9  21094297.820 8  21094297.605 9     -2043.000 8     -1587.026 9     -1587.027 8     -1520.900 9 110851150.041 8  86377646.200 9  86377647.195 8  82778583.567 9        49.500          54.900          50.000          55.000
G32  23519216.203 7  23519222.070 6  23519222.547 6  23519222.000 7      2214.414 7      1729.745 6      1729.745 6      1657.672 7 123594322.921 7  96307275.299 6  96307280.291 6  92294477.210 7        44.500          39.800          41.400          45.800
> 2022 01 01 00 38 30.0000000  0 10
G01  22314722.922 6  22314731.789 5  22314731.148 7  22314730.246 8      2651.605 6      2068.846 5      2068.846 7      1982.644 8 117264663.701 6  91375107.844 5  91375103.865 7  87567815.774 8        41.900          31.100          44.900          50.900
G08  20295871.383 8  20295878.012 9  20295878.508 8  20295877.469 9        42.719 8        39.122 9        39.122 8        37.492 9 106655517.359 8  83108255.527 9  83108257.522 8  79645414.768 9        50.300          55.600          52.600          56.600
G10  22230729.117 8  22230735.090 8  22230734.988 7  22230734.012 8     -2326.773 8     -1808.295 8     -1808.294 7     -1732.949 8 116823289.385 8  91031173.228 8  91031164.231 7  87238204.099 8        49.000          48.800          46.400          51.400
G14  24903135.492 5  24903140.035 3  24903140.234 6  24903144.371 7      2919.770 5      2281.813 3      2279.382 6      2184.407 7 130866742.01715 101974180.45813 101974197.459 6  97725276.200 7        33.400          18.300          38.300          43.400
G16  24535547.844 6  24535551.309 3                                     -3774.520 6     -2940.964 3                                 128935137.582 6 100468987.227 3                                        38.700          20.400
G21  21197274.563 8  21197277.992 6                                       891.395 8       697.592 6                                 111392528.994 8  86799331.356 6                                        48.000          40.700
G22  23028167.766 6  23028169.238 4                                      3310.871 6      2583.203 4                                 121013831.977 6  94296512.705 4                                        38.600          27.400
G23  24840372.000 5  24840377.875 3  24840377.148 6  24840381.535 7     -3524.270 5     -2744.687 3     -2744.688 6     -2630.326 7 130537047.077 5 101717204.098 3 101717221.126 6  97479021.448 7        35.900          19.000          38.900          43.000
G27  21105990.836 8  21105996.914 9  21105996.559 8  21105996.684 9     -2055.582 8     -1596.870 9     -1596.871 8     -1530.335 9 110912629.569 8  86425552.316 9  86425553.319 8  82824493.608 9        49.400          54.900          49.800          55.300
G32  23506606.336 7  23506612.375 6  23506613.418 6  23506611.531 7      2203.406 7      1721.225 6      1721.225 6      1649.508 7 123528055.765 7  96255638.547 6  96255643.533 6  92244991.973 7        45.400          40.600          41.500          45.700
> 2022 01 01 00 39 00.0000000  0 10
G01  22299606.289 6  22299614.402 5  22299614.082 7  22299613.250 8      2644.547 6      2063.394 5      2063.394 7      1977.420 8 117185222.984 6  91313206.029 5  91313202.037 7  87508493.181 8        41.300          30.300          45.000          51.200
G08  20295670.766 8  20295677.152 9  20295677.750 8  20295676.727 9        27.629 8        27.407 9        27.407 8        26.265 9 106654462.193 8  83107433.319 9  83107435.314 8  79644626.824 9        50.500          55.500          52.700          56.500
G10  22244047.531 8  22244053.809 8  22244053.320 7  22244052.195 8     -2339.125 8     -1817.905 8     -1817.905 7     -1742.159 8 116893278.701 8  91085710.367 8  91085701.374 7  87290468.863 8        48.800          48.800          46.800          51.200
G14  24886498.547 5  24886502.574 2  24886501.434 6  24886506.672 7      2909.195 5      2274.045 2      2271.010 6      2176.385 7 130779308.11015 101906050.15712 101906067.145 6  97659984.640 7        34.300          17.800          38.400          44.300
G16  24557098.281 6  24557102.570 3                                     -3775.551 6     -2941.642 3                                 129048390.775 6 100557236.484 3                                        38.400          20.100
G21  21192207.492 8  21192210.844 6                                       883.781 8       691.640 6                                 111365900.844 8  86778582.150 6                                        48.400          40.600
G22  23009288.875 6  23009291.266 4                                      3302.652 6      2576.746 4                                 120914627.228 6  94219210.317 4                                        39.900          27.900
G23  24860501.711 6  24860506.711 3  24860506.410 6  24860510.031 7     -3527.754 6     -2747.498 3     -2747.498 6     -2633.020 7 130642825.762 6 101799629.037 3 101799646.061 6  97558012.048 7        37.400          19.900          38.700          43.000
G27  21117761.594 8  21117767.797 9  21117768.051 8  21117767.773 9     -2068.176 8     -1606.693 9     -1606.693 8     -1539.747 9 110974487.253 8  86473753.098 9  86473754.100 8  82870686.011 9        49.200          54.800          50.200          54.900
G32  23494057.805 7  23494065.078 6  23494065.402 7  23494064.988 7      2192.371 7      1712.640 6      1712.640 7      1641.280 7 123462119.082 7  96204259.339 6  96204264.336 7  92195753.574 7        43.300          40.200          42.300          46.400
> 2022 01 01 00 39 30.0000000  0 11
G01  22284529.758 7  22284537.121 5  22284536.984 7  22284536.410 8      2637.613 7      2057.926 5      2057.926 7      1972.178 8 117105992.847 7  91251468.255 5  91251464.274 7  87449327.833 8        43.000          30.800          44.300          50.600
G03  25368376.000 5                  25368383.547 5  25368384.305 6      3884.340 5                                                                                 103879282.85215  99550983.99216        32.500                          35.300          40.400
G08  20295555.758 8  20295562.367 9  20295562.984 8  20295561.875 9        12.664 8        15.678 9        15.678 8        15.025 9 106653858.595 8  83106962.974 9  83106964.976 8  79644176.077 9        51.600          55.600          52.800          56.600
G10  22257436.383 8  22257442.305 8  22257441.813 7  22257441.020 8     -2351.238 8     -1827.456 8     -1827.456 7     -1751.313 8 116963635.782 8  91140534.056 8  91140525.060 7  87343008.240 8        49.400          48.800          46.100          51.100
G14  24869922.047 5  24869926.551 3  24869925.875 6  24869930.871 7      2898.195 5      2266.277 3      2262.573 6      2168.300 7 130692199.07315 101838172.93913 101838189.942 6  97594935.643 7        35.600          19.300          38.600          44.300
G16  24578654.789 6  24578658.645 3                                     -3776.320 6     -2942.248 3                                 129161667.372 6 100645503.930 3                                        38.200          20.600
G21  21187184.203 8  21187187.219 6                                       876.242 8       685.698 6                                 111339501.471 8  86758011.216 6                                        48.600          41.100
G22  22990458.867 6  22990460.836 4                                      3294.285 6      2570.230 4                                 120815673.399 6  94142103.403 4                                        40.000          27.500
G23  24880651.289 6  24880654.918 2  24880655.043 6  24880660.000 7     -3531.082 6     -2750.252 2     -2750.252 6     -2635.657 7 130748710.422 6 101882136.613 2 101882153.630 6  97637081.775 7        36.700          17.400          38.300          44.100
G27  21129604.492 8  21129611.043 9  21129611.180 8  21129610.902 9     -2080.719 8     -1616.497 9     -1616.497 8     -1549.144 9 111036722.424 8  86522248.022 9  86522249.017 8  82917160.318 9        49.100          54.700          50.100          54.900
G32  23481574.258 7  23481580.855 6  23481581.566 6  23481580.719 7      2181.266 7      1703.982 6      1703.982 6      1632.982 7 123396515.766 7  96153139.891 6  96153144.880 6  92146764.101 7        44.500          40.400          41.800          46.000
> 2022 01 01 00 40 00.0000000  0 11
G01  22269493.164 7  22269500.133 5  22269500.266 7  22269499.406 8      2630.297 7      2052.438 5      2052.438 7      1966.919 8 117026973.993 7  91189895.134 5  91189891.149 7  87390320.256 8        43.500          31.400          44.100          51.100
G03  25346202.914 5  25346211.844 2  25346211.047 5  25346213.051 7      3883.113 5                      3026.348 5      2900.250 7                                 103788492.400 5  99463976.502 7        32.300          16.300          35.300          42.200
G08  20295527.109 8  20295533.602 9  20295534.184 8  20295533.227 9        -2.527 8         3.914 9         3.914 8         3.751 9 106653707.915 8  83106845.559 9  83106847.561 8  79644063.547 9        51.600          56.500          52.100          56.500
G10  22270894.094 8  22270900.613 8  22270900.090 7  22270899.168 8     -2363.488 8     -1836.954 8     -1836.954 7     -1760.414 8 117034358.517 8  91195642.682 8  91195633.695 7  87395820.665 8        49.000          48.600          47.000          51.400
G14  24853406.320 5  24853412.426 3  24853412.488 6  24853416.656 7      2887.313 5      2254.064 3      2254.065 6      2160.145 7 130605417.603 5 101770551.020 3 101770568.001 6  97530131.290 7        34.100          19.000          38.400          43.600
G16  24600214.352 6  24600218.367 3                                     -3776.844 6     -2942.784 3                                 129274964.532 6 100733787.450 3                                        38.200          20.900
G21  21182203.766 8  21182207.262 6                                       868.570 8       679.762 6                                 111313330.640 8  86737618.370 6                                        48.400          41.100
G22  22971676.898 6  22971679.012 4                                      3285.863 6      2563.671 4                                 120716972.067 6  94065193.266 4                                        39.600          26.900
G23  24900819.891 6  24900824.309 3  24900824.789 6  24900827.918 7     -3534.578 6     -2752.949 3     -2752.949 6     -2638.242 7 130854698.978 6 101964725.089 3 101964742.107 6  97716229.049 7        37.100          19.000          38.600          43.200
G27  21141519.227 8  21141525.691 9  21141525.734 8  21141525.477 9     -2093.363 8     -1626.288 9     -1626.289 8     -1558.527 9 111099334.553 8  86571036.675 9  86571037.683 8  82963916.115 9        49.100          54.500          50.700          54.900
G32  23469154.398 7  23469161.148 6  23469161.340 6  23469160.648 7      2169.898 7      1695.248 6      1695.247 6      1624.612 7 123331248.744 7  96102282.464 6  96102287.472 6  92098025.754 7        44.600          40.300          41.300          46.300
> 2022 01 01 00 40 30.0000000  0 11
G01  22254496.508 7  22254503.996 5  22254503.395 7  22254502.723 8      2623.441 7      2046.937 5      2046.938 7      1961.648 8 116948166.863 7  91128487.018 5  91128483.014 7  87331470.826 8        43.900          31.400          44.700          51.100
G03  25324037.477 5  25324044.656 2  25324045.539 5  25324046.020 7      3882.281 5                      3025.524 5      2899.461 7 133078748.04915 103697733.65912 103697726.668 5  99376992.659 7        33.200          15.600          34.600          42.200
G08  20295584.703 8  20295591.383 9  20295591.988 8  20295590.754 9       -17.711 8        -7.861 9        -7.861 8        -7.533 9 106654010.553 8  83107081.379 9  83107083.381 8  79644289.549 9        50.500          55.400          52.300          56.800
G10  22284421.273 8  22284427.531 8  22284427.355 7  22284426.273 8     -2375.500 8     -1846.389 8     -1846.389 7     -1769.456 8 117105444.495 8  91251034.351 8  91251025.364 7  87448904.349 8        49.000          48.300          46.000          51.500
G14  24836957.141 5  24836961.477 3  24836961.023 6  24836965.266 7      2876.219 5      2245.491 3      2245.491 6      2151.929 7 130518966.249 5 101703186.274 3 101703203.257 6  97465573.409 7        34.800          18.300          38.800          43.900
G16  24621777.508 6  24621782.520 3                                     -3777.590 6     -2943.262 3                                 129388280.163 6 100822085.319 3                                        37.300          19.900
G21  21177267.383 8  21177270.453 6                                       860.938 8       673.834 6                                 111287388.038 8  86717403.357 6                                        49.100          41.200
G22  22952942.781 6  22952945.262 4                                      3277.332 6      2557.059 4                                 120618525.299 6  93988481.500 4                                        40.500          27.900
G23  24921007.758 5  24921013.027 2  24921012.844 6  24921016.883 7     -3537.832 5     -2755.584 2     -2755.584 6     -2640.769 7 130960789.008 5 102047392.607 2 102047409.641 6  97795452.121 7        35.100          17.800          37.900          42.900
G27  21153505.500 8  21153511.918 9  21153512.012 8  21153511.668 9     -2105.855 8     -1636.056 9     -1636.056 8     -1567.887 9 111162322.723 8  86620118.360 9  86620119.362 8  83010952.715 9        49.300          54.500          49.800          54.800
G32  23456799.117 7  23456806.180 6  23456806.473 7  23456805.211 7      2158.445 7      1686.445 6      1686.446 7      1616.177 7 123266320.570 7  96051689.105 6  96051694.094 7  92049540.442 7        44.100          40.500          42.600          46.200
> 2022 01 01 00 41 00.0000000  0 11
G01  22239539.773 7  22239547.844 5  22239547.801 7  22239546.871 8      2616.359 7      2041.419 5      2041.418 7      1956.359 8 116869572.245 7  91067244.461 5  91067240.479 7  87272780.062 8        42.700          31.400          44.900          50.800
G03  25301879.094 5  25301885.781 2  25301885.664 5  25301887.133 7      3881.250 5                      3024.638 5      2898.612 7                                 103606987.511 5  99290034.308 7        33.100          17.800          35.700          42.500
G08  20295728.711 8  20295735.340 9  20295735.863 8  20295734.836 9       -32.781 8       -19.660 9       -19.660 8       -18.841 9 106654767.483 8  83107671.193 9  83107673.195 8  79644854.789 9        50.400          55.800          52.000          56.700
G10  22298017.352 8  22298023.637 8  22298023.137 7  22298022.293 8     -2387.496 8     -1855.769 8     -1855.769 7     -1778.445 8 117176891.604 8  91306707.425 8  91306698.423 7  87502257.711 8        48.300          48.000          46.600          51.200
G14  24820568.648 5  24820573.332 3  24820573.566 6  24820577.465 7      2865.160 5      2236.847 3      2236.845 6      2143.645 7 130432847.659 5 101636080.874 3 101636097.890 6  97401264.077 7        35.500          18.300          37.500          43.400
G16  24643344.320 6  24643347.734 3                                     -3777.965 6     -2943.664 3                                 129501611.244 6 100910395.238 3                                        37.500          20.100
G21  21172373.594 8  21172377.043 6                                       853.348 8       667.910 6                                 111261673.521 8  86697366.066 6                                        48.600          40.900
G22  22934257.992 6  22934260.402 4                                      3268.758 6      2550.395 4                                 120520335.088 6  93911969.642 4                                        40.100          28.500
G23  24941215.727 6  24941219.840 3  24941220.113 6  24941223.691 7     -3541.219 6     -2758.168 3     -2758.166 6     -2643.243 7 131066978.447 6 102130137.650 3 102130154.610 6  97874749.419 7        37.100          19.600          38.200          43.200
G27  21165563.313 8  21165569.574 9  21165569.922 8  21165569.531 9     -2118.332 8     -1645.810 9     -1645.810 8     -1577.235 9 111225686.437 8  86669492.669 9  86669493.664 8  83058269.762 9        48.900          54.400          49.900          55.000
G32  23444508.672 7  23444515.172 6  23444515.645 6  23444515.293 7      2147.211 7      1677.568 6      1677.567 6      1607.669 7 123201734.206 7  96001362.077 6  96001367.077 6  92001310.379 7        45.100          40.500          41.600          46.500
> 2022 01 01 00 41 30.0000000  0 11
G01  22224624.500 7  22224632.285 5  22224632.270 7  22224631.445 8      2609.219 7      2035.896 5      2035.897 7      1951.068 8 116791190.212 7  91006167.572 5  91006163.580 7  87214248.038 8        43.200          31.600          45.200          50.900
G03  25279725.164 5  25279732.711 2  25279732.805 6  25279733.789 7      3879.914 5                      3023.712 6      2897.723 7 132845886.51615 103516283.26012 103516276.160 6  99203102.623 7        31.900          14.800          36.100          42.400
G08  20295959.695 8  20295965.816 9  20295966.621 8  20295965.363 9       -47.883 8       -31.465 9       -31.465 8       -30.153 9 106655978.878 8  83108615.132 9  83108617.141 8  79645759.393 9        50.800          55.500          52.000          56.700
G10  22311681.680 8  22311687.469 8  22311687.027 7  22311686.223 8     -2399.375 8     -1865.082 8     -1865.082 7     -1787.370 8 117248697.243 8  91362659.871 8  91362650.883 7  87555878.802 8        48.400          48.000          45.600          51.000
G14  24804245.281 6  24804249.063 2  24804249.129 6  24804253.035 7      2853.961 6      2228.143 2      2228.144 6      2135.305 7 130347064.168 6 101569236.592 2 101569253.562 6  97337204.920 7        36.900          17.800          36.600          43.300
G16  24664912.883 6  24664917.281 3                                     -3778.324 6     -2944.009 3                                 129614955.624 6 100998715.518 3                                        37.600          21.100
G21  21167523.461 8  21167527.332 6                                       845.836 8       662.007 6                                 111236186.220 8  86677505.844 6                                        48.400          41.600
G22  22915622.219 6  22915624.066 4                                      3260.148 6      2543.693 4                                 120422402.931 6  93835658.865 4                                        41.000          28.800
G23  24961440.859 6  24961445.438 3  24961445.668 6  24961448.840 7     -3544.461 6     -2760.679 3     -2760.680 6     -2645.651 7 131173264.606 6 102212958.014 3 102212975.025 6  97954118.948 7        37.100          19.000          38.100          42.700
G27  21177692.484 8  21177698.578 9  21177698.762 8  21177698.465 9     -2130.773 8     -1655.535 9     -1655.535 8     -1586.554 9 111289424.556 8  86719158.720 9  86719159.715 8  83105866.395 9        49.600          54.500          50.200          55.000
G32  23432283.828 7  23432290.004 6  23432290.508 6  23432289.988 7      2135.715 7      1668.627 6      1668.628 6      1599.101 7 123137492.035 7  95951303.254 6  95951308.247 6  91953337.361 7        44.200          40.200          41.500          45.600
> 2022 01 01 00 42 00.0000000  0 11
G01  22209749.617 7  22209757.629 5  22209757.305 7  22209756.387 8      2601.922 7      2030.344 5      2030.344 7      1945.747 8 116713021.903 7  90945257.237 5  90945253.245 7  87155875.634 8        44.600          31.900          44.600          50.700
G03  25257578.227 5  25257586.992 2  25257587.391 5  25257588.160 7      3878.242 5                      3022.726 5      2896.780 7                                 103425594.369 5  99116199.230 7        30.500          15.600          35.700          42.800
G08  20296276.883 8  20296283.051 9  20296283.598 8  20296282.672 9       -63.262 8       -43.312 9       -43.312 8       -41.507 9 106657646.392 8  83109914.492 9  83109916.487 8  79647004.610 9        51.400          55.400          52.000          56.700
G10  22325413.500 8  22325419.715 7  22325419.090 7  22325418.352 8     -2411.313 8     -1874.342 7     -1874.342 7     -1796.244 8 117320859.404 8  91418890.127 7  91418881.128 7  87609766.130 8        48.000          47.900          46.800          51.500
G14  24787984.844 5  24787989.031 3  24787990.172 6  24787993.012 7      2842.262 5      2219.367 3      2219.368 6      2126.893 7 130261618.586 5 101502655.576 3 101502672.516 6  97273398.124 7        35.900          18.300          36.900          42.600
G16  24686483.859 6  24686487.449 3                                     -3778.781 6     -2944.290 3                                 129728310.814 6 101087044.227 3                                        38.500          20.100
G21  21162716.867 8  21162720.453 6                                       838.125 8       656.099 6                                 111210926.391 8  86657822.877 6                                        48.600          41.100
G22  22897035.781 6  22897037.555 4                                      3251.242 6      2536.937 4                                 120324730.871 6  93759550.748 4                                        40.200          28.100
G23  24981684.273 5  24981689.281 3  24981689.039 6  24981693.246 7     -3547.613 5     -2763.142 3     -2763.143 6     -2648.011 7 131279645.556 5 102295852.285 3 102295869.301 6  98033559.295 7        34.800          18.300          38.000          43.200
G27  21189892.172 8  21189898.723 9  21189898.844 8  21189898.609 9     -2143.418 8     -1665.248 9     -1665.248 8     -1595.863 9 111353536.629 8  86769116.167 9  86769117.161 8  83153742.276 9        49.500          54.400          49.600          55.200
G32  23420125.156 7  23420131.645 6  23420131.996 7  23420130.809 7      2123.930 7      1659.609 6      1659.608 7      1590.458 7 123073597.071 7  95901514.986 6  95901520.006 7  91905623.608 7        43.600          41.300          42.000          45.600
> 2022 01 01 00 42 30.0000000  0 11
G01  22194915.367 7  22194923.020 5  22194922.828 7  22194921.859 8      2594.980 7      2024.792 5      2024.792 7      1940.426 8 116635067.330 7  90884513.462 5  90884509.474 7  87097662.842 8        43.900          31.800          44.900          51.300
G03  25235443.047 5  25235449.281 2  25235449.289 5  25235450.219 6      3876.570 5                      3021.698 5      2895.794 6                                 103334943.438 5  99029325.415 6        30.100          16.300          35.100          41.800
G08  20296680.969 8  20296687.207 9  20296687.891 8  20296686.844 9       -78.391 8       -55.164 9       -55.164 8       -52.866 9 106659770.235 8  83111569.419 9  83111571.421 8  79648590.582 9        50.800          55.900          52.200          57.200
G10  22339212.453 8  22339218.527 7  22339218.738 7  22339217.527 8     -2422.984 8     -1883.533 7     -1883.533 7     -1805.052 8 117393375.409 8  91475396.109 7  91475387.112 7  87663917.697 8        48.300          47.500          45.900          51.100
G14  24771789.414 6  24771793.777 3  24771794.078 6  24771798.020 7      2831.398 6      2210.535 3      2210.531 6      2118.427 7 130176513.070 6 101436339.539 3 101436356.571 6  97209845.314 7        37.000          18.300          36.700          42.400
G16  24708056.695 6  24708059.414 3                                     -3778.824 6     -2944.491 3                                 129841673.719 6 101175378.947 3                                        39.400          21.100
G21  21157953.148 8  21157956.590 6                                       830.707 8       650.206 6                                 111185893.453 8  86638316.684 6                                        48.500          41.400
G22  22878498.523 6  22878501.598 4                                      3242.723 6      2530.138 4                                 120227320.529 6  93683646.600 4                                        40.400          27.300
G23  25001945.961 6  25001949.863 3  25001950.422 6  25001953.852 7     -3550.559 6     -2765.537 3     -2765.536 6     -2650.306 7 131386118.689 6 102378818.389 3 102378835.382 6  98113068.463 7        36.900          18.300          38.000          42.300
G27  21202163.484 8  21202169.863 9  21202169.742 8  21202169.809 9     -2155.656 8     -1674.931 9     -1674.931 8     -1605.142 9 111418021.486 8  86819364.100 9  86819365.102 8  83201896.540 9        49.100          54.400          50.200          54.900
G32  23408032.461 7  23408039.410 6  23408039.930 6  23408038.746 7      2112.406 7      1650.531 6      1650.531 6      1581.759 7 123010051.626 7  95851999.070 6  95852004.074 6  91858170.845 7        43.800          40.700          41.800          46.500
> 2022 01 01 00 43 00.0000000  0 11
G01  22180121.633 7  22180129.402 5  22180129.344 7  22180128.719 8      2587.820 7      2019.217 5      2019.217 7      1935.083 8 116557327.442 7  90823936.948 5  90823932.958 7  87039610.358 8        42.600          31.800          44.900          51.200
G03  25213312.500 5  25213318.750 2  25213319.301 5  25213320.230 6      3875.527 5                      3020.609 5      2894.750 6                                 103244325.166 5  98942482.898 6        30.700          15.600          32.900          40.500
G08  20297172.133 8  20297178.320 9  20297179.020 8  20297178.090 9       -93.648 8       -67.035 9       -67.035 8       -64.242 9 106662351.103 8  83113580.477 9  83113582.479 8  79650517.847 9        50.600          55.600          52.500          56.800
G10  22353078.836 8  22353085.355 7  22353084.941 7  22353083.820 8     -2434.754 8     -1892.672 7     -1892.672 7     -1813.810 8 117466243.268 8  91532176.259 7  91532167.257 7  87718332.009 8        48.800          47.800          46.600          50.900
G14  24755660.484 6  24755664.137 3  24755664.160 6  24755669.098 7      2819.750 6      2201.623 3      2201.624 6      2109.890 7 130091750.592 6 101370290.858 3 101370307.863 6  97146548.628 7        37.400          18.300          36.200          42.200
G16  24729629.000 6  24729633.234 3                                     -3779.004 6     -2944.642 3                                 129955042.427 6 101263718.194 3                                        39.200          21.100
G21  21153232.672 8  21153236.027 6                                       823.211 8       644.338 6                                 111161086.430 8  86618986.543 6                                        50.000          41.600
G22  22860012.820 6  22860014.832 4                                      3233.840 6      2523.287 4                                 120130174.000 6  93607947.995 4                                        41.100          27.500
G23  25022223.602 5  25022228.434 3  25022228.734 6  25022232.809 7     -3553.641 5     -2767.879 3     -2767.881 6     -2652.551 7 131492682.080 5 102461854.773 3 102461871.798 6  98192644.988 7        34.800          18.300          38.400          43.700
G27  21214505.492 8  21214511.805 9  21214511.895 8  21214511.703 9     -2168.016 8     -1684.601 9     -1684.601 8     -1614.409 9 111482878.657 8  86869902.141 9  86869903.137 8  83250328.823 9        49.800          54.500          49.600          55.200
G32  23396007.563 7  23396013.723 6  23396014.453 6  23396014.051 7      2100.605 7      1641.374 6      1641.374 6      1572.983 7 122946858.700 7  95802757.846 6  95802762.865 6  91810981.349 7        44.500          40.000          41.800          46.300
> 2022 01 01 00 43 30.0000000  0 11
G01  22165369.531 7  22165376.992 5  22165376.813 7  22165376.441 8      2580.551 7      2013.630 5      2013.630 7      1929.728 8 116479802.659 7  90763528.042 5  90763524.042 7  86981718.512 8        43.000          30.500          44.500          51.200
G03  25191191.039 5  25191196.910 2  25191198.551 5  25191198.703 6      3874.000 5                      3019.470 5      2893.657 6                                 103153741.060 5  98855673.186 6        32.900          13.900          32.700          39.200
G08  20297750.453 8  20297756.582 9  20297757.402 8  20297756.281 9      -108.996 8       -78.921 9       -78.921 8       -75.633 9 106665389.575 8  83115948.116 9  83115950.118 8  79652786.842 9        50.500          55.700          52.400          56.800
G10  22367011.547 7  22367018.070 7  22367017.789 7  22367016.734 8     -2446.449 7     -1901.750 7     -1901.750 7     -1822.510 8 117539460.643 7  91589228.752 7  91589219.759 7  87773007.306 8        47.600          47.500          46.400          51.200
G14  24739596.039 6  24739600.117 3  24739600.336 5  24739604.684 7      2808.082 6      2192.653 3      2192.653 5      2101.292 7 130007333.511 6 101304511.283 3 101304528.262 5  97083509.872 7        36.900          18.300          35.600          42.300
G16  24751203.227 6  24751207.063 3                                     -3779.004 6     -2944.727 3                                 130068414.395 6 101352059.992 3                                        39.300          19.600
G21  21148555.156 8  21148558.359 6                                       815.613 8       638.454 6                                 111136505.946 8  86599832.917 6                                        48.400          41.100
G22  22841577.180 6  22841578.906 4                                      3224.949 6      2516.385 4                                 120033293.209 6  93532456.460 4                                        40.600          27.400
G23  25042518.992 5  25042523.590 2  25042523.941 6  25042527.813 7     -3556.332 5     -2770.164 2     -2770.163 6     -2654.741 7 131599333.379 5 102544959.692 2 102544976.688 6  98272287.234 7        33.600          17.400          38.500          43.500
G27  21226917.953 8  21226924.211 9  21226924.324 8  21226924.156 9     -2180.582 8     -1694.250 9     -1694.250 8     -1623.656 9 111548107.298 8  86920729.639 9  86920730.627 8  83299038.514 9        49.300          54.100          49.800          54.900
G32  23384049.938 7  23384056.313 6  23384056.504 7  23384055.898 7      2088.609 7      1632.150 6      1632.150 7      1564.143 7 122884020.923 7  95753793.354 6  95753798.351 7  91764057.046 7        44.400          40.500          42.400          46.300
> 2022 01 01 00 44 00.0000000  0 11
G01  22150657.508 7  22150665.484 5  22150665.340 7  22150664.523 8      2573.457 7      2008.029 5      2008.029 7      1924.361 8 116402493.493 7  90703287.173 5  90703283.177 7  86923987.684 8        43.600          30.300          44.700          51.100
G03  25169078.164 5  25169084.785 2  25169084.691 5  25169086.770 6      3872.531 5                      3018.278 5      2892.516 6 132264428.14715 103063198.79912 103063192.709 5  98768897.700 6        35.000          16.900          31.900          39.200
G08  20298415.836 8  20298422.051 9  20298422.738 8  20298421.695 9      -124.129 8       -90.834 9       -90.834 8       -87.049 9 106668886.694 8  83118673.138 9  83118675.140 8  79655398.318 9        51.100          55.100          52.600          56.700
G10  22381010.992 7  22381017.105 7  22381016.320 7  22381015.617 8     -2457.844 7     -1910.766 7     -1910.766 7     -1831.151 8 117613025.146 7  91646551.732 7  91646542.728 7  87827941.825 8        47.600          47.500          46.500          50.800
G14  24723598.094 6  24723602.574 2  24723602.352 6  24723606.961 7      2796.492 6      2183.615 2      2183.615 6      2092.631 7 129923264.335 6 101239002.844 2 101239019.829 6  97020730.945 7        37.200          17.800          36.600          42.200
G16  24772777.031 6  24772781.008 3                                     -3778.945 6     -2944.730 3                                 130181786.517 6 101440401.908 3                                        37.800          20.600
G21  21143920.313 7  21143923.988 6                                       808.195 7       632.585 6                                 111112151.407 7  86580855.358 6                                        47.600          41.500
G22  22823191.844 6  22823193.863 4                                      3215.938 6      2509.444 4                                 119936679.616 6  93457173.130 4                                        40.600          26.700
G23  25062830.602 6  25062835.262 3  25062834.875 6  25062838.711 7     -3559.273 6     -2772.391 3     -2772.391 6     -2656.873 7 131706070.422 6 102628131.417 3 102628148.431 6  98351993.419 7        36.300          18.600          38.100          42.800
G27  21239400.828 8  21239407.480 9  21239407.484 8  21239407.492 9     -2192.711 8     -1703.875 9     -1703.876 8     -1632.880 9 111613706.514 8  86971845.905 9  86971846.900 8  83348024.922 9        50.000          54.100          50.000          55.000
G32  23372159.875 7  23372166.707 6  23372167.086 7  23372166.289 7      2076.875 7      1622.856 6      1622.856 7      1555.237 7 122821540.935 7  95705107.671 6  95705112.681 7  91717399.931 7        44.000          40.900          42.200          46.000
> 2022 01 01 00 44 30.0000000  0 11
G01  22135987.555 7  22135994.992 5  22135994.973 7  22135994.152 8      2566.258 7      2002.411 5      2002.411 7      1918.977 8 116325400.616 7  90643214.830 5  90643210.840 7  86866418.369 8        43.200          31.700          44.100          51.100
G03  25146974.703 5  25146981.336 2  25146981.613 5  25146982.746 6      3871.309 5      3017.037 2      3017.034 5      2891.324 6 132148272.315 5 102972687.700 2 102972681.692 5  98682157.990 6        35.900          16.300          32.700          38.700
G08  20299168.453 8  20299175.000 9  20299175.543 8  20299174.453 9      -139.457 8      -102.757 9      -102.756 8       -98.475 9 106672842.826 8  83121755.838 9  83121757.832 8  79658352.566 9        51.700          55.400          52.500          56.900
G10  22395074.664 7  22395081.520 7  22395080.977 7  22395080.102 8     -2469.242 7     -1919.725 7     -1919.725 7     -1839.737 8 117686934.554 7  91704143.480 7  91704134.490 7  87883133.927 8        46.500          47.400          46.400          50.700
G14  24707667.953 6  24707670.816 3  24707671.594 5  24707675.754 6      2784.813 6      2174.512 3      2174.511 5      2083.907 6 129839545.708 6 101173767.490 3 101173784.501 5  96958213.745 6        37.400          18.300          35.800          41.700
G16  24794351.078 6  24794354.445 3                                     -3778.832 6     -2944.675 3                                 130295156.524 6 101528742.159 3                                        38.100          19.600
G21  21139328.758 8  21139332.355 6                                       800.621 8       626.725 6                                 111088022.476 8  86562053.608 6                                        49.900          41.600
G22  22804858.664 6  22804860.695 4                                      3206.945 6      2502.440 4                                 119840335.675 6  93382099.930 4                                        40.800          26.700
G23  25083157.969 6  25083162.070 3  25083162.707 6  25083166.039 6     -3561.922 6     -2774.560 3     -2774.559 6     -2658.954 6 131812890.949 6 102711368.209 3 102711385.197 6  98431762.044 6        36.000          19.300          38.800          40.800
G27  21251954.883 8  21251960.852 9  21251960.602 8  21251961.059 9     -2205.047 8     -1713.482 9     -1713.482 8     -1642.087 9 111679675.587 8  87023250.356 9  87023251.358 8  83397287.522 9        49.400          54.100          49.100          55.000
G32  23360339.273 7  23360345.500 6  23360346.094 6  23360345.535 7      2064.727 7      1613.493 6      1613.493 6      1546.264 7 122759421.444 7  95656702.890 6  95656707.898 6  91671012.024 7        45.000          40.500          41.800          46.800
> 2022 01 01 00 45 00.0000000  0 11
G01  22121358.453 7  22121366.016 5  22121366.102 7  22121365.543 8      2558.914 7      1996.784 5      1996.784 7      1913.584 8 116248524.425 7  90583311.321 5  90583307.328 7  86809010.848 8        43.100          31.900          44.800          51.800
G03  25124880.359 5  25124887.113 2  25124887.348 5  25124888.785 6      3869.328 5      3015.739 2      3015.737 5      2890.083 6 132032166.378 5 102882215.519 2 102882209.583 5  98595455.483 6        35.500          15.600          34.300          39.800
G08  20300008.883 8  20300015.141 9  20300015.867 8  20300014.980 9      -154.934 8      -114.707 9      -114.707 8      -109.927 9 106677259.047 8  83125197.034 9  83125199.044 8  79661650.387 9        51.300          55.400          52.000          56.900
G10  22409204.500 7  22409211.449 7  22409210.875 7  22409209.867 8     -2480.824 7     -1928.620 7     -1928.620 7     -1848.260 8 117761186.427 7  91762002.082 7  91761993.080 7  87938581.741 8        47.600          47.300          46.100          50.800
G14  24691803.469 6  24691807.305 2  24691806.898 5  24691811.652 6      2772.801 6      2165.343 2      2165.344 5      2075.120 6 129756180.002 6 101108807.198 2 101108824.180 5  96895960.136 6        36.600          17.800          35.800          41.700
G16  24815923.742 6  24815927.430 3                                     -3778.734 6     -2944.564 3                                 130408522.241 6 101617079.071 3                                        38.200          20.400
G21  21134780.047 8  21134783.570 6                                       793.004 8       620.880 6                                 111064118.603 8  86543427.218 6                                        48.600          41.200
G22  22786575.930 6  22786578.613 4                                      3197.887 6      2495.407 4                                 119744262.512 6  93307237.725 4                                        40.900          28.200
G23  25103501.391 5  25103505.344 3  25103505.164 6  25103509.129 7     -3564.742 5     -2776.667 3     -2776.668 6     -2660.974 7 131919792.631 5 102794668.206 3 102794685.249 6  98511591.259 7        35.900          18.300          38.300          43.600
G27  21264578.258 8  21264584.523 8  21264584.781 8  21264584.590 9     -2217.426 8     -1723.064 8     -1723.064 8     -1651.269 9 111746013.568 8  87074942.278 8  87074943.272 8  83446825.605 9        49.000          53.800          49.800          54.900
G32  23348587.430 7  23348593.766 6  23348594.332 7  23348593.602 7      2052.387 7      1604.062 6      1604.062 7      1537.226 7 122697665.041 7  95608581.029 6  95608586.034 7  91624895.242 7        44.700          40.800          42.000          46.800
> 2022 01 01 00 45 30.0000000  0 11
G01  22106771.289 7  22106778.652 5  22106778.227 7  22106777.777 8      2551.836 7      1991.138 5      1991.138 7      1908.173 8 116171865.610 7  90523577.186 5  90523573.196 7  86751765.648 8        43.600          32.300          45.200          51.100
G03  25102795.516 5  25102803.258 2  25102803.109 6  25102804.133 6      3867.801 5      3014.388 2      3014.391 6      2888.789 6 131916112.386 5 102791783.874 2 102791777.867 6  98508791.820 6        34.300          17.800          36.600          41.400
G08  20300937.016 8  20300943.199 9  20300943.688 8  20300942.910 9      -170.184 8      -126.658 9      -126.658 8      -121.381 9 106682135.394 8  83128996.778 9  83128998.780 8  79665291.803 9        50.800          55.400          52.300          56.800
G10  22423399.609 8  22423405.844 7  22423405.238 7  22423404.332 8     -2492.020 8     -1937.458 7     -1937.458 7     -1856.731 8 117835778.554 8  91820125.822 7  91820116.827 7  87994283.664 8        48.800          47.600          46.400          50.900
G14  24676006.820 6  24676011.055 3  24676010.305 5  24676015.441 6      2761.074 6      2156.109 3      2156.107 5      2066.271 6 129673169.875 6 101044123.922 3 101044140.955 5  96833972.023 6        37.200          19.000          35.300          41.500
G16  24837494.656 6  24837498.805 3                                     -3778.426 6     -2944.368 3                                 130521880.423 6 101705410.105 3                                        38.600          19.600
G21  21130273.844 7  21130277.543 6                                       785.641 7       615.036 6                                 111040439.718 7  86524976.143 6                                        47.600          41.300
G22  22768345.859 6  22768347.816 4                                      3188.863 6      2488.329 4                                 119648461.870 6  93232587.857 4                                        40.400          27.000
G23  25123858.414 5  25123862.781 2  25123862.438 6  25123866.465 7     -3567.367 5     -2778.724 2     -2778.723 6     -2662.943 7 132026773.491 5 102878029.931 2 102878046.943 6  98591479.539 7        35.400          16.900          37.800          43.100
G27  21277272.078 8  21277278.441 8  21277278.895 8  21277278.375 9     -2229.559 8     -1732.627 8     -1732.628 8     -1660.435 9 111812719.735 8  87126921.093 8  87126922.103 8  83496638.652 9        49.000          53.800          49.500          54.700
G32  23336905.141 7  23336911.695 6  23336912.324 7  23336911.148 7      2040.383 7      1594.561 6      1594.561 7      1528.121 7 122636274.410 7  95560744.192 6  95560749.204 7  91579051.616 7        45.700          41.700          42.300          46.300
> 2022 01 01 00 46 00.0000000  0 11
G01  22092224.109 7  22092232.211 5  22092232.031 7  22092230.953 8      2544.313 7      1985.479 5      1985.479 7      1902.751 8 116095424.610 7  90464012.811 5  90464008.815 7  86694683.102 8        43.700          31.800          45.100          50.900
G03  25080721.516 5  25080729.164 3  25080729.098 6  25080729.941 7      3865.633 5      3012.989 3      3012.988 6      2887.447 7 131800112.282 5 102701394.200 3 102701388.235 6  98422168.417 7        34.700          18.300          36.600          42.000
G08  20301952.742 8  20301958.836 9  20301959.668 8  20301958.656 9      -185.672 8      -138.640 9      -138.640 8      -132.863 9 106687473.024 8  83133155.963 9  83133157.965 8  79669277.696 9        51.100          55.700          51.700          56.900
G10  22437657.750 7  22437664.535 7  22437664.063 7  22437662.988 8     -2503.285 7     -1946.233 7     -1946.234 7     -1865.141 8 117910708.547 7  91878512.825 7  91878503.832 7  88050237.878 8        47.200          47.300          46.400          50.900
G14  24660279.352 6  24660282.758 2  24660282.941 6  24660288.059 6      2749.063 6      2146.807 2      2146.809 6      2057.358 6 129590517.794 6 100979719.723 2 100979736.683 6  96772251.278 6        36.000          17.400          36.300          41.700
G16  24859065.234 6  24859068.016 3                                     -3778.188 6     -2944.136 3                                 130635229.663 6 101793734.174 3                                        39.400          19.600
G21  21125810.961 8  21125814.477 6                                       777.969 8       609.205 6                                 111016985.314 8  86506699.990 6                                        49.100          41.700
G22  22750167.602 6  22750170.191 4                                      3179.570 6      2481.191 4                                 119552936.041 6  93158152.139 4                                        40.400          28.000
G23  25144231.344 5  25144234.957 2  25144235.090 6  25144239.293 7     -3569.914 5     -2780.716 2     -2780.719 6     -2664.854 7 132133831.149 5 102961451.411 2 102961468.503 6  98671425.171 7        35.500          15.600          37.200          43.100
G27  21290035.594 8  21290042.145 8  21290042.309 8  21290042.063 9     -2242.020 8     -1742.166 8     -1742.166 8     -1669.575 9 111879793.150 8  87179186.080 8  87179187.076 8  83546725.913 9        49.200          53.700          50.000          54.600
G32  23325292.875 7  23325299.367 6  23325300.207 7  23325298.965 7      2027.828 7      1584.994 6      1584.995 7      1518.953 7 122575252.119 7  95513194.375 6  95513199.363 7  91533483.029 7        44.900          41.300          42.400          46.700
> 2022 01 01 00 46 30.0000000  0 11
G01  22077719.563 7  22077727.223 5  22077727.344 7  22077726.219 8      2537.184 7      1979.808 5      1979.808 7      1897.316 8 116019201.980 7  90404618.574 5  90404614.578 7  86637763.631 8        43.400          32.100          45.100          51.100
G03  25058658.398 5  25058665.211 3  25058666.344 6  25058665.875 6      3864.063 5      3011.537 3      3011.538 6      2886.055 6 131684168.072 5 102611048.099 3 102611042.110 6  98335586.765 6        35.500          19.000          36.500          41.000
G08  20303056.094 8  20303062.508 9  20303062.953 8  20303062.184 9      -200.961 8      -150.623 9      -150.622 8      -144.346 9 106693272.002 8  83137674.643 9  83137676.638 8  79673608.086 9        51.200          55.400          52.700          56.800
G10  22451980.602 7  22451986.980 7  22451986.551 7  22451985.395 8     -2514.328 7     -1954.949 7     -1954.949 7     -1873.492 8 117985974.080 7  91937161.289 7  91937152.293 7  88106442.649 8        47.600          47.100          46.400          50.800
G14  24644619.219 6  24644623.141 3  24644622.828 6  24644627.836 6      2736.988 6      2137.446 3      2137.444 6      2048.385 6 129508226.164 6 100915596.349 3 100915613.357 6  96710799.731 6        36.100          18.600          36.000          41.300
G16  24880631.930 6  24880635.375 3                                     -3777.668 6     -2943.828 3                                 130748567.017 6 101882049.008 3                                        39.000          19.000
G21  21121390.664 8  21121393.840 7                                       770.668 8       603.383 7                                 110993755.053 8  86488598.496 7                                        48.400          42.000
G22  22732042.711 6  22732044.625 4                                      3170.375 6      2474.009 4                                 119457686.681 6  93083931.867 4                                        40.200          26.800
G23  25164616.828 5  25164621.965 2  25164621.680 6  25164625.594 7     -3572.109 5     -2782.658 2     -2782.657 6     -2666.714 7 132240963.406 5 103044931.144 2 103044948.209 6  98751426.590 7        35.000          17.800          37.600          42.600
G27  21302868.945 8  21302875.516 8  21302875.578 8  21302875.344 9     -2254.008 8     -1751.682 8     -1751.682 8     -1678.695 9 111947232.904 8  87231736.526 8  87231737.522 8  83597086.761 9        49.200          53.700          49.800          54.500
G32  23313750.898 7  23313757.859 6  23313758.160 7  23313757.266 7      2015.648 7      1575.359 6      1575.358 7      1509.719 7 122514600.792 7  95465933.611 6  95465938.614 7  91488191.470 7        44.800          41.000          42.800          46.500
> 2022 01 01 00 47 00.0000000  0 11
G01  22063256.898 7  22063264.406 5  22063264.289 7  22063263.602 8      2529.840 7      1974.118 5      1974.118 7      1891.863 8 115943198.430 7  90345395.042 5  90345391.037 7  86581007.749 8        42.500          32.200          45.300          50.900
G03  25036605.898 5  25036612.836 2  25036613.402 6  25036613.480 6      3862.113 5      3010.028 2      3010.028 6      2884.611 6 131568281.972 5 102520747.267 2 102520741.280 6  98249048.425 6        34.900          17.800          37.600          41.100
G08  20304247.805 8  20304254.129 9  20304254.648 8  20304253.703 9      -216.457 8      -162.645 9      -162.645 8      -155.868 9 106699533.849 8  83142553.994 9  83142555.982 8  79678284.135 9        51.200          55.600          52.200          56.900
G10  22466366.523 8  22466372.648 7  22466372.359 7  22466371.680 8     -2525.422 8     -1963.608 7     -1963.608 7     -1881.791 8 118061572.977 8  91996069.526 7  91996060.530 7  88162896.378 8        48.200          47.200          46.300          50.700
G14  24629029.438 5  24629032.113 3  24629032.656 6  24629037.426 7      2724.621 5      2128.012 3      2128.011 6      2039.346 7 129426297.716 5 100851755.981 3 100851773.014 6  96649619.357 7        35.800          18.300          36.200          42.500
G16  24902196.984 6  24902200.273 3                                     -3777.066 6     -2943.434 3                                 130861889.241 6 101970352.019 3                                        38.300          19.300
G21  21117012.477 8  21117015.750 6                                       763.199 8       597.560 6                                 110970748.983 8  86470671.686 6                                        48.200          41.700
G22  22713970.391 6  22713972.117 4                                      3161.039 6      2466.781 4                                 119362715.638 6  93009928.454 4                                        40.600          26.800
G23  25185018.039 6  25185022.012 2  25185021.297 6  25185026.070 7     -3574.668 6     -2784.544 2     -2784.543 6     -2668.519 7 132348168.330 6 103128467.457 2 103128484.489 6  98831482.169 7        37.100          17.400          36.800          42.500
G27  21315771.961 8  21315778.457 8  21315778.539 8  21315778.316 9     -2266.211 8     -1761.180 8     -1761.180 8     -1687.797 9 112015038.348 8  87284571.917 8  87284572.919 8  83647720.670 9        48.800          53.400          49.500          54.700
G32  23302280.813 7  23302287.402 6  23302287.742 7  23302287.230 7      2002.984 7      1565.651 6      1565.651 7      1500.416 7 122454323.201 7  95418964.075 6  95418969.075 7  91443178.994 7        44.400          40.700          42.700          46.600
> 2022 01 01 00 47 30.0000000  0 11
G01  22048835.281 7  22048843.438 5  22048842.891 7  22048842.195 8      2522.406 7      1968.423 5      1968.422 7      1886.404 8 115867414.153 7  90286342.364 5  90286338.382 7  86524415.619 8        44.000          33.000          45.800          51.300
G03  25014565.484 5  25014572.406 3  25014572.137 6  25014572.414 6      3859.699 5      3008.476 3      3008.476 6      2883.123 6 131452455.654 5 102430492.981 3 102430486.989 6  98162554.745 6        35.700          19.300          37.200          40.600
G08  20305527.461 8  20305533.656 9  20305534.496 8  20305533.477 9      -231.875 8      -174.669 9      -174.669 8      -167.391 9 106706258.608 8  83147794.058 9  83147796.067 8  79683305.870 9        51.500          55.000          51.600          56.900
G10  22480815.625 7  22480821.695 7  22480821.523 7  22480819.980 8     -2536.566 7     -1972.198 7     -1972.198 7     -1890.023 8 118137502.613 7  92055235.474 7  92055226.469 7  88219597.061 8        47.000          46.800          45.800          50.300
G14  24613507.695 5  24613512.117 3  24613512.609 6  24613516.859 7      2712.535 5      2118.522 3      2118.524 6      2030.251 7 129344734.570 5 100788200.312 3 100788217.287 6  96588711.828 7        35.700          19.300          37.800          43.000
G16  24923757.820 6  24923761.094 3                                     -3776.645 6     -2942.999 3                                 130975194.715 6 102058641.988 3                                        38.300          18.300
G21  21112677.211 8  21112680.508 7                                       755.582 8       591.761 7                                 110947966.190 8  86452918.869 7                                        48.500          42.100
G22  22695950.641 6  22695952.906 4                                      3151.758 6      2459.510 4                                 119268024.480 6  92936143.136 4                                        40.200          27.400
G23  25205431.563 6  25205435.406 3  25205435.973 6  25205439.242 6     -3577.117 6     -2786.365 3     -2786.364 6     -2670.265 6 132455443.321 6 103212058.389 3 103212075.392 6  98911590.128 6        36.200          19.000          38.800          41.800
G27  21328744.539 8  21328750.789 8  21328750.758 8  21328750.660 9     -2278.512 8     -1770.646 8     -1770.646 8     -1696.869 9 112083208.229 8  87337691.291 8  87337692.293 8  83698626.734 9        49.300          53.800          49.500          54.500
G32  23290881.766 7  23290888.375 6  23290888.863 6  23290888.348 7      1990.402 7      1555.885 6      1555.885 6      1491.056 7 122394421.602 7  95372287.527 6  95372292.516 6  91398447.314 7        45.500          40.900          41.900          46.500
> 2022 01 01 00 48 00.0000000  0 11
G01  22034456.313 7  22034463.727 5  22034463.563 7  22034462.621 8      2515.094 7      1962.709 5      1962.710 7      1880.929 8 115791849.822 7  90227461.099 5  90227457.095 7  86467987.735 8        42.600          32.800          46.000          51.100
G03  24992535.992 5  24992542.652 3  24992543.297 6  24992542.961 6      3857.793 5      3006.869 3      3006.869 6      2881.583 6 131336691.216 5 102340286.911 3 102340280.932 6  98076107.254 6        33.500          18.300          38.300          41.400
G08  20306895.359 8  20306901.445 9  20306902.254 8  20306901.227 9      -247.414 8      -186.704 9      -186.704 8      -178.925 9 106713446.742 8  83153395.186 9  83153397.195 8  79688673.618 9        51.600          55.600          52.200          56.900
G10  22495326.758 7  22495332.949 7  22495332.738 7  22495331.711 8     -2547.406 7     -1980.730 7     -1980.730 7     -1898.201 8 118213760.741 7  92114657.388 7  92114648.380 7  88276543.082 8        47.600          46.800          46.000          50.400
G14  24598058.406 5  24598060.750 3  24598060.945 6  24598065.184 7      2700.422 5      2108.966 3      2108.966 6      2021.093 7 129263539.344 5 100724931.323 3 100724948.318 6  96528079.041 7        35.600          18.600          39.200          43.500
G16  24945315.258 6  24945319.203 2                                     -3775.941 6     -2942.497 2                                 131088480.775 6 102146916.886 2                                        38.300          16.900
G21  21108384.414 8  21108387.840 7                                       748.254 8       585.962 7                                 110925406.650 8  86435340.017 7                                        48.600          42.200
G22  22677985.469 6  22677987.391 4                                      3142.160 6      2452.192 4                                 119173615.075 6  92862577.379 4                                        39.500          27.100
G23  25225857.695 5  25225862.242 3  25225862.734 6  25225866.789 7     -3579.254 5     -2788.134 3     -2788.133 6     -2671.964 7 132562786.380 5 103295702.406 3 103295719.378 6  98991749.039 7        35.500          18.600          38.100          42.200
G27  21341785.695 8  21341792.203 8  21341792.297 8  21341792.199 9     -2290.574 8     -1780.092 8     -1780.092 8     -1705.922 9 112151741.802 8  87391094.059 8  87391095.060 8  83749804.389 9        49.200          53.500          50.000          54.400
G32  23279555.305 7  23279561.762 6  23279562.023 7  23279561.188 7      1977.699 7      1546.048 6      1546.048 7      1481.630 7 122334898.717 7  95325906.073 6  95325911.062 7  91353998.425 7        44.700          41.700          43.000          47.200
> 2022 01 01 00 48 30.0000000  0 11
G01  22020118.367 7  22020126.270 5  22020126.344 7  22020125.367 8      2507.840 7      1956.985 5      1956.985 7      1875.444 8 115716505.869 7  90168751.544 5  90168747.541 7  86411724.423 8        42.900          33.100          45.700          51.000
G03  24970518.664 5  24970525.973 3  24970526.168 6  24970526.066 7      3855.531 5      3005.209 3      3005.210 6      2879.993 7 131220990.554 5 102250130.627 3 102250124.621 6  97989707.450 7        33.600          18.300          39.300          42.500
G08  20308351.430 8  20308357.781 9  20308358.355 8  20308357.488 9      -262.785 8      -198.752 9      -198.751 8      -190.470 9 106721098.679 8  83159357.732 9  83159359.727 8  79694387.713 9        52.000          55.000          51.800          56.900
G10  22509900.234 7  22509906.695 7  22509906.375 7  22509905.000 8     -2558.137 7     -1989.200 7     -1989.201 7     -1906.317 8 118290344.954 7  92174333.402 7  92174324.398 7  88333732.583 8        46.200          46.700          45.700          50.400
G14  24582676.234 5  24582681.113 3  24582680.363 6  24582685.223 7      2688.055 5      2099.349 3      2099.349 6      2011.876 7 129182714.435 5 100661950.867 3 100661967.842 6  96467722.769 7        34.400          18.600          39.200          43.800
G16  24966869.797 6  24966871.949 2                                     -3774.996 6     -2941.928 2                                 131201745.014 6 102235174.729 2                                        37.500          17.400
G21  21104133.688 8  21104137.133 6                                       740.852 8       580.174 6                                 110903069.937 8  86417934.792 6                                        48.100          41.600
G22  22660073.672 6  22660076.180 4                                      3132.898 6      2444.838 4                                 119079488.787 6  92789232.233 4                                        40.000          27.900
G23  25246297.305 5  25246301.898 2  25246301.965 6  25246305.605 7     -3581.410 5     -2789.840 2     -2789.840 6     -2673.596 7 132670195.281 5 103379397.594 2 103379414.569 6  99071956.929 7        35.900          17.800          37.600          42.400
G27  21354896.516 8  21354902.906 8  21354902.980 8  21354902.621 9     -2302.426 8     -1789.513 8     -1789.513 8     -1714.950 9 112220638.052 8  87444779.438 8  87444780.441 8  83801252.885 9        48.700          53.600          49.700          54.400
G32  23268300.805 7  23268307.797 7  23268308.004 7  23268307.078 7      1965.063 7      1536.147 7      1536.148 7      1472.141 7 122275757.038 7  95279821.657 7  95279826.634 7  91309834.180 7        45.000          42.100          42.600          46.600
> 2022 01 01 00 49 00.0000000  0 11
G01  22005823.180 7  22005831.254 5  22005830.508 7  22005829.770 8      2500.414 7      1951.238 5      1951.238 7      1869.937 8 115641383.154 7  90110214.396 5  90110210.396 7  86355626.325 8        44.100          33.700          46.000          51.200
G03  24948514.008 5  24948521.180 3  24948521.801 6  24948522.082 7      3853.230 5      3003.495 3      3003.494 6      2878.348 7 131105355.958 5 102160025.775 3 102160019.796 6  97903357.009 7        34.500          20.100          39.200          43.000
G08  20309895.875 8  20309902.250 9  20309902.988 8  20309901.863 9      -278.344 8      -210.816 9      -210.816 8      -202.032 9 106729215.100 8  83165682.215 9  83165684.209 8  79700448.676 9        51.600          55.400          51.500          56.800
G10  22524535.492 7  22524541.836 7  22524541.426 7  22524540.203 8     -2569.027 7     -1997.616 7     -1997.617 7     -1914.383 8 118367253.188 7  92234261.892 7  92234252.897 7  88391164.059 8        47.300          47.000          46.100          50.300
G14  24567366.148 5  24567371.676 3  24567371.215 6  24567375.613 7      2675.289 5      2089.731 3      2089.659 6      2002.591 7 129102262.50615 100599261.04213 100599278.074 6  96407645.048 7        35.100          20.600          40.500          44.300
G16  24988417.875 6  24988421.262 3                                     -3774.344 6     -2941.293 3                                 131314984.796 6 102323413.513 3                                        37.300          18.600
G21  21099925.391 8  21099928.680 6                                       733.434 8       574.392 6                                 110880955.825 8  86400703.026 6                                        48.100          41.400
G22  22642216.383 6  22642218.973 4                                      3123.266 6      2437.425 4                                 118985647.924 6  92716109.492 4                                        39.800          27.600
G23  25266748.578 5  25266753.246 2  25266752.531 6  25266757.516 6     -3583.352 5     -2791.500 2     -2791.502 6     -2675.188 6 132777668.032 5 103463142.597 2 103463159.644 6  99152212.582 6        34.600          14.800          36.700          41.800
G27  21368075.648 8  21368082.355 8  21368082.375 8  21368082.133 9     -2314.664 8     -1798.917 8     -1798.917 8     -1723.962 9 112289896.357 8  87498746.936 8  87498747.937 8  83852971.738 9        48.600          53.400          49.300          54.300
G32  23257119.242 7  23257126.191 6  23257126.531 7  23257126.250 7      1952.059 7      1526.172 6      1526.171 7      1462.581 7 122216999.368 7  95234036.484 6  95234041.496 7  91265956.737 7        44.800          41.000          42.400          47.200
> 2022 01 01 00 49 30.0000000  0 11
G01  21991570.461 7  21991577.680 5  21991577.383 7  21991576.535 8      2493.035 7      1945.479 5      1945.479 7      1864.418 8 115566482.198 7  90051850.035 5  90051846.032 7  86299693.797 8        44.100          33.200          45.500          51.200
G03  24926522.297 5  24926529.938 2  24926529.594 6  24926530.000 7      3850.953 5      3001.723 2      3001.724 6      2876.652 7 130989789.548 5 102069974.092 2 102069968.064 6  97817057.455 7        33.900          17.800          38.800          42.400
G08  20311529.250 8  20311535.293 9  20311535.867 8  20311535.141 9      -293.840 8      -222.920 9      -222.920 8      -213.632 9 106737797.527 8  83172369.813 9  83172371.814 8  79706857.631 9        52.300          55.700          52.300          57.000
G10  22539232.063 7  22539238.090 7  22539237.617 7  22539237.230 8     -2579.625 7     -2005.972 7     -2005.972 7     -1922.390 8 118444483.119 7  92294441.059 7  92294432.056 7  88448835.756 8        47.100          46.500          45.800          50.600
G14  24552128.602 5  24552133.441 3  24552133.516 6  24552138.148 7      2662.949 5      2079.904 3      2079.905 6      1993.242 7 129022186.188 5 100536863.915 3 100536880.925 6  96347847.777 7        33.700          19.000          40.500          44.500
G16  25009961.547 6  25009965.344 3                                     -3773.234 6     -2940.576 3                                 131428196.969 6 102411630.785 3                                        38.500          19.900
G21  21095759.773 8  21095763.016 6                                       726.090 8       568.622 6                                 110859063.870 8  86383644.355 6                                        48.600          41.900
G22  22624413.531 6  22624416.004 4                                      3113.574 6      2429.964 4                                 118892094.287 6  92643210.578 4                                        40.200          28.600
G23  25287211.219 5  25287215.820 2  25287216.043 6  25287220.727 7     -3585.313 5     -2793.110 2     -2793.108 6     -2676.729 7 132885202.691 5 103546935.899 2 103546952.873 6  99232514.441 7        34.500          16.900          36.600          42.000
G27  21381323.727 8  21381330.332 8  21381330.238 8  21381330.289 9     -2326.641 8     -1808.297 8     -1808.297 8     -1732.951 9 112359515.804 8  87552995.844 8  87552996.840 8  83904960.256 9        48.700          53.200          49.600          54.500
G32  23246011.922 7  23246018.332 6  23246018.730 7  23246018.215 7      1939.234 7      1516.132 6      1516.133 7      1452.960 7 122158628.252 7  95188552.513 6  95188557.509 7  91222367.937 7        45.200          41.700          42.100          47.100
> 2022 01 01 00 50 00.0000000  0 11
G01  21977358.797 7  21977366.527 5  21977366.359 7  21977365.797 8      2485.766 7      1939.708 5      1939.707 7      1858.885 8 115491803.421 7  89993658.810 5  89993654.817 7  86243927.241 8        44.500          33.300          45.700          51.700
G03  24904543.406 5  24904551.219 3  24904551.273 6  24904552.047 7      3848.742 5      2999.909 3      2999.907 6      2874.911 7 130874293.018 5 101979976.831 3 101979970.845 6  97730810.111 7        32.600          18.300          38.400          42.400
G08  20313250.883 8  20313257.152 9  20313257.918 8  20313257.020 9      -309.324 8      -235.016 9      -235.016 8      -225.223 9 106746845.657 8  83179420.290 9  83179422.292 8  79713614.328 9        52.000          55.400          52.100          56.900
G10  22553989.086 7  22553995.457 7  22553994.762 7  22553993.738 8     -2590.270 7     -2014.265 7     -2014.265 7     -1930.337 8 118522032.311 7  92354868.997 7  92354859.999 7  88506745.857 8        47.200          46.700          45.800          50.500
G14  24536962.781 5  24536967.004 3  24536967.484 6  24536971.777 7      2650.535 5      2070.091 3      2070.090 6      1983.837 7 128942487.669 5 100474761.184 3 100474778.219 6  96288332.673 7        35.200          20.600          41.000          45.300
G16  25031499.031 6  25031503.672 3                                     -3772.176 6     -2939.812 3                                 131541379.681 6 102499825.151 3                                        38.300          18.600
G21  21091635.789 8  21091639.281 6                                       718.625 8       562.855 6                                 110837393.931 8  86366758.701 6                                        48.300          41.700
G22  22606666.438 6  22606668.289 4                                      3103.957 6      2422.461 4                                 118798829.528 6  92570536.743 4                                        40.500          28.700
G23  25307687.180 6  25307691.148 2  25307690.945 6  25307694.691 7     -3587.438 6     -2794.656 2     -2794.657 6     -2678.213 7 132992796.995 6 103630775.572 2 103630792.579 6  99312860.817 7        36.300          17.400          37.100          42.600
G27  21394640.531 8  21394647.078 8  21394647.262 8  21394646.973 9     -2338.645 8     -1817.649 8     -1817.649 8     -1741.914 9 112429495.321 8  87607525.319 8  87607526.315 8  83957217.679 9        48.600          53.200          49.600          54.500
G32  23234978.063 7  23234984.867 6  23234985.199 7  23234984.680 7      1926.277 7      1506.028 6      1506.028 7      1443.276 7 122100646.151 7  95143371.664 6  95143376.679 7  91179069.642 7        44.500          41.800          42.800          46.800
> 2022 01 01 00 50 30.0000000  0 11
G01  21963190.305 7  21963197.984 5  21963198.234 7  21963197.254 8      2478.277 7      1933.928 5      1933.928 7      1853.348 8 115417347.168 7  89935640.957 5  89935636.974 7  86188326.805 8        43.900          33.600          45.800          51.700
G03  24882578.375 5  24882586.898 2  24882586.547 6  24882587.363 7      3846.184 5      2998.040 2      2998.042 6      2873.123 7 130758868.436 5 101890035.647 2 101890029.600 6  97644616.422 7        33.500          16.900          38.800          42.900
G08  20315061.570 8  20315067.625 9  20315068.227 8  20315067.539 9      -324.887 8      -247.115 9      -247.115 8      -236.819 9 106756359.597 8  83186833.743 9  83186835.738 8  79720718.893 9        51.900          56.100          52.400          57.100
G10  22568806.500 7  22568813.129 7  22568812.289 7  22568811.160 8     -2600.758 7     -2022.490 7     -2022.490 7     -1938.220 8 118599898.184 7  92415543.702 7  92415534.706 7  88564892.454 8        46.700          46.700          45.900          50.100
G14  24521868.984 6  24521873.238 3  24521873.707 6  24521877.879 7      2637.477 6      2060.278 3      2060.218 6      1974.375 7 128863169.29216 100412954.70613 100412971.691 6  96229101.435 7        36.100          22.000          41.700          46.100
G16  25053031.094 6  25053035.387 2                                     -3771.273 6     -2938.989 2                                 131654530.791 6 102587994.818 2                                        37.900          17.800
G21  21087554.500 8  21087557.633 6                                       711.293 8       557.107 6                                 110815945.284 8  86350045.475 6                                        48.200          41.700
G22  22588973.523 6  22588975.859 4                                      3094.309 6      2414.928 4                                 118705854.780 6  92498088.888 4                                        40.700          28.300
G23  25328171.688 6  25328176.961 3  25328176.531 6  25328180.094 7     -3589.293 6     -2796.141 3     -2796.143 6     -2679.636 7 133100448.462 6 103714659.809 3 103714676.870 6  99393249.904 7        36.500          18.300          37.200          42.200
G27  21408025.563 8  21408032.129 8  21408032.207 8  21408031.953 9     -2350.539 8     -1826.972 8     -1826.973 8     -1750.848 9 112499833.758 8  87662334.488 8  87662335.490 8  84009743.126 9        48.800          53.300          48.700          54.300
G32  23224019.328 7  23224025.555 6  23224026.121 7  23224025.836 7      1913.254 7      1495.864 6      1495.864 7      1433.536 7 122043055.368 7  95098495.756 6  95098500.752 7  91136063.564 7        44.800          41.600          43.300          47.600
> 2022 01 01 00 51 00.0000000  0 11
G01  21949064.414 7  21949072.219 5  21949071.730 7  21949071.289 8      2470.730 7      1928.121 5      1928.121 7      1847.782 8 115343114.462 7  89877797.325 5  89877793.341 7  86132893.338 8        44.300          33.300          45.800          51.600
G03  24860628.945 5  24860636.012 3  24860636.418 6  24860636.457 7      3843.711 5      2996.113 3      2996.109 6      2871.272 7 130643518.124 5 101800152.273 3 101800146.332 6  97558478.258 7        35.100          19.000          38.800          43.300
G08  20316960.961 8  20316966.941 9  20316967.676 8  20316966.723 9      -340.500 8      -259.250 9      -259.250 8      -248.448 9 106766340.734 8  83194611.237 9  83194613.246 8  79728172.328 9        51.900          55.700          52.100          56.800
G10  22583684.078 7  22583690.176 7  22583689.750 7  22583688.832 8     -2611.266 7     -2030.669 7     -2030.669 7     -1946.058 8 118678078.952 7  92476463.776 7  92476454.776 7  88623274.183 8        46.900          46.400          45.400          50.200
G14  24506848.133 5  24506852.484 3  24506852.332 6  24506856.820 7      2625.219 5      2050.465 3      2050.267 6      1964.839 7 128784233.96315 100351446.66013 100351463.689 6  96170156.250 7        35.100          22.200          41.200          46.500
G16  25074556.219 6  25074560.758 2                                     -3769.887 6     -2938.102 2                                 131767647.710 6 102676137.883 2                                        36.700          17.800
G21  21083514.969 8  21083518.148 6                                       703.875 8       551.352 6                                 110794718.201 8  86333504.905 6                                        48.000          41.800
G22  22571336.969 6  22571338.867 4                                      3084.539 6      2407.334 4                                 118613172.425 6  92425868.876 4                                        41.300          29.500
G23  25348668.195 6  25348672.430 2  25348672.059 5  25348676.035 6     -3591.164 6     -2797.589 2     -2797.588 5     -2681.023 6 133208155.615 6 103798587.471 2 103798604.515 5  99473680.589 6        36.700          17.800          35.900          41.500
G27  21421479.000 8  21421485.305 8  21421485.246 8  21421485.176 9     -2362.512 8     -1836.284 8     -1836.283 8     -1759.772 9 112570530.697 8  87717422.998 8  87717423.993 8  84062536.280 9        48.900          53.200          49.100          54.100
G32  23213135.234 7  23213141.578 7  23213142.289 7  23213141.270 7      1899.980 7      1485.621 7      1485.620 7      1423.720 7 121985858.912 7  95053927.120 7  95053932.141 7  91093351.960 7        44.500          42.000          43.100          47.200
> 2022 01 01 00 51 30.0000000  0 11
G01  21934980.625 7  21934988.582 5  21934988.777 7  21934987.707 8      2463.359 7      1922.313 5      1922.313 7      1842.217 8 115269105.349 7  89820127.927 5  89820123.943 7  86077626.838 8        44.000          34.600          46.400          51.400
G03  24838692.563 5  24838699.801 2  24838700.258 6  24838700.781 7      3841.223 5      2994.141 2      2994.143 6      2869.386 7 130528243.695 5 101710328.035 2 101710322.036 6  97472396.683 7        33.800          17.800          37.400          43.200
G08  20318949.156 8  20318955.113 9  20318955.879 8  20318955.023 9      -355.922 8      -271.389 9      -271.389 8      -260.081 9 106776789.226 8  83202752.917 9  83202754.919 8  79735974.770 9        51.900          55.700          51.700          56.900
G10  22598620.680 7  22598627.160 7  22598626.422 7  22598625.223 8     -2621.508 7     -2038.774 7     -2038.775 7     -1953.825 8 118756571.740 7  92537626.997 7  92537618.011 7  88681888.937 8        47.700          46.800          46.200          50.100
G14  24491899.320 5  24491904.801 3  24491905.043 6  24491908.746 7      2611.715 5      2040.266 3      2040.267 6      1955.256 7 128705683.715 5 100290238.696 3 100290255.665 6  96111498.570 7        35.200          22.500          41.400          45.900
G16  25096075.000 5  25096078.398 2                                     -3768.555 5     -2937.135 2                                 131880727.474 5 102764251.947 2                                        35.600          17.400
G21  21079517.578 7  21079521.023 6                                       696.629 7       545.613 6                                 110773712.083 7  86317136.505 6                                        47.900          41.800
G22  22553755.805 7  22553757.691 4                                      3074.875 7      2399.703 4                                 118520783.842 7  92353877.774 4                                        42.000          29.600
G23  25369173.883 6  25369177.977 3  25369177.629 6  25369182.027 7     -3592.711 6     -2798.969 3     -2798.967 6     -2682.344 7 133315915.832 6 103882556.524 3 103882573.537 6  99554150.892 7        37.300          19.000          37.000          42.400
G27  21435000.211 8  21435006.387 8  21435006.449 8  21435006.297 9     -2374.281 8     -1845.558 8     -1845.558 8     -1768.659 9 112641584.686 8  87772789.728 8  87772790.731 8  84115596.061 9        48.900          53.200          49.600          54.100
G32  23202326.516 7  23202332.410 6  23202333.016 7  23202332.449 7      1886.816 7      1475.325 6      1475.325 7      1413.853 7 121929058.904 7  95009667.381 6  95009672.378 7  91050936.374 7        45.300          41.800          43.000          46.800
> 2022 01 01 00 52 00.0000000  0 11
G01  21920940.570 7  21920947.992 5  21920947.840 7  21920946.641 8      2455.645 7      1916.489 5      1916.490 7      1836.635 8 115195320.475 7  89762633.254 5  89762629.258 7  86022527.775 8        44.400          34.900          46.200          51.500
G03  24816770.445 5  24816778.156 2  24816778.445 6  24816780.191 7      3838.098 5      2992.112 2      2992.115 6      2867.441 7 130413047.279 5 101620564.679 2 101620558.600 6  97386373.456 7        34.000          16.900          37.300          43.100
G08  20321026.227 8  20321032.516 9  20321033.234 8  20321032.344 9      -371.793 8      -283.538 9      -283.538 8      -271.723 9 106787705.445 8  83211259.049 9  83211261.045 8  79744126.470 9        51.200          56.200          51.800          56.800
G10  22613615.531 7  22613622.289 7  22613621.922 7  22613620.965 8     -2631.969 7     -2046.821 7     -2046.822 7     -1961.538 8 118835374.377 7  92599031.636 7  92599022.663 7  88740735.071 8        47.000          46.000          45.400          50.200
G14  24477026.063 5  24477031.492 3  24477031.449 7  24477035.137 7      2598.836 5      2030.066 3      2030.201 7      1945.609 7 128627520.93015 100229332.64713 100229349.642 7  96053130.285 7        35.900          22.600          42.300          46.600
G16  25117585.391 5  25117589.395 2                                     -3767.422 5     -2936.122 2                                 131993768.159 5 102852335.594 2                                        33.500          14.800
G21  21075561.883 7  21075565.797 7                                       689.063 7       539.882 7                                 110752926.617 7  86300940.038 7                                        47.800          42.100
G22  22536231.242 6  22536233.113 4                                      3064.719 6      2392.025 4                                 118428690.889 6  92282117.036 4                                        41.400          28.500
G23  25389689.969 6  25389694.430 2  25389693.859 6  25389697.918 6     -3594.695 6     -2800.296 2     -2800.295 6     -2683.615 6 133423727.190 6 103966565.409 2 103966582.395 6  99634659.356 6        36.200          17.400          37.100          41.100
G27  21448588.906 8  21448595.316 8  21448595.215 8  21448595.172 9     -2386.395 8     -1854.809 8     -1854.809 8     -1777.526 9 112712994.853 8  87828434.008 8  87828435.004 8  84168921.824 9        48.900          53.200          49.500          54.400
G32  23191593.359 7  23191600.016 7  23191600.398 7  23191599.785 7      1873.195 7      1464.963 7      1464.963 7      1403.922 7 121872657.813 7  94965718.495 7  94965723.503 7  91008818.706 7        44.600          42.300          42.900          47.200
> 2022 01 01 00 52 30.0000000  0 11
G01  21906942.109 7  21906950.172 5  21906949.988 7  21906948.820 8      2448.113 7      1910.638 5      1910.638 7      1831.028 8 115121760.872 7  89705314.113 5  89705310.114 7  85967596.923 8        43.900          34.300          46.300          52.000
G03  24794864.703 5  24794872.043 3  24794873.207 6  24794874.168 7      3835.883 5      2990.027 3      2990.022 6      2865.440 7 130297931.255 5 101530863.874 3 101530857.937 6  97300410.248 7        34.100          18.600          38.100          42.300
G08  20323193.102 8  20323199.207 9  20323199.781 8  20323198.898 9      -387.395 8      -295.723 9      -295.723 8      -283.401 9 106799090.767 8  83220130.726 9  83220132.720 8  79752628.496 9        51.300          55.400          52.000          57.300
G10  22628670.680 7  22628676.453 7  22628676.227 7  22628675.242 8     -2642.227 7     -2054.822 7     -2054.821 7     -1969.203 8 118914485.010 7  92660676.284 7  92660667.277 7  88799811.158 8        47.600          46.300          45.000          50.100
G14  24462226.570 6  24462231.777 3  24462231.707 7  24462235.723 7      2585.875 6      2020.060 3      2020.060 7      1935.891 7 128549748.585 6 100168730.833 3 100168747.850 7  95995053.565 7        36.900          22.000          42.300          46.500
G16  25139087.391 5  25139092.648 2                                     -3765.953 5     -2935.047 2                                 132106767.540 5 102940387.012 2                                        32.500          14.800
G21  21071649.141 7  21071652.152 7                                       681.797 7       534.147 7                                 110732361.954 7  86284915.629 7                                        47.900          42.100
G22  22518762.945 6  22518765.273 5                                      3054.891 6      2384.289 5                                 118336895.779 6  92210588.364 5                                        41.600          30.100
G23  25410214.992 5  25410219.754 2  25410219.570 6  25410222.500 6     -3596.371 5     -2801.582 2     -2801.583 6     -2684.851 6 133531588.118 5 104050612.878 2 104050629.870 6  99715204.892 6        35.800          15.600          36.900          40.400
G27  21462245.469 8  21462251.879 8  21462251.867 8  21462251.797 9     -2398.164 8     -1864.048 8     -1864.048 8     -1786.379 9 112784760.725 8  87884355.454 8  87884356.449 8  84222513.200 9        49.400          53.100          49.000          54.100
G32  23180937.133 7  23180943.836 6  23180944.051 7  23180943.156 7      1859.871 7      1454.522 6      1454.523 7      1393.918 7 121816658.659 7  94922082.820 6  94922087.812 7  90967001.176 7        44.700          41.600          43.100          47.200
> 2022 01 01 00 53 00.0000000  0 11
G01  21892987.344 7  21892994.941 5  21892994.352 7  21892993.863 8      2440.668 7      1904.788 5      1904.788 7      1825.422 8 115048426.485 7  89648170.460 5  89648166.471 7  85912834.272 8        43.700          34.200          46.500          51.700
G03  24772974.039 5  24772982.711 3  24772982.703 6  24772984.270 7      3833.148 5      2987.895 3      2987.898 6      2863.402 7 130182897.206 5 101441227.023 3 101441220.983 6  97214508.184 7        33.800          18.300          39.400          43.200
G08  20325448.469 8  20325454.805 9  20325455.453 8  20325454.621 9      -402.984 8      -307.883 9      -307.883 8      -295.054 9 106810944.257 8  83229367.203 9  83229369.205 8  79761480.124 9        51.900          55.400          52.100          57.100
G10  22643782.500 7  22643788.879 7  22643788.813 7  22643787.273 8     -2652.285 7     -2062.744 7     -2062.745 7     -1976.797 8 118993900.679 7  92722558.615 7  92722549.622 7  88859115.069 8        46.600          45.900          45.100          50.100
G14  24447502.109 6  24447506.551 3  24447506.641 6  24447510.656 7      2572.762 6      2009.870 3      2009.871 6      1926.125 7 128472368.574 6 100108434.733 3 100108451.733 6  95937269.811 7        37.000          22.900          41.800          47.100
G16  25160582.008 5  25160587.707 2                                     -3764.445 5     -2933.904 2                                 132219722.826 5 103028404.129 2                                        34.200          15.600
G21  21067777.688 8  21067780.742 6                                       674.473 8       528.435 6                                 110712017.229 8  86269062.594 6                                        48.400          41.700
G22  22501352.133 6  22501353.992 5                                      3044.906 6      2376.526 5                                 118245399.520 6  92139292.590 5                                        41.700          30.900
G23  25430749.422 5  25430753.313 2  25430753.426 6  25430756.957 6     -3597.633 5     -2802.799 2     -2802.800 6     -2686.017 6 133639495.852 5 104134696.838 2 104134713.868 6  99795785.414 6        35.900          14.800          37.600          40.700
G27  21475969.500 8  21475975.879 8  21475975.949 8  21475975.934 9     -2409.902 8     -1873.246 8     -1873.246 8     -1795.194 9 112856880.731 8  87940552.842 8  87940553.838 8  84276369.026 9        48.500          53.000          49.400          54.300
G32  23170357.891 7  23170364.109 7  23170364.883 7  23170363.930 7      1846.430 7      1444.034 7      1444.034 7      1383.866 7 121761063.366 7  94878761.809 7  94878766.801 7  90925485.200 7        46.000          42.400          43.000          47.100
> 2022 01 01 00 53 30.0000000  0 11
G01  21879075.094 7  21879082.617 5  21879082.465 7  21879081.715 8      2433.082 7      1898.927 5      1898.927 7      1819.805 8 114975317.797 7  89591202.664 5  89591198.673 7  85858240.135 8        44.500          34.300          46.200          52.000
G03  24751101.414 5  24751108.078 2  24751108.859 6  24751109.715 7      3830.066 5      2985.719 2      2985.718 6      2861.313 7 130067946.934 5 101351655.441 2 101351649.436 6  97128668.781 7        34.100          16.900          38.100          44.300
G08  20327793.492 8  20327799.859 9  20327800.484 8  20327799.535 9      -418.574 8      -320.072 9      -320.072 8      -306.736 9 106823267.034 8  83238969.361 9  83238971.356 8  79770682.192 9        51.600          55.300          52.300          56.800
G10  22658952.297 7  22658958.625 7  22658958.594 7  22658957.234 8     -2662.332 7     -2070.606 7     -2070.606 7     -1984.331 8 119073619.004 7  92784676.797 7  92784667.792 7  88918644.996 8        45.800          45.900          45.100          50.000
G14  24432852.313 6  24432856.988 4  24432857.043 6  24432860.891 7      2559.590 6      1999.622 4      1999.621 6      1916.304 7 128395383.113 6 100048446.065 4 100048463.099 6  95879780.683 7        38.500          24.300          41.600          46.900
G16  25182068.898 5  25182073.340 2                                     -3763.023 5     -2932.680 2                                 132332631.065 5 103116384.528 2                                        34.300          14.800
G21  21063947.766 8  21063951.133 6                                       667.137 8       522.740 6                                 110691891.735 8  86253380.394 6                                        48.700          41.600
G22  22483997.555 6  22483999.754 5                                      3034.820 6      2368.730 5                                 118154203.405 6  92068230.695 5                                        41.700          31.300
G23  25451292.086 5  25451296.246 2  25451296.273 6  25451299.980 6     -3598.961 5     -2803.968 2     -2803.968 6     -2687.135 6 133747448.573 5 104218815.865 2 104218832.905 6  99876399.468 6        33.200          17.400          37.300          41.400
G27  21489760.930 8  21489767.133 8  21489767.473 8  21489766.867 8     -2421.578 8     -1882.418 8     -1882.418 8     -1803.984 8 112929353.827 8  87997025.373 8  87997026.383 8  84330488.551 8        49.700          52.900          49.300          53.900
G32  23159855.523 7  23159861.977 6  23159862.414 7  23159861.996 7      1832.887 7      1433.482 6      1433.482 7      1373.754 7 121705874.287 7  94835757.341 6  94835762.337 7  90884272.588 7        45.000          41.900          43.200          47.200
