     3.05           OBSERVATION DATA    M (MIXED)           RINEX VERSION / TYPE
cnvtToRINEX 3.14.0  REGINA              20220102 000620 UTC PGM / RUN BY / DATE 
gfzrnx-2.1.7        FILE PROCESSING     20240710 181312 UTC COMMENT             
INITIAL_RINEX_VERSION: 3.04                                 COMMENT             
TLSE                                                        MARKER NAME         
10003M009                                                   MARKER NUMBER       
Automatic           CNES                                    OBSERVER / AGENCY   
5048K71845          TRIMBLE NETR9       5.45                REC # / TYPE / VERS 
5129354206          TRM59800.00     NONE                    ANT # / TYPE        
        1.0530        0.0000        0.0000                  ANTENNA: DELTA H/E/N
  4627853.3468   119640.2373  4372995.2492                  APPROX POSITION XYZ 
C   12 C2I C6I C7I D2I D6I D7I L2I L6I L7I S2I S6I S7I      SYS / # / OBS TYPES 
E   16 C1X C5X C7X C8X D1X D5X D7X D8X L1X L5X L7X L8X S1X  SYS / # / OBS TYPES 
       S5X S7X S8X                                          SYS / # / OBS TYPES 
G   16 C1C C2W C2X C5X D1C D2W D2X D5X L1C L2W L2X L5X S1C  SYS / # / OBS TYPES 
       S2W S2X S5X                                          SYS / # / OBS TYPES 
R   16 C1C C1P C2C C2P D1C D1P D2C D2P L1C L1P L2C L2P S1C  SYS / # / OBS TYPES 
       S1P S2C S2P                                          SYS / # / OBS TYPES 
S    8 C1C C5I D1C D5I L1C L5I S1C S5I                      SYS / # / OBS TYPES 
----------------------------------------------------------- COMMENT             
GEODETIC                                                    MARKER TYPE         
     0                                                      RCV CLOCK OFFS APPL 
 23 R01  1 R02 -4 R03  5 R04  6 R05  1 R06 -4 R07  5 R08  6 GLONASS SLOT / FRQ #
    R09 -2 R10 -7 R11  0 R12 -1 R13 -2 R14 -7 R15  0 R17  4 GLONASS SLOT / FRQ #
    R18 -3 R19  3 R20  2 R21  4 R22 -3 R23  3 R24  2        GLONASS SLOT / FRQ #
G L2X -0.25000                                              SYS / PHASE SHIFT   
R L1P  0.25000                                              SYS / PHASE SHIFT   
R L2C -0.25000                                              SYS / PHASE SHIFT   
R L2P  0.00000                                              SYS / PHASE SHIFT   
    18                                                      LEAP SECONDS        
DBHZ                                                        SIGNAL STRENGTH UNIT
 C1C    0.000 C1P    0.000 C2C    0.000 C2P    0.000        GLONASS COD/PHS/BIS 
C                                                           SYS / PHASE SHIFT   
E                                                           SYS / PHASE SHIFT   
S                                                           SYS / PHASE SHIFT   
GFZRNX.NUM_EPOCHS: 29                                       COMMENT
    39                                                      # OF SATELLITES     
   C05    29    29    29    29    28    28    29    29    29PRN / # OF OBS      
          29    29    29                                    PRN / # OF OBS      
   C06    29    29    29    29    28    28    29    29    29PRN / # OF OBS      
          29    29    29                                    PRN / # OF OBS      
   C16    29    29    29    29    28    28    29    29    29PRN / # OF OBS      
          29    29    29                                    PRN / # OF OBS      
   C20    29    29          29    28          29    29      PRN / # OF OBS      
          29    29                                          PRN / # OF OBS      
   C26    22    22          22    21          22    22      PRN / # OF OBS      
          22    22                                          PRN / # OF OBS      
   C27    29    29          29    28          29    29      PRN / # OF OBS      
          29    29                                          PRN / # OF OBS      
   C29    29    29          29    28          29    29      PRN / # OF OBS      
          29    29                                          PRN / # OF OBS      
   C30    29    29          29    28          29    29      PRN / # OF OBS      
          29    29                                          PRN / # OF OBS      
   E01    29    29    29    29    29    28    28    28    29PRN / # OF OBS      
          29    29    29    29    29    29    29            PRN / # OF OBS      
   E07    29    29    29    29    29    28    28    28    29PRN / # OF OBS      
          29    29    29    29    29    29    29            PRN / # OF OBS      
   E08    29    29    29    29    29    28    28    28    29PRN / # OF OBS      
          29    29    29    29    29    29    29            PRN / # OF OBS      
   E13    29    29    29    29    29    28    28    28    29PRN / # OF OBS      
          29    29    29    29    29    29    29            PRN / # OF OBS      
   E21    29    29    29    29    29    28    28    28    29PRN / # OF OBS      
          29    29    29    29    29    29    29            PRN / # OF OBS      
   E24    29    29    29    29    29    28    28    28    29PRN / # OF OBS      
          29    29    29    29    29    29    29            PRN / # OF OBS      
   E26    29    29    29    29    29    28    28    28    29PRN / # OF OBS      
          29    29    29    29    29    29    29            PRN / # OF OBS      
   E31    29    29    29    29    29    28    28    28    29PRN / # OF OBS      
          29    29    29    29    29    29    29            PRN / # OF OBS      
   E33    29    29    29    29    29    28    28    28    29PRN / # OF OBS      
          29    29    29    29    29    29    29            PRN / # OF OBS      
   G01    29    29    29    29    29    28    28    28    29PRN / # OF OBS      
          29    29    29    29    29    29    29            PRN / # OF OBS      
   G07    26    14    22          26    13    21          26PRN / # OF OBS      
          14    22          26    14    22                  PRN / # OF OBS      
   G08    29    29    29    29    29    28    28    28    29PRN / # OF OBS      
          29    29    29    29    29    29    29            PRN / # OF OBS      
   G10    29    29    29    29    29    28    28    28    29PRN / # OF OBS      
          29    29    29    29    29    29    29            PRN / # OF OBS      
   G16    29    29                29    28                29PRN / # OF OBS      
          29                29    29                        PRN / # OF OBS      
   G21    29    29                29    28                29PRN / # OF OBS      
          29                29    29                        PRN / # OF OBS      
   G22    29    29                29    18                23PRN / # OF OBS      
          23                29    29                        PRN / # OF OBS      
   G23    29    29    29    29    29    28    28    28    29PRN / # OF OBS      
          29    29    29    29    29    29    29            PRN / # OF OBS      
   G26     9     9     9     9     9     8     8     8     9PRN / # OF OBS      
           9     9     9     9     9     9     9            PRN / # OF OBS      
   G27    29    29    29    29    29    28    28    28    29PRN / # OF OBS      
          29    29    29    29    29    29    29            PRN / # OF OBS      
   G30    25    11    25    25    25    10    23    23    22PRN / # OF OBS      
          11    25    25    25    11    25    25            PRN / # OF OBS      
   G32    29    29    29    29    29    28    28    28    29PRN / # OF OBS      
          29    29    29    29    29    29    29            PRN / # OF OBS      
   R01    29    29    29    29    29    28    28    28    29PRN / # OF OBS      
          29    29    29    29    29    29    29            PRN / # OF OBS      
   R02    13    13    13    13    13    12    12    12    13PRN / # OF OBS      
          13    13    13    13    13    13    13            PRN / # OF OBS      
   R07    29    29    29    29    29    28    28    28    29PRN / # OF OBS      
          29    29    29    29    29    29    29            PRN / # OF OBS      
   R08    29    29    29    29    29    28    28    28    29PRN / # OF OBS      
          29    29    29    29    29    29    29            PRN / # OF OBS      
   R14    29    29    29    29    29    28    28    28    29PRN / # OF OBS      
          29    29    29    29    29    29    29            PRN / # OF OBS      
   R15    29    29    29    29    29    28    28    28    29PRN / # OF OBS      
          29    29    29    29    29    29    29            PRN / # OF OBS      
   R17    29    29    29    29    29    28    28    28    29PRN / # OF OBS      
          29    29    29    29    29    29    29            PRN / # OF OBS      
   R23    29    29                29    28                29PRN / # OF OBS      
          29                29    29                        PRN / # OF OBS      
   R24    29    29    29    29    29    28    28    28    29PRN / # OF OBS      
          29    29    29    29    29    29    29            PRN / # OF OBS      
   S36    29    29    29    28    29    29    29    29      PRN / # OF OBS      
    30.000                                                  INTERVAL            
  2022     1     1     0     0    0.0000000     GPS         TIME OF FIRST OBS   
  2022     1     1     0    14    0.0000000     GPS         TIME OF LAST OBS    
                                                            END OF HEADER      
> 2022 01 01 00 00 00.0000000  0 37
C05  39857654.125 5  39857643.496 6  39857648.457 6         1.488 5                                 207549301.853 5 168650734.612 6 160490230.569 6        35.000          37.300          38.400
C06  41062460.477 5  41062449.172 5  41062456.027 5      1780.016 5                                 213822999.773 5 173748661.196 5 165341499.267 5        32.200          34.100          35.200
C16  41227226.938 5  41227216.953 5  41227226.957 5      1611.266 5                                 214680985.944 5 174445848.541 5 166004956.441 5        35.400          32.400          34.700
C20  25465285.391 7  25465268.879 7                      3421.609 7                                 132604425.607 7 107751952.445 7                        42.700          42.000
C27  23897597.844 7  23897589.371 7                     -2226.031 7                                 124441100.643 7 101118566.381 7                        46.000          46.200
C29  23728095.750 7  23728085.707 7                      2278.520 7                                 123558441.057 7 100401327.361 7                        46.400          46.400
C30  21536078.773 8  21536071.387 8                       -31.645 8                                 112144044.956 8  91126255.621 8                        52.100          52.300
E01  25026444.320 8  25026448.969 8  25026446.434 8  25026447.984 8     -2164.398 8                                                 131514856.010 8  98209165.579 8 100771133.091 8  99490149.445 8        48.000          50.900          50.300          53.800
E07  26672277.336 7  26672282.742 7  26672280.641 7  26672281.879 8      2166.523 7                                                 140163762.223 7 104667771.403 7 107398224.279 7 106032995.944 8        43.100          45.100          44.900          48.600
E08  25169175.008 6  25169177.270 7  25169175.344 7  25169176.816 7         4.352 6                                                 132264916.627 6  98769272.289 7 101345855.071 7 100057562.783 7        41.900          43.000          43.700          46.400
E13  26529543.281 7  26529547.957 7  26529545.258 7  26529546.559 7     -2168.102 7                                                 139413721.795 7 104107678.028 7 106823524.979 7 105465598.609 7        42.100          44.800          44.000          47.700
E21  27881659.422 6  27881663.992 6  27881662.254 6  27881663.164 7     -3224.234 6                                                 146519141.361 6 109413680.732 6 112267945.976 6 110840814.962 7        39.900          40.900          40.200          43.700
E24  28867382.453 5  28867385.285 6  28867383.473 6  28867384.004 7      2543.723 5                                                 151699118.423 5 113281815.546 6 116236989.850 6 114759403.304 7        35.300          38.800          38.600          42.400
E26  23705108.586 8  23705111.223 9  23705108.762 9  23705110.184 9      -533.148 8                                                 124571220.153 8  93023991.968 9  95450695.051 9  94237344.617 9        51.300          54.100          54.000          56.700
E31  25435777.789 7  25435782.547 8  25435780.500 8  25435781.832 8       669.035 7                                                 133665909.281 7  99815470.277 8 102419341.645 8 101117407.077 8        46.600          48.900          49.100          52.300
E33  24857691.586 7  24857694.359 8  24857692.379 8  24857693.715 9      1451.344 7                                                 130628068.644 7  97546954.796 8 100091648.795 8  98819300.906 9        47.500          50.700          51.000          54.000
G01  23590139.203 6  23590148.227 3  23590147.465 6  23590146.297 7      3130.391 6                                                 123967008.572 6  96597711.760 3  96597707.774 6  92572810.567 7        38.600          22.000          40.900          45.400
G07  24998288.344 5                                                     -1562.125 5                                                 131366939.256 5                                                        34.900
G08  20554787.664 8  20554794.242 9  20554794.563 8  20554793.664 9      1097.641 8                                                 108016131.411 8  84168474.544 9  84168476.540 8  80661457.909 9        50.900          55.500          51.500          56.000
G10  21447903.727 8  21447910.074 9  21447909.977 8  21447908.996 9     -1169.531 8                                                 112709516.062 8  87825635.635 9  87825626.640 8  84166230.660 9        52.000          54.200          48.400          54.300
G16  22928686.734 7  22928690.602 5                                     -3449.199 7                                                 120491027.665 7  93889161.741 5                                        44.600          30.900
G21  21723481.234 8  21723484.727 6                                      1513.633 8                                                 114157760.066 8  88954056.191 6                                        48.000          36.600
G22  24595231.414 5  24595235.094 2                                      3751.094 5                                                 129248813.087 5 100713380.154 2                                        33.000          16.900
G23  23387486.727 6  23387490.699 4  23387491.023 7  23387493.402 7     -3003.113 6                                                 122902079.825 6  95767879.758 4  95767896.754 7  91777585.771 7        41.700          28.100          42.800          46.700
G26  25671033.578 6  25671040.719 4  25671040.234 5  25671039.859 6     -3646.793 6                                                 134902216.169 6 105118618.897 4 105118647.893 5 100738710.412 6        37.600          28.400          34.900          40.900
G27  20423421.984 8  20423428.113 9  20423428.262 8  20423428.043 9     -1038.910 8                                                 107325711.245 8  83630551.834 9  83630552.836 8  80145951.619 9        52.300          55.500          51.600          56.600
G30  25465085.734 4                  25465093.996 5  25465094.793 6      -628.926 4                                                 133820056.26314                 104275294.634 5  99930482.351 6        27.600                          32.500          37.300
G32  24620223.180 6  24620230.148 5  24620230.484 6  24620230.188 7      2766.563 6                                                 129380156.743 6 100815717.002 5 100815721.989 6  96615067.098 7        37.600          31.900          38.400          42.600
R01  21137439.484 7  21137438.125 7  21137443.746 6  21137444.273 6      3173.352 7                                                 112991777.685 7 112991790.695 7  87882479.102 6  87882479.112 6        43.900          43.600          40.600          39.700
R07  23554190.969 6  23554190.770 6  23554193.188 6  23554193.059 6     -3253.848 6                                                 126087473.005 6 126087408.019 6  98068018.088 6  98068022.088 6        41.300          40.800          37.900          37.100
R08  20998272.102 7  20998271.301 7  20998274.465 7  20998274.277 7      -230.910 7                                                 112444792.031 7 112444794.035 7  87457069.735 7  87457086.742 7        46.000          44.500          46.300          46.300
R14  21340214.664 8  21340214.328 7  21340218.914 7  21340219.066 7     -2504.035 8                                                 113755317.179 8 113755333.179 7  88476389.581 7  88476388.580 7        48.600          47.400          44.800          44.400
R15  21953892.969 7  21953892.148 7  21953896.156 7  21953895.688 7      1194.035 7                                                 117314943.309 7 117314980.307 7  91244952.919 7  91244961.926 7        46.700          45.500          42.600          42.500
R17  22597543.336 7  22597540.676 6  22597544.727 6  22597545.059 6      2843.605 7                                                 120924033.844 7 120924027.854 6  94052042.509 6  94052045.517 6        42.000          41.200          39.400          38.600
R23  20647178.094 8  20647177.258 7                                     -1740.789 8                                                 110448509.661 8 110448588.683 7                                        48.200          46.800
R24  19824341.367 8  19824341.277 8  19824344.758 8  19824344.637 7       703.086 8                                                 106009637.837 8 106009797.865 8  82451973.854 8  82452007.859 7        52.200          50.500          48.500          47.800
S36  37802786.000 7  37802778.359 7        -2.012 7                 198656485.550 7 148347113.354 7        44.900          46.400
> 2022 01 01 00 00 30.0000000  0 37
C05  39857646.250 5  39857636.180 6  39857641.203 6         1.137 5         1.057 6         1.006 6 207549262.830 5 168650702.898 6 160490200.382 6        35.800          37.300          37.900
C06  41052215.156 5  41052202.426 5  41052209.891 5      1776.875 5      1445.250 5      1375.319 5 213769642.024 5 173705303.685 5 165300239.697 5        32.000          34.600          35.700
C16  41217956.414 5  41217945.188 5  41217956.430 6      1607.074 5      1307.561 5      1244.291 6 214632711.617 5 174406621.700 5 165967627.727 6        35.200          31.200          36.400
C20  25445580.086 7  25445563.395 6                      3419.102 7      2779.341 6                 132501814.145 7 107668572.218 6                        43.800          41.900
C27  23910436.242 7  23910427.391 7                     -2230.820 7     -1810.756 7                 124507952.620 7 101172889.062 7                        46.100          45.500
C29  23714977.977 7  23714967.641 7                      2275.289 7      1850.196 7                 123490133.021 7 100345821.483 7                        45.800          46.300
C30  21536284.852 8  21536277.559 8                       -39.969 8       -29.061 8                 112145117.878 8  91127127.456 8                        52.000          52.000
E01  25038830.438 8  25038834.816 8  25038832.660 8  25038833.969 8     -2174.875 8     -1620.174 8     -1662.439 8     -1641.307 8 131579944.736 8  98257770.789 8 100821006.275 8  99539388.641 8        48.200          50.800          50.600          53.500
E07  26659932.227 7  26659937.238 7  26659934.934 7  26659936.813 8      2158.371 7      1614.824 7      1656.950 7      1635.887 8 140098888.414 7 104619326.683 7 107348515.783 7 105983919.338 8        42.700          45.400          44.700          48.700
E08  25169191.859 7  25169194.195 7  25169192.254 7  25169193.238 7       -10.129 7        -2.143 7        -2.199 7        -2.171 7 132265002.733 7  98769336.575 7 101345921.046 7 100057627.919 7        43.100          43.400          43.200          47.100
E13  26541922.883 7  26541928.012 7  26541924.141 7  26541926.379 7     -2168.926 7     -1619.359 7     -1661.604 7     -1640.482 7 139478777.856 7 104156258.808 7 106873373.100 7 105514813.065 7        42.200          45.000          43.700          47.700
E21  27900065.273 6  27900070.121 6  27900068.035 6  27900069.047 7     -3224.133 6     -2407.621 6     -2470.428 6     -2439.024 7 146615864.887 6 109485909.352 6 112342058.814 6 110913985.687 7        39.300          41.200          40.500          44.200
E24  28852881.578 5  28852884.031 6  28852882.207 6  28852883.266 6      2536.363 5      1896.819 6      1946.301 6      1921.560 6 151622915.827 5 113224910.971 6 116178600.835 6 114701756.498 6        35.300          38.300          38.200          41.800
E26  23708166.883 8  23708169.527 8  23708167.238 9  23708168.609 9      -538.344 8      -400.064 8      -410.501 9      -405.282 9 124587292.299 8  93035993.890 8  95463010.069 9  94249503.083 9        51.700          53.900          54.000          56.800
E31  25431999.211 7  25432004.211 8  25432002.289 8  25432003.547 8       654.590 7       494.223 8       507.116 8       500.670 8 133646054.375 7  99800643.574 8 102404128.152 8 101102386.968 8        47.400          49.000          49.300          52.400
E33  24849419.258 7  24849422.180 8  24849420.301 8  24849421.484 9      1446.645 7      1082.065 8      1110.293 8      1096.179 9 130584597.848 7  97514492.834 8 100058340.008 8  98786415.527 9        47.400          50.900          51.000          54.000
G01  23572284.180 6  23572292.625 3  23572292.461 6  23572291.352 7      3124.840 6      2437.138 3      2437.138 6      2335.590 7 123873178.745 6  96524597.623 3  96524593.629 6  92502742.868 7        38.100          22.600          40.800          45.600
G07  25007238.320 5                                                     -1573.164 5                                                 131413968.536 5                                                        33.900
G08  20548556.000 8  20548562.344 9  20548563.066 8  20548561.617 9      1085.387 8       850.596 9       850.596 8       815.154 9 107983383.471 8  84142956.668 9  84142958.662 8  80637003.283 9        50.100          55.400          51.400          55.700
G10  21454630.367 8  21454636.926 9  21454636.621 8  21454635.762 9     -1187.051 8      -918.162 9      -918.162 8      -879.906 9 112744865.306 8  87853180.497 9  87853171.501 8  84192627.826 9        51.000          54.100          48.700          54.100
G16  22948399.656 7  22948403.363 5                                     -3456.898 7     -2690.689 5                                 120594619.193 7  93969882.410 5                                        44.500          31.800
G21  21714864.398 7  21714867.898 6                                      1505.078 7      1176.163 6                                 114112477.744 7  88918771.288 6                                        47.400          36.700
G22  24573827.445 5  24573830.758 2                                      3747.766 5                                                 129136330.63815 100625731.51412                                        31.500          17.400
G23  23404659.016 6  23404663.125 4  23404663.359 6  23404667.801 7     -3013.195 6     -2344.034 4     -2344.034 6     -2246.366 7 122992325.139 6  95838200.777 4  95838217.765 6  91844976.758 7        39.800          26.200          41.800          47.200
G26  25691843.195 5  25691850.504 4  25691849.934 5  25691849.285 6     -3643.777 5     -2840.404 4     -2840.405 5     -2722.055 6 135011571.759 5 105203831.028 4 105203860.051 5 100820372.056 6        35.900          25.200          33.800          39.400
G27  20429391.484 8  20429397.609 9  20429397.734 8  20429397.480 9     -1052.492 8      -814.790 9      -814.790 8      -780.841 9 107357080.667 8  83654995.539 9  83654996.534 8  80169376.835 9        51.600          55.000          51.900          56.700
G30  25468721.148 4                  25468728.430 5  25468728.348 5      -644.555 4                      -496.100 5      -475.428 5 133839156.15414                 104290177.625 5  99944745.184 5        29.600                          30.500          35.300
G32  24604440.688 6  24604446.145 5  24604446.773 6  24604446.023 7      2762.961 6      2154.394 5      2154.393 6      2064.627 7 129297212.575 6 100751085.195 5 100751090.192 6  96553128.300 7        40.300          34.000          37.900          42.600
R01  21119678.969 7  21119678.355 7  21119683.801 6  21119684.301 6      3155.520 7      3164.505 7      2461.281 6      2461.281 6 112896842.521 7 112896855.544 7  87808640.662 6  87808640.666 6        44.600          43.600          40.500          40.000
R07  23572470.820 6  23572469.637 6  23572474.918 6  23572475.141 6     -3270.133 6     -3261.914 6     -2537.045 6     -2537.045 6 126185330.439 6 126185265.441 6  98144129.451 6  98144133.451 6        39.300          38.000          40.100          38.900
R08  20999641.211 7  20999640.777 7  20999643.879 7  20999643.984 7      -258.270 7      -244.473 7      -190.146 7      -190.146 7 112452126.218 7 112452128.230 7  87462774.112 7  87462791.112 7        46.000          44.700          46.500          45.700
R14  21354364.977 8  21354363.754 7  21354368.887 7  21354368.793 7     -2524.469 8     -2514.193 7     -1955.483 7     -1955.483 7 113830742.983 8 113830758.977 7  88535054.069 7  88535053.068 7        48.500          47.000          44.500          44.700
R15  21947261.750 7  21947261.438 7  21947263.902 7  21947264.574 7      1168.246 7      1181.174 7       918.690 7       918.691 7 117279508.097 7 117279545.089 7  91217392.205 7  91217401.209 7        47.100          45.200          42.800          43.000
R17  22581607.109 7  22581606.250 6  22581610.629 6  22581609.512 6      2841.242 7      2842.438 6      2210.784 6      2210.784 6 120838760.718 7 120838754.730 6  93985718.999 6  93985721.982 6        42.600          41.300          39.900          39.300
R23  20656963.320 8  20656962.023 7                                     -1748.641 8     -1744.672 7                                 110500849.844 8 110500928.845 7                                        48.400          46.800
R24  19820423.578 8  19820423.715 8  19820426.516 8  19820427.027 7       693.480 8       698.324 8       543.141 8       543.141 7 105988688.101 8 105988848.133 8  82435679.622 8  82435713.620 7        52.500          50.300          48.900          47.800
S36  37802796.375 7  37802788.320 7        -1.723 7        -1.313 7 198656540.993 7 148347152.740 7        45.000          46.300
> 2022 01 01 00 01 00.0000000  0 37
C05  39857639.766 5  39857628.941 6  39857634.285 6         1.316 5          .979 6          .932 6 207549226.674 5 168650673.514 6 160490172.424 6        35.700          37.300          37.100
C06  41041986.070 5  41041973.566 5  41041980.254 5      1773.805 5      1445.250 5      1375.319 5 213716378.36415 173662022.61115 165259052.87515        33.800          34.100          34.800
C16  41208708.414 6  41208697.496 5  41208708.172 5      1603.258 6      1304.415 5      1241.297 5 214584553.479 6 174367489.259 5 165930388.825 5        36.000          32.300          35.100
C20  25425888.188 7  25425871.211 6                      3416.672 7      2777.431 6                 132399273.189 7 107585249.279 6                        44.100          41.400
C27  23923300.813 7  23923291.641 7                     -2235.238 7     -1814.469 7                 124574941.663 7 101227323.125 7                        46.700          45.700
C29  23701877.594 7  23701867.328 7                      2272.336 7      1847.723 7                 123421916.271 7 100290389.787 7                        46.100          46.700
C30  21536537.750 8  21536530.582 8                       -48.051 8       -35.695 8                 112146435.709 8  91128198.296 8                        52.000          52.400
E01  25051275.648 7  25051279.945 8  25051278.285 8  25051279.203 8     -2185.254 7     -1627.926 8     -1670.393 8     -1649.159 8 131645344.902 7  98306608.563 8 100871118.075 8  99588863.425 8        47.900          50.400          51.200          53.800
E07  26647632.953 7  26647639.113 7  26647636.051 7  26647637.570 8      2150.367 7      1608.824 7      1650.792 7      1629.808 8 140034255.684 7 104571061.974 7 107298992.011 7 105935025.105 8        43.600          46.200          45.200          49.600
E08  25169289.070 7  25169292.035 7  25169288.918 7  25169290.973 7       -24.395 7       -12.784 7       -13.117 7       -12.951 7 132265516.264 7  98769720.100 7 101346314.565 7 100058016.435 7        42.700          43.600          43.600          46.800
E13  26554306.078 6  26554311.141 7  26554308.793 7  26554309.703 8     -2169.473 6     -1619.807 7     -1662.063 7     -1640.935 8 139543851.881 6 104204853.008 7 106923234.991 7 105564041.115 8        41.900          44.900          44.500          48.300
E21  27918469.109 6  27918474.465 6  27918472.500 6  27918473.266 7     -3223.613 6     -2407.397 6     -2470.199 6     -2438.799 7 146712579.469 6 109558131.273 6 112416164.798 6 110987149.650 7        39.200          41.000          40.400          44.800
E24  28838421.156 5  28838424.555 6  28838421.758 6  28838422.887 6      2529.586 5      1891.531 6      1940.875 6      1916.202 6 151546925.675 5 113168165.056 6 116120374.581 6 114644270.428 6        35.800          38.700          37.800          41.600
E26  23711254.445 8  23711257.160 8  23711254.988 8  23711256.145 9      -543.426 8      -403.870 8      -414.405 8      -409.138 9 124603517.334 8  93048109.983 8  95475442.230 8  94261777.208 9        51.700          53.600          53.900          56.800
E31  25428302.945 7  25428307.953 8  25428306.035 8  25428307.262 8       640.227 7       483.503 8       496.116 8       489.810 8 133626630.183 7  99786138.483 8 102389244.659 8 101087692.678 8        47.000          49.100          49.100          52.600
E33  24841173.133 7  24841176.090 8  24841174.234 8  24841175.148 8      1442.117 7      1078.679 8      1106.818 8      1092.748 8 130541263.092 7  97482132.478 8 100025135.469 8  98753633.075 8        47.700          50.400          50.800          53.900
G01  23554459.727 6  23554467.555 3  23554468.137 6  23554467.180 7      3119.570 6      2432.951 3      2432.951 6      2331.579 7 123779510.137 6  96451609.106 3  96451605.100 6  92432795.502 7        38.000          23.000          39.900          46.200
G07  25016249.422 5                                                     -1584.289 5                                                 131461326.871 5                                                        32.000
G08  20542393.609 8  20542400.008 9  20542400.746 8  20542399.531 9      1073.328 8       841.118 9       841.118 8       806.072 9 107951000.430 8  84117723.131 9  84117725.133 8  80612821.137 9        49.700          56.100          51.000          55.800
G10  21461455.867 8  21461462.531 9  21461462.039 8  21461461.305 9     -1204.301 8      -931.658 9      -931.658 8      -892.839 9 112780734.146 8  87881130.242 9  87881121.253 8  84219412.995 9        50.900          54.100          49.300          54.000
G16  22968155.391 7  22968159.438 5                                     -3464.340 7     -2696.557 5                                 120698436.650 7  94050779.127 5                                        44.200          30.200
G21  21706295.906 8  21706299.469 6                                      1496.680 8      1169.569 6                                 114067449.294 8  88883684.209 6                                        48.200          37.000
G22  24552439.867 5  24552443.297 2                                      3744.500 5                                                 129023940.64515 100538154.93712                                        32.300          17.800
G23  23421889.430 6  23421893.477 4  23421893.195 6  23421897.559 7     -3023.176 6     -2351.794 4     -2351.796 6     -2253.803 7 123082869.239 6  95908754.611 4  95908771.644 6  91912590.854 7        40.200          26.700          41.600          46.900
G26  25712633.453 5  25712640.984 4  25712641.621 5  25712640.715 6     -3640.320 5     -2837.850 4     -2837.849 5     -2719.604 6 135120828.952 5 105288966.523 4 105288995.530 5 100901960.186 6        35.400          24.700          33.800          40.100
G27  20435437.758 8  20435443.867 9  20435443.949 8  20435443.758 9     -1065.906 8      -825.279 9      -825.280 8      -790.893 9 107388853.939 8  83679753.922 9  83679754.924 8  80193103.619 9        52.100          55.200          51.900          56.700
G30  25472446.273 4                  25472451.320 5  25472450.078 5      -659.887 4                      -508.088 5      -486.920 5 133858717.43514                 104305420.273 5  99959352.791 5        28.600                          30.900          34.300
G32  24588677.125 6  24588683.578 5  24588683.832 6  24588683.523 7      2759.305 6      2151.584 5      2151.584 6      2061.936 7 129214376.611 6 100686537.665 5 100686542.676 6  96491270.237 7        40.000          34.100          38.700          42.700
R01  21102019.641 7  21102019.457 7  21102024.551 6  21102025.469 6      3137.543 7      3146.638 7      2447.385 6      2447.385 6 112802443.396 7 112802456.406 7  87735219.129 6  87735219.133 6        44.300          44.100          41.200          40.300
R07  23590842.609 7  23590842.359 6  23590844.965 6  23590844.848 6     -3285.875 7     -3277.885 6     -2549.465 6     -2549.465 6 126283666.975 7 126283601.977 6  98220613.414 6  98220617.399 6        43.000          41.900          38.700          38.600
R08  21001164.945 7  21001163.602 7  21001166.457 7  21001166.340 7      -285.371 7      -271.728 7      -211.344 7      -211.344 7 112460278.050 7 112460280.083 7  87469114.433 7  87469131.425 7        47.000          45.100          47.100          46.300
R14  21368628.477 7  21368626.523 7  21368632.941 7  21368632.504 7     -2544.516 7     -2534.388 7     -1971.189 7     -1971.190 7 113906774.610 7 113906790.612 7  88594189.744 7  88594188.756 7        47.600          46.700          45.000          44.100
R15  21940774.313 7  21940773.926 7  21940777.215 7  21940777.621 7      1142.605 7      1155.516 7       898.735 7       898.735 7 117244842.613 7 117244879.615 7  91190430.164 7  91190439.161 7        46.500          45.400          42.600          42.600
R17  22565684.297 7  22565683.852 6  22565688.016 6  22565687.449 6      2838.859 7      2840.098 6      2208.965 6      2208.965 6 120753557.773 7 120753551.798 6  93919450.059 6  93919453.047 6        42.600          41.600          40.000          38.900
R23  20666790.430 7  20666788.875 7                                     -1756.199 7     -1752.323 7                                 110553419.526 7 110553498.548 7                                        47.800          46.400
R24  19816559.820 8  19816559.473 8  19816561.805 8  19816562.070 8       684.102 8       688.881 8       535.797 8       535.796 8 105968021.669 8 105968181.693 8  82419605.724 8  82419639.727 8        52.800          50.800          49.100          48.500
S36  37802806.000 7  37802798.340 7        -1.926 7        -1.391 7 198656591.503 7 148347194.483 7        44.600          47.000
> 2022 01 01 00 01 30.0000000  0 37
C05  39857632.883 5  39857622.742 6  39857628.152 6          .973 5          .887 6          .844 6 207549193.943 5 168650646.914 6 160490147.105 6        35.600          37.400          37.900
C06  41031776.445 5  41031763.605 5  41031769.703 5      1770.406 5      1440.125 5      1370.441 5 213663209.882 5 173618818.868 5 165217939.659 5        33.600          33.100          34.800
C16  41199482.570 6  41199472.648 5  41199482.449 5      1599.336 6      1301.238 5      1238.276 5 214536512.589 6 174328452.108 5 165893240.555 5        36.400          33.700          34.500
C20  25406210.484 7  25406193.457 6                      3414.289 7      2775.446 6                 132296805.519 7 107501985.894 6                        43.900          41.800
C27  23936192.039 7  23936183.074 7                     -2239.906 7     -1818.193 7                 124642068.166 7 101281868.901 7                        46.100          45.600
C29  23688794.734 7  23688784.844 7                      2269.180 7      1845.220 7                 123353791.908 7 100235033.176 7                        46.000          46.500
C30  21536838.070 8  21536830.855 8                       -56.250 8       -42.354 8                 112147999.375 8  91129468.905 8                        52.200          52.400
E01  25063780.281 8  25063784.281 8  25063782.379 8  25063783.410 9     -2195.512 8     -1635.651 8     -1678.321 8     -1656.986 9 131711055.420 8  98355678.109 8 100921467.697 8  99638573.012 9        48.600          50.500          51.100          54.200
E07  26635380.031 7  26635386.355 7  26635383.355 7  26635384.645 8      2142.238 7      1602.762 7      1644.574 7      1623.668 8 139969866.431 7 104522979.122 7 107249654.791 7 105886315.061 8        43.800          46.000          45.400          48.800
E08  25169468.578 7  25169470.762 7  25169469.191 7  25169470.207 7       -38.559 7       -23.439 7       -24.051 7       -23.745 7 132266457.907 7  98770423.283 7 101347036.105 7 100058728.795 7        42.000          43.600          43.700          46.800
E13  26566692.711 7  26566697.285 7  26566694.984 7  26566696.277 7     -2170.066 7     -1620.265 7     -1662.532 7     -1641.398 7 139608944.288 7 104253460.950 7 106973110.945 7 105613283.057 7        42.500          44.000          43.800          47.500
E21  27936871.219 6  27936876.934 6  27936874.371 6  27936875.402 7     -3223.242 6     -2407.145 6     -2469.939 6     -2438.542 7 146809283.873 6 109630345.624 6 112490262.978 6 111060305.915 7        38.500          41.200          40.800          44.500
E24  28824001.594 6  28824004.004 6  28824002.465 6  28824003.313 6      2522.332 6      1886.186 6      1935.391 6      1910.788 6 151471150.224 6 113111579.482 6 116062312.864 6 114586946.777 6        37.100          38.100          38.400          41.900
E26  23714371.023 8  23714373.855 9  23714371.688 8  23714372.797 9      -548.516 8      -407.677 9      -418.312 8      -412.995 9 124619895.342 8  93060340.304 9  95487991.603 8  94274167.062 9        51.700          54.000          53.700          57.300
E31  25424688.930 7  25424693.918 8  25424691.711 8  25424693.141 8       625.813 7       472.754 8       485.087 8       478.921 8 133607637.804 7  99771955.851 8 102374692.051 8 101073325.059 8        46.500          49.300          49.400          52.700
E33  24832952.734 8  24832955.719 8  24832953.699 8  24832954.793 9      1437.633 8      1075.284 8      1103.335 8      1089.310 9 130498064.713 8  97449873.954 8  99992035.416 8  98720953.788 9        48.000          50.900          50.900          54.000
G01  23536666.297 6  23536674.379 3  23536674.359 6  23536673.445 7      3114.219 6      2428.735 3      2428.734 6      2327.536 7 123686003.862 6  96378747.068 3  96378743.085 6  92362969.410 7        39.000          23.900          41.000          46.400
G07  25025326.195 5                                                     -1594.852 5                                                 131509012.201 5                                                        32.300
G08  20536301.203 8  20536307.438 9  20536308.051 8  20536307.082 9      1061.035 8       831.595 9       831.596 8       796.946 9 107918984.007 8  84092775.271 9  84092777.266 8  80588912.767 9        50.600          55.900          50.900          55.900
G10  21468380.719 8  21468386.836 9  21468386.445 8  21468385.574 8     -1221.570 8      -945.128 9      -945.128 8      -905.748 8 112817121.588 8  87909484.096 9  87909475.108 8  84246585.430 8        49.900          54.300          48.800          53.900
G16  22987954.047 7  22987957.246 4                                     -3471.742 7     -2702.347 4                                 120802477.031 7  94131849.540 4                                        43.800          29.600
G21  21697775.852 8  21697779.273 6                                      1488.191 8      1162.973 6                                 114022674.824 8  88848795.010 6                                        48.000          37.500
G22  24531070.438 5  24531074.730 2                                      3741.457 5                                                 128911645.57115 100450652.26912                                        31.600          16.900
G23  23439175.602 6  23439179.828 4  23439180.168 7  23439184.207 7     -3032.949 6     -2359.500 4     -2359.500 7     -2261.187 7 123173709.997 6  95979539.625 4  95979556.644 7  91980426.463 7        39.400          26.700          42.500          47.200
G26  25733405.867 6  25733413.301 4  25733412.527 5  25733413.145 6     -3636.914 6     -2835.260 4     -2835.260 5     -2717.124 6 135229986.499 6 105374024.315 4 105374053.321 5 100983473.909 6        36.800          27.300          35.700          41.100
G27  20441561.063 8  20441567.066 9  20441567.098 8  20441566.984 9     -1079.387 8      -835.784 9      -835.784 8      -800.959 9 107421031.635 8  83704827.447 9  83704828.442 8  80217132.403 9        51.200          55.000          51.200          56.700
G30  25476252.109 4                  25476260.703 5  25476261.039 5      -674.578 4                      -520.051 5      -498.383 5 133878739.37514                 104321021.805 5  99974304.281 5        25.900                          30.600          35.800
G32  24572934.531 6  24572941.898 5  24572941.676 6  24572941.488 7      2755.617 6      2148.685 5      2148.686 6      2059.156 7 129131652.247 6 100622077.119 5 100622082.107 6  96429495.547 7        40.300          34.300          39.000          42.900
R01  21084461.414 7  21084461.305 7  21084466.781 6  21084467.250 6      3119.547 7      3128.626 7      2433.376 6      2433.376 6 112708584.609 7 112708597.611 7  87662217.855 6  87662217.865 6        45.000          43.500          41.100          40.000
R07  23609299.266 6  23609298.945 6  23609302.672 6  23609302.344 6     -3301.766 6     -3293.768 6     -2561.820 6     -2561.820 6 126382480.008 6 126382415.006 6  98297467.998 6  98297472.006 6        38.800          37.500          37.400          36.900
R08  21002838.563 7  21002838.172 7  21002841.535 7  21002841.309 7      -312.676 7      -298.998 7      -232.555 7      -232.555 7 112469248.009 7 112469250.027 7  87476091.079 7  87476108.079 7        46.800          45.000          46.900          46.200
R14  21383004.469 7  21383003.336 7  21383008.969 7  21383009.289 7     -2564.563 7     -2554.475 7     -1986.813 7     -1986.812 7 113983408.842 7 113983424.852 7  88653794.122 7  88653793.120 7        47.100          46.400          45.300          44.500
R15  21934430.313 7  21934431.629 7  21934434.887 7  21934434.672 7      1116.879 7      1129.788 7       878.725 7       878.724 7 117210948.967 7 117210985.964 7  91164068.418 7  91164077.430 7        47.300          45.900          42.500          42.700
R17  22549775.820 7  22549775.320 6  22549778.270 6  22549778.363 6      2836.563 7      2837.727 6      2207.119 6      2207.119 6 120668425.979 7 120668420.003 6  93853236.487 6  93853239.463 6        43.700          41.400          40.600          39.700
R23  20676660.977 8  20676659.996 7                                     -1763.797 8     -1759.983 7                                 110606219.018 8 110606298.026 7                                        48.900          47.000
R24  19812748.039 8  19812747.789 8  19812750.820 8  19812750.602 8       674.551 8       679.385 8       528.411 8       528.411 8 105947640.115 8 105947800.134 8  82403753.395 8  82403787.399 8        52.300          51.300          48.600          48.100
S36  37802816.750 7  37802808.371 7        -1.641 7        -1.355 7 198656645.482 7 148347235.136 7        44.900          46.500
> 2022 01 01 00 02 00.0000000  0 37
C05  39857627.617 5  39857617.188 6  39857622.250 6          .879 5          .797 6          .758 6 207549164.529 5 168650623.013 6 160490124.361 6        35.100          37.300          38.300
C06  41021583.531 5  41021570.867 5  41021578.301 5      1767.477 5      1437.534 5      1367.975 5 213610137.098 5 173575692.854 5 165176900.420 5        32.900          32.700          34.700
C16  41190279.641 5  41190268.734 5  41190278.828 5      1595.426 5      1298.052 5      1235.243 5 214488589.335 5 174289510.552 5 165856183.258 5        35.900          32.300          34.400
C20  25386546.781 7  25386529.984 7                      3411.723 7      2773.398 7                 132194413.468 7 107418783.964 7                        43.700          42.100
C27  23949108.875 7  23949100.348 7                     -2244.512 7     -1821.911 7                 124709331.953 7 101336526.218 7                        46.300          45.800
C29  23675729.789 7  23675720.109 7                      2266.117 7      1842.700 7                 123285760.604 7 100179752.182 7                        45.800          46.500
C30  21537185.781 8  21537178.570 8                       -64.527 8       -49.025 8                 112149809.364 8  91130939.663 8                        52.500          52.500
E01  25076343.039 8  25076347.297 8  25076345.395 8  25076346.465 8     -2205.895 8     -1643.339 8     -1686.208 8     -1664.774 8 131777074.776 8  98404978.281 8 100972053.942 8  99688516.222 8        48.200          50.000          51.200          53.600
E07  26623173.773 7  26623179.617 7  26623177.301 7  26623178.402 8      2133.938 7      1596.654 7      1638.305 7      1617.479 8 139905722.598 7 104475079.512 7 107200505.642 7 105837790.682 8        43.700          45.700          45.000          49.200
E08  25169729.320 7  25169730.535 7  25169729.141 7  25169730.863 7       -52.906 7       -34.101 7       -34.991 7       -34.546 7 132267827.874 7  98771446.324 7 101348085.826 7 100059765.178 7        42.400          43.100          43.400          46.900
E13  26579083.125 7  26579087.254 7  26579084.137 7  26579086.453 8     -2170.641 7     -1620.717 7     -1662.996 7     -1641.857 8 139674054.852 7 104302082.448 7 107023000.837 7 105662538.754 8        42.000          44.500          43.400          48.000
E21  27955271.070 6  27955276.695 6  27955274.656 6  27955275.395 7     -3222.836 6     -2406.849 6     -2469.636 6     -2438.243 7 146905976.461 6 109702551.106 6 112564352.073 6 111133453.196 7        37.400          40.500          40.200          44.000
E24  28809623.094 6  28809625.492 6  28809623.734 6  28809625.074 6      2514.926 6      1880.797 6      1929.861 6      1905.330 6 151395591.305 6 113055155.564 6 116004417.021 6 114529786.890 6        36.900          37.900          39.100          41.800
E26  23717516.664 8  23717519.480 8  23717517.074 8  23717518.461 9      -553.695 8      -411.476 8      -422.210 8      -416.843 9 124636425.938 8  93072684.585 8  95500657.909 8  94286672.350 9        52.200          53.800          53.500          56.900
E31  25421157.055 7  25421162.059 8  25421159.910 8  25421161.332 8       611.391 7       461.989 8       474.041 8       468.015 8 133589077.886 7  99758096.167 8 102360470.814 8 101059284.597 8        46.800          49.400          49.300          52.400
E33  24824758.250 8  24824761.129 8  24824758.906 8  24824760.340 9      1433.102 8      1071.891 8      1099.854 8      1085.872 9 130455002.632 8  97417717.209 8  99959039.805 8  98688377.615 9        48.200          51.000          51.200          54.300
G01  23518902.938 6  23518911.207 3  23518911.316 6  23518910.684 7      3108.570 6      2424.491 3      2424.493 6      2323.472 7 123592660.886 6  96306012.326 3  96306008.299 6  92293265.251 7        37.700          22.500          40.700          46.800
G07  25034458.664 4                  25034465.309 5                     -1606.000 4                                                 131557022.031 4                 102511924.55115                        28.900                          31.000
G08  20530278.813 8  20530285.020 9  20530285.637 8  20530284.672 9      1048.695 8       822.035 9       822.035 8       787.783 9 107887335.680 8  84068114.227 9  84068116.223 8  80565279.281 9        50.500          55.800          51.100          55.900
G10  21475403.219 8  21475409.426 9  21475409.367 8  21475408.184 9     -1238.809 8      -958.559 9      -958.559 8      -918.619 9 112854026.122 8  87938240.877 9  87938231.882 8  84274144.012 9        51.300          54.100          48.800          54.200
G16  23007794.070 7  23007797.906 5                                     -3479.121 7     -2708.091 5                                 120906738.508 7  94213092.260 5                                        44.500          30.300
G21  21689303.500 7  21689307.012 6                                      1479.699 7      1156.380 6                                 113978154.168 7  88814103.604 6                                        47.400          36.900
G22  24509720.031 5  24509723.566 2                                      3737.813 5                                                 128799447.80815 100363225.43612                                        31.200          16.300
G23  23456518.250 6  23456522.609 4  23456522.492 7  23456525.895 7     -3042.762 6     -2367.139 4     -2367.138 7     -2268.509 7 123264844.830 6  96050553.782 4  96050570.785 7  92048481.720 7        40.000          26.200          42.600          46.600
G26  25754158.000 6  25754165.934 4  25754165.980 5  25754164.949 6     -3633.461 6     -2832.614 4     -2832.615 5     -2714.589 6 135339042.182 6 105459002.724 4 105459031.759 5 101064911.572 6        36.500          28.200          35.300          40.400
G27  20447761.133 8  20447767.297 9  20447767.422 8  20447767.211 9     -1092.867 8      -846.289 9      -846.289 8      -811.027 9 107453613.775 8  83730216.117 9  83730217.119 8  80241463.218 9        52.300          55.000          51.900          56.600
G30  25480150.203 4                  25480158.074 5  25480158.480 6      -690.570 4                      -531.985 5      -509.818 6                                 104336981.345 5  99989598.823 6        27.300                          30.900          36.300
G32  24557215.016 6  24557221.344 5  24557221.301 6  24557220.730 7      2751.633 6      2145.707 5      2145.707 6      2056.303 7 129049042.503 6 100557705.899 5 100557710.912 6  96367806.448 7        40.400          33.800          38.400          42.200
R01  21067006.383 7  21067004.977 7  21067009.996 6  21067010.840 6      3101.199 7      3110.464 7      2419.250 6      2419.250 6 112615270.668 7 112615283.677 7  87589640.342 6  87589640.368 6        44.800          43.900          40.800          40.200
R07  23627849.336 6  23627847.770 6  23627851.945 6  23627851.051 6     -3317.340 6     -3309.501 6     -2574.057 6     -2574.057 6 126481765.023 6 126481700.033 6  98374689.706 6  98374693.705 6        41.200          39.400          39.400          38.600
R08  21004667.195 7  21004666.484 7  21004668.910 7  21004668.648 7      -340.008 7      -326.242 7      -253.744 7      -253.744 7 112479035.292 7 112479037.288 7  87483703.394 7  87483720.401 7        46.600          45.500          45.900          45.700
R14  21397493.516 7  21397492.070 7  21397497.355 7  21397497.453 7     -2584.441 7     -2574.427 7     -2002.331 7     -2002.331 7 114060641.648 7 114060657.650 7  88713864.051 7  88713863.040 7        47.500          46.900          45.300          44.500
R15  21928232.555 7  21928232.770 7  21928236.234 7  21928236.469 7      1091.023 7      1104.017 7       858.679 7       858.680 7 117177828.468 7 117177865.462 7  91138308.041 7  91138317.037 7        46.400          45.000          43.200          42.200
R17  22533879.727 7  22533879.277 6  22533883.301 6  22533882.598 6      2834.031 7      2835.354 6      2205.275 6      2205.274 6 120583365.359 7 120583359.367 6  93787078.237 6  93787081.230 6        42.100          41.800          40.400          39.400
R23  20686574.047 8  20686573.035 7                                     -1771.555 8     -1767.631 7                                 110659247.975 8 110659326.968 7                                        48.400          46.900
R24  19808989.234 8  19808989.629 8  19808992.785 8  19808992.805 8       665.047 8       669.891 8       521.026 8       521.026 8 105927543.376 8 105927703.400 8  82388122.608 8  82388156.612 8        52.300          50.600          49.100          48.400
S36  37802826.688 7  37802818.266 7        -1.762 7        -1.139 7 198656696.566 7 148347269.303 7        44.500          46.500
> 2022 01 01 00 02 30.0000000  0 37
C05  39857622.664 5  39857612.090 6  39857617.543 6          .754 5          .710 6          .675 6 207549138.341 5 168650601.721 6 160490104.101 6        35.500          37.100          38.300
C06  41011410.094 5  41011397.441 5  41011405.016 5      1764.219 5      1434.929 5      1365.497 5 213557160.420 5 173532644.971 5 165135935.496 5        33.100          33.800          34.600
C16  41181098.703 5  41181088.215 5  41181097.879 5      1591.477 5      1294.854 5      1232.200 5 214440784.154 5 174250664.936 5 165819217.255 5        35.000          31.600          34.300
C20  25366898.898 7  25366881.727 7                      3409.074 7      2771.295 7                 132092099.026 7 107335645.100 7                        43.800          42.800
C27  23962052.836 7  23962043.480 7                     -2249.148 7     -1825.620 7                 124776732.689 7 101391294.824 7                        46.700          45.500
C29  23662683.359 7  23662673.367 7                      2262.895 7      1840.168 7                 123217822.775 7 100124547.126 7                        46.100          46.600
C30  21537580.703 8  21537573.520 8                       -72.711 8       -55.701 8                 112151865.803 8  91132610.690 8                        52.500          52.600
E01  25088964.344 7  25088968.988 8  25088966.719 8  25088967.996 9     -2215.965 7     -1650.979 8     -1694.049 8     -1672.514 9 131843401.089 7  98454507.659 8 101022875.399 8  99738691.641 9        47.400          51.000          50.600          54.700
E07  26611014.797 7  26611019.551 7  26611018.391 7  26611019.336 8      2125.613 7      1590.504 7      1631.995 7      1611.250 8 139841825.826 7 104427364.394 7 107151545.791 7 105789453.198 8        44.000          44.800          45.100          48.800
E08  25170071.164 6  25170073.188 7  25170071.203 7  25170073.066 7       -67.020 6       -44.758 7       -45.927 7       -45.343 7 132269626.004 6  98772789.078 7 101349463.627 7 100061125.463 7        41.900          43.100          43.200          47.400
E13  26591476.469 7  26591481.203 7  26591478.625 7  26591480.145 7     -2171.375 7     -1621.159 7     -1663.451 7     -1642.305 7 139739183.208 7 104350717.216 7 107072904.369 7 105711807.898 7        42.000          44.300          43.900          47.700
E21  27973668.266 5  27973674.418 6  27973671.820 6  27973672.813 7     -3222.453 5     -2406.504 6     -2469.283 6     -2437.894 7 147002655.202 5 109774746.241 6 112638430.570 6 111206590.006 7        35.800          40.900          40.700          44.700
E24  28795286.070 6  28795288.613 6  28795286.766 6  28795288.137 7      2507.637 6      1875.371 6      1924.293 6      1899.832 7 151320250.394 6 112998894.430 6 115946688.219 6 114472791.931 7        37.600          39.500          38.800          43.100
E26  23720691.242 8  23720694.195 8  23720691.660 8  23720693.047 9      -558.664 8      -415.258 8      -426.091 8      -420.675 9 124653108.491 8  93085142.331 8  95513440.647 8  94299292.596 9        51.500          53.400          53.700          56.700
E31  25417707.602 7  25417712.715 8  25417710.695 8  25417711.895 8       596.926 7       451.215 8       462.986 8       457.100 8 133570950.820 7  99744559.713 8 102346581.248 8 101045571.584 8        47.000          49.000          49.500          52.900
E33  24816589.672 7  24816592.656 8  24816590.289 8  24816591.742 9      1428.523 7      1068.509 8      1096.384 8      1082.446 9 130412076.448 7  97385661.935 8  99926148.297 8  98655904.224 9        47.400          51.100          50.700          54.400
G01  23501171.633 6  23501180.188 3  23501180.016 6  23501179.570 7      3103.223 6      2420.242 3      2420.240 6      2319.396 7 123499481.548 6  96233405.062 3  96233401.116 6  92223683.359 7        37.000          22.800          40.600          47.200
G07  25043657.711 5                  25043662.723 5                     -1616.418 5                     -1255.368 5                 131605353.841 5                 102549585.601 5                        31.600                          33.100
G08  20524326.375 8  20524332.926 9  20524333.445 8  20524332.262 9      1036.355 8       812.443 9       812.443 8       778.591 9 107856056.618 8  84043740.931 9  84043742.933 8  80541921.542 9        50.900          55.300          51.800          55.900
G10  21482524.422 8  21482530.402 9  21482530.168 8  21482529.137 8     -1255.980 8      -971.945 9      -971.945 8      -931.447 8 112891446.002 8  87967399.218 9  87967390.224 8  84302087.425 8        50.500          54.300          49.500          53.900
G16  23027675.492 7  23027679.918 5                                     -3486.301 7     -2713.767 5                                 121011218.549 7  94294505.273 5                                        43.300          30.400
G21  21680879.148 7  21680882.992 6                                      1471.246 7      1149.797 6                                 113933886.978 7  88779609.693 6                                        46.900          36.800
G22  24488388.836 5  24488391.641 2                                      3734.840 5                                                                                                                        32.300          17.400
G23  23473916.188 6  23473919.570 4  23473919.957 6  23473923.461 7     -3052.563 6     -2374.704 4     -2374.704 6     -2275.757 7 123356270.970 6  96121794.906 4  96121811.899 6  92116754.430 7        39.600          25.300          41.700          46.000
G26  25774890.563 6  25774898.594 4  25774897.863 5  25774897.598 6     -3630.078 6     -2829.910 4     -2829.910 5     -2711.995 6 135447993.750 6 105543900.015 4 105543929.048 5 101146271.425 6        36.400          26.500          34.800          39.400
G27  20454038.117 8  20454044.305 9  20454044.570 8  20454044.293 9     -1106.348 8      -856.788 9      -856.788 8      -821.089 9 107486600.124 8  83755919.750 9  83755920.752 8  80266095.872 9        50.900          55.100          52.300          56.700
G30  25484134.359 4                  25484141.281 4  25484143.195 6      -705.520 4                      -543.918 4      -521.210 6 133920159.95614                 104353297.53814 100005235.120 6        27.600                          28.600          38.100
G32  24541517.750 6  24541523.523 5  24541523.641 6  24541523.293 7      2747.727 6      2142.660 5      2142.660 6      2053.383 7 128966550.137 6 100493426.095 5 100493431.101 6  96306204.964 7        41.100          33.600          38.100          42.900
R01  21049651.461 7  21049651.078 7  21049656.316 6  21049657.305 6      3082.898 7      3092.174 7      2405.023 6      2405.024 6 112522505.454 7 112522518.456 7  87517489.656 6  87517489.659 6        44.700          43.800          40.900          40.000
R07  23646482.086 6  23646481.984 6  23646485.367 6  23646485.246 6     -3332.918 6     -3325.103 6     -2586.191 6     -2586.191 6 126581518.135 6 126581453.122 6  98452275.440 6  98452279.450 6        40.200          38.400          37.800          37.600
R08  21006647.406 7  21006646.434 7  21006649.324 7  21006648.965 7      -367.176 7      -353.504 7      -274.948 7      -274.947 7 112489640.385 7 112489642.403 7  87491951.820 7  87491968.821 7        47.000          45.200          46.100          46.400
R14  21412094.547 7  21412091.848 7  21412098.836 7  21412097.746 7     -2604.168 7     -2594.247 7     -2017.747 7     -2017.747 7 114138469.056 7 114138485.065 7  88774396.457 7  88774395.441 7        47.800          46.800          44.600          44.400
R15  21922179.875 7  21922180.270 7  21922182.406 7  21922183.457 7      1065.234 7      1078.209 7       838.608 7       838.608 7 117145482.182 7 117145519.176 7  91113149.800 7  91113158.804 7        46.700          45.500          42.500          42.700
R17  22517998.797 7  22517997.254 7  22518000.703 6  22518000.859 6      2831.625 7      2832.976 7      2203.426 6      2203.426 6 120498376.066 7 120498370.074 7  93720975.455 6  93720978.458 6        44.300          42.200          41.400          40.400
R23  20696530.203 8  20696529.039 7                                     -1779.141 8     -1775.267 7                                 110712505.969 8 110712584.977 7                                        48.200          47.300
R24  19805285.133 8  19805284.590 8  19805287.605 8  19805287.621 7       655.520 8       660.398 8       513.642 8       513.643 7 105907731.450 8 105907891.461 8  82372713.338 8  82372747.335 7        52.700          50.700          48.900          47.800
S36  37802837.125 7  37802828.285 7        -1.848 7        -1.347 7 198656750.659 7 148347309.728 7        45.400          47.100
> 2022 01 01 00 03 00.0000000  0 36
C05  39857618.281 5  39857607.770 6  39857612.758 6          .797 5          .626 6          .595 6 207549115.232 5 168650582.948 6 160490086.236 6        35.100          36.900          37.400
C06  41001253.953 5  41001242.352 5  41001249.063 5      1761.031 5      1432.325 5      1363.020 5 213504280.39715 173489675.61115 165095045.30815        32.600          34.200          32.800
C16  41171941.438 5  41171929.980 5  41171940.582 5      1587.434 5      1291.645 5      1229.146 5 214393097.457 5 174211915.589 5 165782342.870 5        35.800          31.400          35.100
C20  25347265.320 7  25347248.637 7                      3406.547 7      2769.128 7                 131989864.571 7 107252571.248 7                        43.300          42.900
C27  23975022.680 7  23975013.770 7                     -2253.453 7     -1829.324 7                 124844270.159 7 101446174.531 7                        45.100          45.000
C29  23649654.742 7  23649644.754 7                      2259.965 7      1837.619 7                 123149979.074 7 100069418.563 7                        46.200          46.600
C30  21538023.023 8  21538015.750 8                       -80.805 8       -62.388 8                 112154169.145 8  91134482.341 8                        52.400          52.400
E01  25101644.328 8  25101648.578 8  25101646.434 8  25101647.648 8     -2226.121 8     -1658.581 8     -1701.849 8     -1680.215 8 131910032.793 8  98504265.087 8 101073930.855 8  99789098.081 8        48.200          51.000          50.100          53.700
E07  26598902.836 7  26598908.527 7  26598906.098 7  26598907.645 8      2117.582 7      1584.306 7      1625.635 7      1604.971 8 139778178.079 7 104379835.221 7 107102776.729 7 105741304.081 8        43.900          45.500          44.700          48.500
E08  25170494.859 6  25170497.004 7  25170495.504 7  25170496.762 7       -81.289 6       -55.422 7       -56.867 7       -56.145 7 132271852.494 6  98774451.733 7 101351169.651 7 100062809.801 7        41.700          43.000          43.600          46.600
E13  26603873.508 7  26603877.688 7  26603875.949 7  26603877.012 7     -2171.711 7     -1621.596 7     -1663.898 7     -1642.747 7 139804329.064 7 104399365.091 7 107122821.324 7 105761090.313 7        42.000          44.300          44.100          47.900
E21  27992062.367 5  27992068.305 6  27992066.055 6  27992067.207 7     -3221.832 5     -2406.116 6     -2468.885 6     -2437.501 7 147099318.338 5 109846929.734 6 112712497.124 6 111279715.039 7        34.900          40.500          40.000          43.600
E24  28780991.773 6  28780993.914 6  28780991.602 6  28780993.102 7      2500.391 6      1869.900 6      1918.680 6      1894.290 7 151245129.224 6 112942797.420 6 115889127.821 6 114415963.231 7        38.100          39.100          39.000          43.100
E26  23723894.828 8  23723897.633 8  23723895.117 8  23723896.484 9      -563.594 8      -419.031 8      -429.962 8      -424.497 9 124669942.612 8  93097713.259 8  95526339.514 8  94312027.497 9        51.800          53.400          53.700          56.600
E31  25414340.508 7  25414345.609 8  25414343.809 8  25414344.938 8       582.656 7       440.425 8       451.915 8       446.170 8 133553257.235 7  99731346.956 8 102333023.809 8 101032186.494 8        46.600          49.200          49.000          52.400
E33  24808446.805 7  24808449.992 8  24808447.902 8  24808448.969 9      1424.176 7      1065.129 8      1092.915 8      1079.022 9 130369286.014 7  97353708.054 8  99893360.849 8  98623533.561 9        47.900          51.400          51.000          54.800
G01  23483470.836 6  23483480.512 3  23483479.375 6  23483479.578 7      3097.879 6      2415.967 3      2415.969 6      2315.302 7 123406466.695 6  96160926.049 3  96160922.043 6  92154224.294 7        37.400          22.900          41.100          47.600
G07  25052915.820 4                  25052920.582 5                     -1626.977 4                     -1263.664 5                 131654005.06014                 102587495.523 5                        28.900                          33.600
G08  20518444.508 8  20518451.305 9  20518451.867 8  20518450.434 9      1024.117 8       802.816 9       802.817 8       769.365 9 107825148.197 8  84019656.449 9  84019658.435 8  80518840.579 9        50.300          55.000          51.300          55.900
G10  21489742.648 8  21489748.781 9  21489748.789 8  21489747.691 8     -1272.887 8      -985.290 9      -985.290 8      -944.236 8 112929379.666 8  87996957.912 9  87996948.923 8  84330414.515 8        51.800          54.100          48.900          53.800
G16  23047598.656 7  23047602.590 5                                     -3493.309 7     -2719.364 5                                 121115914.083 7  94376086.193 5                                        43.200          30.100
G21  21672504.227 8  21672507.691 6                                      1463.004 8      1143.221 6                                 113889872.972 8  88745313.074 6                                        48.000          37.200
G22  24467077.969 5  24467080.133 2                                      3731.656 5                                                                                                                        31.900          17.400
G23  23491368.625 6  23491372.426 4  23491372.941 6  23491377.168 7     -3061.879 6     -2382.201 4     -2382.201 6     -2282.943 7 123447985.673 6  96193260.930 4  96193277.922 6  92185242.730 7        40.400          25.100          41.000          47.300
G26  25795603.938 5  25795611.242 3  25795610.461 5  25795610.246 6     -3626.289 5     -2827.152 3     -2827.152 5     -2709.354 6 135556839.103 5 105628714.561 3 105628743.608 5 101227552.048 6        34.300          21.800          32.500          37.100
G27  20460392.117 8  20460398.359 9  20460398.414 8  20460398.438 9     -1119.707 8      -867.288 9      -867.288 8      -831.151 9 107519990.730 8  83781938.400 9  83781939.395 8  80291030.402 9        52.400          55.000          51.500          56.600
G32  24525842.148 6  24525848.820 5  24525849.008 6  24525848.215 7      2743.676 6      2139.534 5      2139.534 6      2050.385 7 128884178.119 6 100429240.088 5 100429245.090 6  96244693.403 7        40.000          34.200          37.500          42.700
R01  21032402.266 7  21032401.156 7  21032406.570 6  21032407.184 6      3064.613 7      3073.748 7      2390.693 6      2390.693 6 112430293.012 7 112430306.014 7  87445768.881 6  87445768.884 6        45.200          44.000          40.800          40.200
R07  23665204.633 6  23665203.656 6  23665208.719 6  23665207.738 6     -3348.105 6     -3340.581 6     -2598.231 6     -2598.231 6 126681735.526 6 126681670.550 6  98530222.381 6  98530226.385 6        40.800          38.800          40.500          38.900
R08  21008779.719 7  21008779.215 7  21008782.559 7  21008781.977 7      -394.160 7      -380.715 7      -296.112 7      -296.112 7 112501061.826 7 112501063.852 7  87500835.167 7  87500852.174 7        46.400          45.100          46.400          45.000
R14  21426804.063 7  21426803.422 7  21426809.207 7  21426808.512 7     -2623.664 7     -2613.939 7     -2033.063 7     -2033.063 7 114216887.256 7 114216903.251 7  88835388.340 7  88835387.345 7        47.200          46.600          44.500          44.000
R15  21916271.641 7  21916272.281 7  21916275.406 7  21916275.324 7      1039.492 7      1052.355 7       818.497 7       818.498 7 117113911.552 7 117113948.539 7  91088594.890 7  91088603.866 7        46.700          45.700          42.800          42.700
R17  22502130.055 7  22502128.156 7  22502132.105 6  22502131.867 6      2829.367 7      2830.582 7      2201.562 6      2201.562 6 120413458.635 7 120413452.611 7  93654928.593 6  93654931.602 6        44.300          42.500          41.500          40.200
R23  20706528.594 8  20706528.039 7                                     -1786.656 8     -1782.895 7                                 110765992.805 8 110766071.820 7                                        48.100          46.200
R24  19801633.000 8  19801633.129 8  19801636.098 8  19801636.129 8       646.199 8       650.882 8       506.242 8       506.242 8 105888204.968 8 105888364.987 8  82357526.065 8  82357560.070 8        52.800          50.300          48.400          48.600
S36  37802846.703 7  37802838.242 7        -1.535 7        -1.440 7 198656801.904 7 148347352.923 7        44.400          46.800
> 2022 01 01 00 03 30.0000000  0 37
C05  39857614.938 5  39857603.883 6  39857608.953 6          .816 5          .537 6          .512 6 207549095.399 5 168650566.824 6 160490070.891 6        35.000          37.000          38.400
C06  40991117.648 5  40991105.691 5  40991112.570 5      1757.770 5      1429.679 5      1360.502 5 213451497.571 5 173446785.249 5 165054230.254 5        32.000          34.000          33.000
C16  41162806.289 5  41162795.676 5  41162806.238 5      1583.719 5      1288.422 5      1226.077 5 214345529.768 5 174173262.931 5 165745560.558 5        34.800          32.400          35.200
C20  25327648.133 7  25327631.250 7                      3403.777 7      2766.900 7                 131887712.424 7 107169564.255 7                        43.400          42.600
C26  26822401.555 5  26822393.539 5                      1619.715 5                                 139671283.24715 113494325.05915                        33.700          33.400
C27  23988018.922 7  23988010.047 7                     -2257.973 7     -1833.026 7                 124911944.309 7 101501165.296 7                        46.400          45.300
C29  23636644.305 7  23636634.289 7                      2256.797 7      1835.050 7                 123082230.186 7 100014367.055 7                        46.600          46.100
C30  21538513.023 8  21538505.648 8                       -89.023 8       -69.089 8                 112156719.857 8  91136555.010 8                        52.400          52.400
E01  25114381.859 8  25114385.988 8  25114384.012 8  25114385.070 8     -2236.129 8     -1666.141 8     -1709.606 8     -1687.874 8 131976968.236 8  98554249.325 8 101125219.035 8  99839734.290 8        48.200          50.600          50.500          53.800
E07  26586838.875 7  26586845.477 7  26586841.883 7  26586843.480 8      2109.152 7      1578.059 7      1619.227 7      1598.643 8 139714781.230 7 104332493.451 7 107054199.919 7 105693344.790 8        43.000          46.100          44.800          49.000
E08  25171000.086 7  25171002.332 7  25171000.578 7  25171001.902 7       -95.566 7       -66.088 7       -67.811 7       -66.950 7 132274507.453 7  98776434.379 7 101353203.979 7 100064818.287 7        42.800          43.300          43.100          47.000
E13  26616273.234 7  26616277.668 7  26616276.535 7  26616277.105 7     -2172.355 7     -1622.031 7     -1664.345 7     -1643.188 7 139869492.448 7 104448026.024 7 107172751.663 7 105810385.944 7        42.300          44.300          44.000          47.600
E21  28010453.805 5  28010459.828 6  28010456.496 6  28010458.301 7     -3221.066 5     -2405.688 6     -2468.445 6     -2437.067 7 147195964.234 5 109919100.381 6 112786550.482 6 111352827.041 7        35.100          40.600          39.300          43.500
E24  28766738.969 6  28766741.000 6  28766739.043 6  28766740.199 7      2493.074 6      1864.385 6      1913.022 6      1888.704 7 151170229.627 6 112886865.857 6 115831737.164 6 114359302.117 7        37.500          39.200          38.800          42.400
E26  23727126.875 8  23727129.883 9  23727127.445 8  23727128.676 9      -568.563 8      -422.794 9      -433.823 8      -428.308 9 124686927.892 8  93110397.073 9  95539354.208 8  94324876.745 9        51.800          54.200          53.600          56.900
E31  25411056.281 7  25411061.125 8  25411059.063 8  25411060.547 8       568.184 7       429.621 8       440.828 8       435.225 8 133535997.699 7  99718458.339 8 102319798.958 8 101019129.751 8        46.700          48.900          49.100          52.400
E33  24800329.695 7  24800332.945 8  24800331.070 8  24800332.012 9      1419.629 7      1061.753 8      1089.452 8      1075.602 9 130326631.219 7  97321855.467 8  99860677.304 8  98591265.492 9        47.700          51.600          51.300          54.400
G01  23465803.398 6  23465811.098 3  23465811.199 6  23465810.340 7      3092.438 6      2411.679 3      2411.679 6      2311.192 7 123313616.998 6  96088575.687 3  96088571.678 6  92084888.545 7        37.700          22.300          40.800          47.200
G07  25062234.258 5                  25062238.590 5                     -1637.723 5                     -1271.903 5                 131702973.42115                 102625652.617 5                        30.800                          33.100
G08  20512633.703 8  20512640.336 9  20512640.746 8  20512639.617 9      1011.793 8       793.161 9       793.160 8       760.112 9 107794611.514 8  83995861.629 9  83995863.639 8  80496037.214 9        50.800          55.600          51.000          56.000
G10  21497058.758 8  21497065.027 9  21497064.695 8  21497063.695 8     -1289.930 8      -998.595 9      -998.595 8      -956.987 8 112967825.576 8  88026915.767 9  88026906.771 8  84359124.129 8        51.600          54.200          49.200          53.900
G16  23067561.672 7  23067565.664 4                                     -3500.367 7     -2724.884 4                                 121220822.156 7  94457832.723 4                                        43.400          28.700
G21  21664176.305 8  21664180.434 6                                      1454.621 8      1136.658 6                                 113846111.647 8  88711213.340 6                                        48.100          37.300
G22  24445784.594 5  24445786.902 2                                      3728.152 5                                                 128463458.77215 100101415.93912                                        34.100          16.900
G23  23508876.109 6  23508880.246 4  23508880.391 7  23508883.934 7     -3071.332 6     -2389.630 4     -2389.630 7     -2290.062 7 123539986.442 6  96264949.832 4  96264966.828 7  92253944.577 7        40.000          25.500          42.400          46.700
G26  25816295.469 5  25816303.359 3  25816302.152 5  25816301.980 6     -3622.543 5     -2824.354 3     -2824.352 5     -2706.673 6 135665576.653 5 105713445.169 3 105713474.172 5 101308752.228 6        33.000          20.600          31.200          36.400
G27  20466823.031 8  20466829.289 9  20466829.234 8  20466829.293 9     -1133.168 8      -877.788 9      -877.788 8      -841.213 9 107553785.581 8  83808272.037 9  83808273.047 8  80316266.798 9        51.100          55.100          51.100          56.600
G32  24510190.563 6  24510197.133 5  24510197.734 6  24510197.039 7      2739.563 6      2136.330 5      2136.330 6      2047.316 7 128801929.425 6 100365150.197 5 100365155.183 6  96183273.933 7        40.400          34.400          38.100          42.600
R01  21015255.602 7  21015254.438 7  21015259.543 6  21015260.789 6      3046.090 7      3055.187 7      2376.256 6      2376.257 6 112338637.376 7 112338650.408 7  87374481.198 6  87374481.187 6        44.900          43.700          41.300          40.600
R07  23684010.500 6  23684009.289 6  23684014.781 6  23684014.094 6     -3363.477 6     -3355.932 6     -2610.169 6     -2610.168 6 126782413.518 6 126782348.510 6  98608527.444 6  98608531.436 6        38.800          36.800          38.100          37.200
R08  21011064.695 7  21011064.398 7  21011068.047 7  21011067.637 7      -421.332 7      -407.926 7      -317.276 7      -317.276 7 112513299.607 7 112513301.624 7  87510353.446 7  87510370.454 7        46.800          45.000          46.300          46.300
R14  21441625.820 7  21441624.652 7  21441630.219 7  21441629.977 7     -2643.121 7     -2633.492 7     -2048.271 7     -2048.271 7 114295892.015 7 114295908.017 7  88896836.478 7  88896835.476 7        47.500          46.400          44.200          44.200
R15  21910509.297 7  21910509.145 7  21910511.785 7  21910512.996 7      1013.625 7      1026.460 7       798.359 7       798.357 7 117083117.759 7 117083154.746 7  91064644.131 7  91064653.142 7        47.000          45.400          43.500          42.400
R17  22486272.844 7  22486272.703 7  22486276.859 6  22486276.539 6      2827.047 7      2828.175 7      2199.691 6      2199.692 6 120328613.338 7 120328607.351 7  93588937.848 6  93588940.853 6        44.500          42.700          41.500          40.700
R23  20716570.727 7  20716568.930 7                                     -1794.262 7     -1790.515 7                                 110819708.261 7 110819787.269 7                                        47.600          46.300
R24  19798035.164 8  19798035.047 8  19798038.359 8  19798038.102 8       636.668 8       641.356 8       498.832 8       498.833 8 105868964.283 8 105869124.301 8  82342561.091 8  82342595.095 8        53.200          50.800          48.800          48.600
S36  37802856.688 7  37802848.219 7        -1.672 7        -1.196 7 198656852.043 7 148347388.795 7        44.500          46.300
> 2022 01 01 00 04 00.0000000  0 37
C05  39857611.828 5  39857600.879 6  39857605.656 6          .680 5          .453 6          .431 6 207549078.692 5 168650553.247 6 160490057.969 6        35.500          37.400          37.700
C06  40981000.266 5  40980987.879 5  40980995.047 5      1754.695 5      1427.035 5      1357.986 5 213398812.325 5 173403974.197 5 165013490.687 5        31.600          34.400          34.600
C16  41153693.234 5  41153684.379 5  41153694.105 5      1579.633 5      1285.181 5      1222.996 5 214298081.661 5 174134707.493 5 165708870.682 5        34.400          33.200          34.000
C20  25308047.094 7  25308030.199 7                      3400.855 7      2764.610 7                 131785644.785 7 107086625.950 7                        43.800          42.300
C26  26813109.375 5  26813100.734 5                      1606.469 5      1310.708 5                 139622892.784 5 113455003.826 5                        32.900          34.800
C27  24001041.313 7  24001031.992 7                     -2262.527 7     -1836.720 7                 124979754.845 7 101556266.905 7                        46.000          45.100
C29  23623652.297 7  23623641.965 7                      2253.539 7      1832.467 7                 123014576.723 7  99959393.057 7                        46.700          46.800
C30  21539050.391 8  21539043.113 8                       -97.348 8       -75.798 8                 112159518.263 8  91138828.938 8                        52.300          52.600
E01  25127176.586 8  25127180.809 8  25127178.980 8  25127179.949 9     -2246.266 8     -1673.662 8     -1717.323 8     -1695.492 9 132044205.798 8  98604459.183 8 101176738.712 8  99890599.057 9        48.800          50.500          50.900          54.300
E07  26574822.852 7  26574828.715 7  26574826.875 7  26574827.453 8      2100.535 7      1571.769 7      1612.771 7      1592.270 8 139651637.134 7 104285340.396 7 107005816.792 7 105645576.692 8        43.300          45.600          45.700          49.300
E08  25171586.938 7  25171589.047 7  25171587.313 7  25171588.648 7      -109.836 7       -76.753 7       -78.756 7       -77.755 7 132277590.947 7  98778736.977 7 101355566.669 7 100067150.937 7        42.100          43.100          43.100          46.800
E13  26628677.164 6  26628680.930 7  26628678.477 7  26628680.457 7     -2172.875 6     -1622.459 7     -1664.783 7     -1643.621 7 139934672.958 6 104496699.794 7 107222695.150 7 105859694.580 7        41.800          44.000          43.400          47.200
E21  28028841.266 6  28028846.770 6  28028844.191 6  28028845.672 7     -3220.277 6     -2405.214 6     -2467.958 6     -2436.585 7 147292591.062 6 109991256.786 6 112860589.223 6 111425924.608 7        36.000          39.900          39.500          43.200
E24  28752528.281 6  28752530.352 6  28752528.461 6  28752529.730 7      2485.449 6      1858.828 6      1907.319 6      1883.073 7 151095553.273 6 112831101.022 6 115774517.600 6 114302809.916 7        37.800          39.800          38.900          42.800
E26  23730387.664 8  23730390.832 8  23730388.379 9  23730389.551 9      -573.711 8      -426.546 8      -437.673 9      -432.109 9 124704063.901 8  93123193.442 8  95552484.390 9  94337840.024 9        51.500          53.900          54.100          57.400
E31  25407854.609 7  25407859.492 8  25407857.559 8  25407858.852 8       553.543 7       418.803 8       429.728 8       424.266 8 133519172.753 7  99705894.246 8 102306907.110 8 101006401.784 8        47.000          49.400          49.600          52.400
E33  24792238.813 7  24792241.656 8  24792239.820 8  24792240.828 9      1415.082 7      1058.383 8      1085.993 8      1072.188 9 130284111.820 7  97290103.980 8  99828097.524 8  98559099.858 9        47.700          51.300          51.200          54.500
G01  23448165.422 6  23448174.316 3  23448174.414 6  23448172.910 7      3086.727 6      2407.371 3      2407.370 6      2307.063 7 123220933.171 6  96016354.564 3  96016350.574 6  92015676.639 7        37.900          21.300          41.100          47.500
G07  25071611.719 5  25071617.828 2  25071617.242 5                     -1648.219 5                     -1280.142 5                 131752256.024 5 102664084.67212 102664054.62315                        30.800          14.800          33.600
G08  20506893.906 8  20506900.355 9  20506901.176 8  20506899.840 9       999.266 8       783.461 9       783.461 8       750.817 9 107764448.268 8  83972357.803 9  83972359.813 8  80473512.709 9        50.800          56.000          51.400          56.200
G10  21504471.805 8  21504478.188 9  21504477.742 8  21504476.809 8     -1306.988 8     -1011.857 9     -1011.857 8      -969.696 8 113006782.087 8  88057271.485 9  88057262.482 8  84388215.002 8        51.500          54.000          49.400          53.800
G16  23087565.063 7  23087569.234 4                                     -3507.457 7     -2730.353 4                                 121325940.732 7  94539743.310 4                                        43.000          28.700
G21  21655896.773 8  21655900.633 6                                      1446.109 8      1130.101 6                                 113802602.732 8  88677310.312 6                                        48.000          37.300
G22  24424511.813 5  24424514.398 3                                      3724.363 5                                                 128351670.54515 100014308.28213                                        33.200          18.600
G23  23526437.352 6  23526441.414 4  23526441.066 6  23526445.246 7     -3080.813 6     -2396.990 4     -2396.990 6     -2297.116 7 123632270.564 6  96336859.531 4  96336876.538 6  92322858.070 7        40.800          26.200          41.800          46.700
G26  25836967.398 5  25836974.203 3  25836974.109 4  25836973.242 5     -3619.152 5     -2821.509 3     -2821.552 4     -2703.945 5 135774204.894 5 105798090.425 3 105798119.49014 101389870.589 5        32.500          20.900          29.900          35.000
G27  20473331.109 8  20473337.180 9  20473337.254 8  20473337.195 9     -1146.633 8      -888.286 9      -888.286 8      -851.274 9 107587984.602 8  83834920.614 9  83834921.616 8  80341805.031 9        52.000          54.900          51.200          56.600
G32  24494562.828 6  24494570.129 5  24494570.488 6  24494569.531 7      2735.367 6      2133.049 5      2133.048 6      2044.172 7 128719807.017 6 100301158.724 5 100301163.757 6  96121948.760 7        39.600          33.800          38.900          42.600
R01  20998213.953 7  20998213.703 7  20998218.543 6  20998219.824 6      3027.176 7      3036.486 7      2361.711 6      2361.710 6 112247542.823 7 112247555.840 7  87303629.871 6  87303629.881 6        45.200          44.300          41.300          40.300
R07  23702903.250 6  23702903.176 6  23702907.188 6  23702906.531 6     -3378.656 6     -3371.148 6     -2622.007 6     -2622.007 6 126883547.952 6 126883482.966 6  98687187.667 6  98687191.659 6        40.600          38.100          37.100          37.700
R08  21013503.672 7  21013502.625 7  21013505.281 7  21013505.352 7      -448.656 7      -435.128 7      -338.433 7      -338.433 7 112526353.460 7 112526355.471 7  87520506.443 7  87520523.443 7        47.300          45.200          46.800          45.900
R14  21456556.367 7  21456555.090 7  21456560.434 7  21456560.457 7     -2662.535 7     -2652.923 7     -2063.383 7     -2063.383 7 114375479.707 7 114375495.716 7  88958737.967 7  88958736.965 7        47.300          46.200          45.200          44.700
R15  21904892.430 7  21904892.504 7  21904895.078 7  21904895.613 7       987.574 7      1000.525 7       778.187 7       778.187 7 117053101.992 7 117053139.001 7  91041298.533 7  91041307.537 7        47.000          45.700          43.100          42.600
R17  22470431.664 7  22470431.895 7  22470434.426 6  22470434.801 6      2824.590 7      2825.756 7      2197.809 6      2197.809 6 120243840.690 7 120243834.680 7  93523003.573 6  93523006.574 6        46.000          43.700          41.300          40.600
R23  20726654.094 7  20726653.613 7                                     -1801.848 7     -1798.142 7                                 110873652.507 7 110873731.522 7                                        47.500          46.200
R24  19794490.453 8  19794490.402 8  19794493.617 8  19794493.461 8       627.086 8       631.814 8       491.411 8       491.411 8 105850009.864 8 105850169.876 8  82327818.764 8  82327852.776 8        52.700          50.800          49.300          48.000
S36  37802867.047 7  37802858.176 7        -1.566 7        -1.258 7 198656904.998 7 148347426.535 7        45.200          46.600
> 2022 01 01 00 04 30.0000000  0 36
C05  39857608.867 5  39857598.039 6  39857603.375 6          .492 5          .368 6          .350 6 207549065.099 5 168650542.200 6 160490047.455 6        34.700          36.900          37.600
C06  40970902.070 5  40970888.898 5  40970896.762 5      1751.148 5      1424.370 5      1355.449 5 213346225.474 5 173361243.095 5 164972827.213 5        32.300          34.600          35.000
C16  41144604.992 5  41144594.828 5  41144604.461 5      1575.563 5      1281.932 5      1219.904 5 214250753.523 5 174096249.533 5 165672273.558 5        34.600          31.800          33.400
C20  25288462.492 7  25288445.770 7                      3397.941 7      2762.261 7                 131683663.904 7 107003758.121 7                        42.900          42.400
C26  26803893.242 5  26803883.004 5                      1593.117 5      1300.002 5                 139574897.530 5 113416003.751 5                        33.800          35.100
C27  24014089.570 7  24014080.293 7                     -2267.234 7     -1840.410 7                 125047701.630 7 101611479.212 7                        46.000          44.800
C29  23610678.695 7  23610668.391 7                      2250.285 7      1829.865 7                 122947019.310 7  99904497.121 7                        46.300          47.100
C30  21539635.586 8  21539628.141 8                      -105.707 8       -82.518 8                 112162564.760 8  91141304.464 8                        52.700          52.500
E01  25140028.641 8  25140033.012 8  25140031.086 8  25140031.996 9     -2256.293 8     -1681.140 8     -1724.995 8     -1703.067 9 132111743.767 8  98654893.368 8 101228488.572 8  99941691.076 9        48.900          50.900          50.900          54.000
E07  26562855.359 7  26562860.457 7  26562859.406 7  26562860.113 8      2092.016 7      1565.433 7      1606.269 7      1585.851 8 139588747.592 7 104238377.406 7 106957628.716 7 105598001.165 8        43.500          44.800          46.000          48.500
E08  25172254.844 6  25172257.609 7  25172255.520 7  25172256.887 7      -124.234 6       -87.422 7       -89.702 7       -88.562 7 132281103.011 6  98781359.643 7 101358257.738 7 100069807.792 7        41.400          43.300          43.200          46.300
E13  26641083.602 6  26641088.535 7  26641085.996 7  26641087.297 7     -2173.469 6     -1622.881 7     -1665.218 7     -1644.049 7 139999870.454 6 104545386.213 7 107272651.684 7 105909016.050 7        41.800          45.100          43.500          47.900
E21  28047224.766 6  28047230.734 6  28047227.633 6  28047229.395 7     -3219.918 6     -2404.695 6     -2467.427 6     -2436.061 7 147389197.118 6 110063397.647 6 112934612.041 6 111499006.447 7        36.100          40.200          38.600          43.100
E24  28738360.625 6  28738363.395 6  28738360.477 6  28738362.324 7      2477.926 6      1853.229 6      1901.574 6      1877.401 7 151021101.862 6 112775504.167 6 115717470.369 6 114246487.884 7        36.600          39.800          40.400          43.700
E26  23733677.305 8  23733680.184 8  23733677.902 8  23733679.027 9      -578.695 8      -430.286 8      -441.511 8      -435.899 9 124721350.174 8  93136102.016 8  95565729.723 8  94350916.982 9        51.800          53.900          53.400          56.400
E31  25404735.758 7  25404740.844 8  25404738.770 8  25404739.934 8       539.012 7       407.974 8       418.617 8       413.295 8 133502782.858 7  99693655.038 8 102294348.613 8 100994002.935 8        46.500          49.300          49.000          52.700
E33  24784173.203 7  24784176.238 8  24784174.234 8  24784175.395 9      1410.543 7      1055.018 8      1082.540 8      1068.779 9 130241727.630 7  97258453.451 8  99795621.336 8  98527036.500 9        47.800          50.700          51.200          54.400
G01  23430559.844 6  23430568.547 3  23430568.379 6  23430567.906 7      3081.113 6      2403.047 3      2403.047 6      2302.920 7 123128415.822 6  95944263.162 3  95944259.157 6  91946589.041 7        37.700          22.600          40.700          47.500
G07  25081050.289 5  25081055.137 2  25081054.293 5                     -1658.258 5     -1288.176 2     -1288.176 5                 131801850.822 5 102702729.943 2 102702699.905 5                        32.600          15.600          35.400
G08  20501225.297 8  20501231.535 9  20501232.098 8  20501231.219 9       986.715 8       773.740 9       773.740 8       741.501 9 107734659.300 8  83949145.608 9  83949147.610 8  80451267.690 9        50.800          55.800          51.300          56.100
G10  21511981.984 8  21511988.180 9  21511987.719 8  21511986.547 8     -1324.008 8     -1025.076 9     -1025.077 8      -982.365 8 113046247.517 8  88088023.769 9  88088014.781 8  84417685.954 8        51.600          54.100          49.300          53.700
G16  23107608.500 7  23107612.059 4                                     -3514.340 7     -2735.738 4                                 121431266.676 7  94621815.455 4                                        43.600          28.300
G21  21647665.195 7  21647668.891 6                                      1437.633 7      1123.549 6                                 113759346.115 7  88643603.854 6                                        47.800          37.700
G22  24403259.570 5  24403261.801 2                                      3720.828 5                                                 128239990.06315  99927284.55512                                        32.800          17.800
G23  23544050.336 6  23544055.656 4  23544055.563 6  23544059.059 7     -3090.098 6     -2404.281 4     -2404.281 6     -2304.102 7 123724835.379 6  96408987.949 4  96409004.960 6  92391981.118 7        38.100          24.700          41.900          45.900
G27  20479915.711 8  20479921.996 9  20479922.098 8  20479921.977 9     -1160.230 8      -898.782 9      -898.782 8      -861.332 9 107622587.717 8  83861884.074 9  83861885.076 8  80367644.996 9        51.600          55.000          51.600          56.600
G32  24478960.352 6  24478967.047 5  24478966.910 6  24478966.500 7      2730.934 6      2129.695 5      2129.696 6      2040.958 7 128637813.838 6 100237267.881 5 100237272.894 6  96060720.019 7        39.700          33.700          38.100          43.000
R01  20981278.555 7  20981278.043 7  20981284.063 6  20981284.484 6      3008.148 7      3017.649 7      2347.059 6      2347.059 6 112157013.361 7 112157026.378 7  87233218.089 6  87233218.099 6        45.200          44.300          41.800          40.300
R07  23721880.109 6  23721879.305 6  23721885.043 6  23721885.637 6     -3393.777 6     -3386.236 6     -2633.738 6     -2633.739 6 126985135.040 6 126985070.046 6  98766199.806 6  98766203.813 6        37.400          36.600          41.300          39.600
R08  21016092.852 7  21016092.117 7  21016095.551 7  21016095.129 7      -475.883 7      -462.307 7      -359.573 7      -359.573 7 112540222.671 7 112540224.689 7  87531293.622 7  87531310.622 7        46.800          44.800          46.000          45.600
R14  21471594.859 7  21471593.719 7  21471599.941 7  21471599.660 7     -2681.836 7     -2672.219 7     -2078.391 7     -2078.391 7 114455646.268 7 114455662.270 7  89021089.686 7  89021088.690 7        46.400          45.300          45.000          45.100
R15  21899420.945 7  21899420.895 7  21899424.648 7  21899424.301 7       961.469 7       974.555 7       757.987 7       757.987 7 117023865.347 7 117023902.341 7  91018558.934 7  91018567.919 7        47.500          45.500          43.000          42.400
R17  22454604.141 7  22454602.711 7  22454606.148 6  22454606.453 6      2822.016 7      2823.337 7      2195.929 6      2195.929 6 120159140.560 7 120159134.565 7  93457125.694 6  93457128.700 6        44.700          44.100          41.600          40.600
R23  20736781.500 8  20736780.844 7                                     -1809.605 8     -1805.742 7                                 110927824.773 8 110927903.781 7                                        48.500          46.700
R24  19790999.484 8  19790999.461 8  19791002.199 8  19791002.309 7       617.516 8       622.260 8       483.980 8       483.980 7 105831342.056 8 105831502.080 8  82313299.369 8  82313333.368 7        52.600          50.800          48.100          47.700
S36  37802876.953 7  37802868.160 7        -1.875 7        -1.325 7 198656960.255 7 148347466.287 7        45.200          46.900
> 2022 01 01 00 05 00.0000000  0 37
C05  39857606.547 5  39857596.227 6  39857601.012 6          .262 5          .284 6          .270 6 207549054.51015 168650533.59216 160490039.26816        35.200          37.400          38.100
C06  40960822.266 5  40960809.125 5  40960817.246 5      1747.859 5      1421.699 5      1352.908 5 213293737.247 5 173318592.109 5 164932239.987 5        32.900          34.700          34.600
C16  41135538.875 5  41135529.023 5  41135538.422 5      1571.676 5      1278.674 5      1216.802 5 214203545.773 5 174057889.325 5 165635769.510 5        34.900          31.900          33.900
C20  25268895.406 7  25268878.785 7                      3394.977 7      2759.849 7                 131581772.046 7 106920962.652 7                        43.200          42.300
C26  26794751.523 5  26794742.648 5                      1580.063 5      1289.261 5                 139527298.860 5 113377325.923 5                        34.000          35.700
C27  24027164.344 7  24027155.414 7                     -2271.625 7     -1844.092 7                 125115784.366 7 101666801.986 7                        47.100          45.000
C29  23597723.234 7  23597713.426 7                      2247.113 7      1827.248 7                 122879558.509 7  99849679.695 7                        46.700          47.500
C30  21540268.133 8  21540260.781 8                      -113.910 8       -89.246 8                 112165859.685 8  91143981.857 8                        52.500          52.600
E01  25152937.563 8  25152941.813 8  25152939.867 8  25152940.910 9     -2266.109 8     -1688.573 8     -1732.624 8     -1710.599 9 132179580.402 8  98705550.574 8 101280467.281 8  99993009.035 9        48.600          50.300          50.700          54.100
E07  26550936.852 7  26550942.531 7  26550940.422 7  26550941.516 8      2083.609 7      1559.050 7      1599.722 7      1579.386 8 139526114.393 7 104191605.895 7 106909637.069 7 105550619.580 8        43.500          45.700          45.600          48.900
E08  25173005.133 7  25173007.355 7  25173005.727 7  25173006.758 7      -138.434 7       -98.089 7      -100.647 7       -99.368 7 132285043.607 7  98784302.299 7 101361277.152 7 100072788.827 7        42.400          43.300          43.600          47.100
E13  26653493.789 7  26653498.543 7  26653496.125 7  26653497.129 8     -2174.027 7     -1623.296 7     -1665.644 7     -1644.470 8 140065084.705 7 104594085.100 7 107322620.991 7 105958350.143 8        42.600          44.900          44.600          48.300
E21  28065604.102 6  28065610.109 6  28065607.215 6  28065608.559 7     -3219.016 6     -2404.133 6     -2466.849 6     -2435.491 7 147485780.551 6 110135521.648 6 113008617.516 6 111572071.188 7        36.800          41.000          39.100          43.200
E24  28724236.180 6  28724239.023 6  28724236.516 6  28724237.816 7      2470.270 6      1847.589 6      1895.785 6      1871.688 7 150946877.054 6 112720076.509 6 115660596.805 6 114190337.259 7        36.500          41.100          39.800          44.000
E26  23736995.180 8  23736998.059 8  23736995.773 9  23736997.004 9      -583.617 8      -434.015 8      -445.337 9      -439.676 9 124738786.248 8  93149122.459 8  95579089.825 9  94364107.249 9        51.200          53.900          54.000          56.300
E31  25401699.859 7  25401705.055 8  25401702.883 8  25401703.934 8       524.660 7       397.132 8       407.492 8       402.312 8 133486828.511 7  99681741.078 8 102282123.853 8 100981933.569 8        46.200          49.900          49.300          52.800
E33  24776133.672 7  24776136.602 8  24776134.531 8  24776135.660 9      1406.164 7      1051.659 8      1079.093 8      1065.376 9 130199478.379 7  97226903.692 8  99763248.538 8  98495075.221 9        47.800          51.200          51.500          54.200
G01  23412987.008 6  23412995.152 3  23412994.465 6  23412994.055 7      3075.680 6      2398.705 3      2398.705 6      2298.759 7 123036065.622 6  95872301.999 3  95872297.998 6  91877626.281 7        39.500          22.900          40.400          47.600
G07  25090547.750 5  25090552.328 2  25090551.492 5                     -1668.703 5     -1296.216 2     -1296.219 5                 131851755.321 5 102741616.426 2 102741586.470 5                        32.600          15.600          34.600
G08  20495628.164 8  20495634.492 9  20495635.215 8  20495634.191 9       974.227 8       763.976 9       763.977 8       732.144 9 107705246.211 8  83926226.316 9  83926228.312 8  80429303.381 9        50.500          56.100          51.500          56.200
G10  21519588.352 8  21519594.613 8  21519594.297 8  21519593.316 8     -1340.758 8     -1038.251 8     -1038.251 8      -994.991 8 113086220.180 8  88119171.305 8  88119162.302 8  84447535.671 8        51.300          53.900          48.900          53.800
G16  23127690.148 7  23127693.543 4                                     -3520.980 7     -2741.048 4                                 121536797.036 7  94704046.898 4                                        43.800          27.600
G21  21639481.805 7  21639485.547 6                                      1429.383 7      1117.004 6                                 113716341.460 7  88610093.741 6                                        47.600          36.500
G22  24382028.078 5  24382030.941 3                                      3717.238 5                                                 128128419.50115  99840346.46413                                        32.000          18.600
G23  23561718.797 6  23561723.504 4  23561723.047 6  23561727.090 7     -3099.293 6     -2411.503 4     -2411.503 6     -2311.024 7 123817678.237 6  96481333.033 4  96481350.047 6  92461311.844 7        40.000          27.400          41.400          46.000
G27  20486577.344 8  20486583.707 9  20486583.859 8  20486583.656 9     -1173.598 8      -909.275 9      -909.275 8      -871.389 9 107657594.823 8  83889162.327 9  83889163.322 8  80393786.659 9        52.600          54.900          51.600          56.600
G30  25505356.664 4                  25505362.836 5  25505362.238 6      -780.809 4                                                 134031682.50014                 104440192.64315 100088506.75016        28.600                          32.400          38.100
G32  24463383.320 6  24463389.109 5  24463389.844 6  24463389.824 7      2726.594 6      2126.262 5      2126.263 6      2037.669 7 128555952.737 6 100173480.017 5 100173485.015 6  95999589.959 7        38.300          33.300          37.900          43.400
R01  20964450.055 7  20964449.082 7  20964455.219 6  20964455.438 6      2989.184 7      2998.679 7      2332.305 6      2332.305 6 112067053.010 7 112067066.020 7  87163248.931 6  87163248.949 6        45.200          43.900          41.400          40.400
R07  23740942.875 6  23740941.883 6  23740944.094 6  23740944.609 5     -3408.652 6     -3401.181 6     -2645.365 6     -2645.364 5 127087170.449 6 127087105.464 6  98845560.743 6  98845564.731 5        40.000          38.700          37.100          35.800
R08  21018834.727 7  21018834.320 7  21018837.016 7  21018837.156 7      -502.906 7      -489.454 7      -380.687 7      -380.687 7 112554906.309 7 112554908.320 7  87542714.229 7  87542731.230 7        46.600          45.300          46.600          46.000
R14  21486741.164 7  21486740.441 7  21486746.887 7  21486746.809 7     -2700.844 7     -2691.374 7     -2093.290 7     -2093.289 7 114536387.490 7 114536403.491 7  89083888.378 7  89083887.370 7        47.000          45.700          44.900          43.900
R15  21894096.477 7  21894095.949 7  21894098.887 7  21894099.648 7       935.559 7       948.549 7       737.761 7       737.761 7 116995408.876 7 116995445.868 7  90996426.099 7  90996435.095 7        46.600          45.000          43.400          43.800
R17  22438788.969 7  22438788.070 7  22438791.930 6  22438791.668 6      2819.703 7      2820.894 7      2194.027 6      2194.027 6 120074513.756 7 120074507.760 7  93391304.880 6  93391307.881 6        44.400          43.400          41.600          40.500
R23  20746950.664 7  20746949.859 7                                     -1817.082 7     -1813.341 7                                 110982225.006 7 110982304.020 7                                        47.800          46.000
R24  19787561.727 8  19787562.191 8  19787564.953 8  19787565.246 8       608.031 8       612.697 8       476.543 8       476.542 8 105812961.141 8 105813121.159 8  82299003.091 8  82299037.095 8        52.600          50.500          49.000          48.400
S36  37802886.359 7  37802878.051 7        -1.648 7        -1.262 7 198657016.501 7 148347504.148 7        44.900          46.500
> 2022 01 01 00 05 30.0000000  0 37
C05  39857605.320 5  39857594.676 6  39857599.629 6          .137 5          .197 6          .188 6 207549047.214 5 168650527.668 6 160490033.633 6        35.200          36.900          38.200
C06  40950759.773 5  40950748.688 5  40950756.313 5      1744.898 5      1419.005 5      1350.344 5 213241348.467 5 173276021.948 5 164891729.671 5        31.200          34.700          33.700
C16  41126496.234 5  41126486.672 5  41126496.121 5      1567.691 5      1275.392 5      1213.680 5 214156459.097 5 174019627.559 5 165599359.112 5        34.900          33.700          34.000
C20  25249345.008 7  25249329.195 7                      3391.801 7      2757.371 7                 131479971.690 7 106838241.535 7                        42.400          42.700
C26  26785687.125 5  26785678.578 6                      1566.734 5      1278.474 6                 139480098.438 5 113338971.700 6                        34.300          36.700
C27  24040265.023 7  24040255.797 7                     -2276.176 7     -1847.778 7                 125184003.165 7 101722235.339 7                        46.200          45.100
C29  23584786.992 7  23584777.133 7                      2243.828 7      1824.605 7                 122812195.266 7  99794941.557 7                        46.600          47.400
C30  21540948.781 8  21540941.348 8                      -122.285 8       -95.994 8                 112169403.715 8  91146861.664 8                        52.500          52.200
E01  25165902.867 7  25165907.227 8  25165905.074 8  25165906.383 9     -2275.977 7     -1695.975 8     -1740.218 8     -1718.096 9 132247714.356 7  98756429.817 8 101332673.812 8 100044551.917 9        47.600          49.800          50.300          54.000
E07  26539067.164 7  26539073.152 7  26539070.215 7  26539071.871 8      2074.898 7      1552.616 7      1593.120 7      1572.867 8 139463739.722 7 104145027.423 7 106861843.483 7 105503433.562 8        43.700          45.700          45.100          49.000
E08  25173836.570 7  25173838.938 7  25173836.977 7  25173838.273 7      -152.816 7      -108.764 7      -111.602 7      -110.183 7 132289413.058 7  98787565.216 7 101364625.199 7 100076094.318 7        42.800          43.600          43.200          47.300
E13  26665907.016 7  26665911.203 7  26665908.422 7  26665910.145 7     -2174.594 7     -1623.716 7     -1666.073 7     -1644.895 7 140130315.724 7 104642796.583 7 107372603.189 7 106007696.995 7        42.600          44.200          43.400          47.000
E21  28083979.227 6  28083984.230 6  28083982.152 6  28083983.320 7     -3218.156 6     -2403.533 6     -2466.235 6     -2434.884 7 147582339.883 6 110207627.633 6 113082604.573 6 111645117.696 7        37.900          40.200          39.300          43.000
E24  28710155.094 6  28710157.848 6  28710155.480 6  28710156.926 7      2462.781 6      1841.899 6      1889.948 6      1865.923 7 150872880.852 6 112664819.553 6 115603898.359 6 114134359.558 7        36.900          40.700          40.400          43.800
E26  23740341.711 8  23740344.535 8  23740342.195 8  23740343.461 9      -588.621 8      -437.740 8      -449.159 8      -443.450 9 124756371.982 8  93162254.665 8  95592564.610 8  94377410.739 9        51.700          53.900          53.500          56.600
E31  25398747.008 7  25398752.137 8  25398749.582 8  25398750.934 8       510.000 7       386.271 8       396.348 8       391.310 8 133471310.490 7  99670152.939 8 102270233.410 8 100970194.281 8        47.600          49.900          49.000          52.900
E33  24768119.734 8  24768122.625 8  24768120.348 8  24768121.590 9      1401.609 8      1048.296 8      1075.643 8      1061.969 9 130157364.228 8  97195454.824 8  99730979.257 8  98463216.143 9        48.000          51.400          50.800          54.400
G01  23395445.086 6  23395453.277 3  23395453.027 6  23395452.352 7      3070.000 6      2394.337 3      2394.337 6      2294.573 7 122943883.586 6  95800471.875 3  95800467.888 6  91808789.109 7        39.300          22.500          40.100          47.400
G07  25100102.586 5  25100106.992 2  25100106.285 5                     -1678.734 5     -1304.256 2     -1304.186 5                 131901966.65115 102780742.06412 102780712.038 5                        33.000          16.900          34.800
G08  20490102.914 8  20490109.410 9  20490110.121 8  20490108.832 9       961.594 8       754.170 9       754.169 8       722.746 9 107676210.680 8  83903601.227 9  83903603.230 8  80407621.001 9        50.900          55.300          51.100          56.100
G10  21527291.047 8  21527297.508 9  21527297.320 8  21527296.332 8     -1357.656 8     -1051.390 9     -1051.390 8     -1007.582 8 113126698.703 8  88150713.007 9  88150704.012 8  84477763.138 8        52.000          54.000          49.000          53.700
G16  23147810.344 7  23147813.570 4                                     -3527.715 7     -2746.306 4                                 121642529.802 7  94786436.071 4                                        42.800          28.300
G21  21631346.391 7  21631349.984 6                                      1420.965 7      1110.462 6                                 113673588.655 7  88576779.875 6                                        47.800          37.300
G22  24360818.523 5  24360821.238 3                                      3713.203 5      2895.027 3                                 128016960.985 5  99753495.654 3                                        32.600          19.000
G23  23579438.367 6  23579442.953 4  23579442.867 7  23579447.762 7     -3108.484 6     -2418.664 4     -2418.662 7     -2317.884 7 123910796.770 6  96553892.941 4  96553909.919 7  92530848.369 7        39.200          24.900          42.000          47.500
G27  20493315.758 8  20493322.152 9  20493322.305 8  20493322.109 9     -1187.055 8      -919.773 9      -919.773 8      -881.449 9 107693006.090 8  83916755.509 9  83916756.503 8  80420230.128 9        52.300          55.200          51.400          56.600
G30  25509856.094 4                  25509864.555 5  25509863.711 6      -795.730 4                      -614.427 5      -588.824 6 134055337.88814                 104458625.451 5 100106171.465 6        29.100                          32.900          38.300
G32  24447831.180 6  24447837.832 5  24447838.301 6  24447838.426 7      2721.902 6      2122.748 5      2122.749 6      2034.299 7 128474226.968 6 100109797.592 5 100109802.558 6  95938560.991 7        39.900          35.400          38.300          44.000
R01  20947728.211 7  20947727.660 7  20947733.566 6  20947733.848 6      2970.023 7      2979.571 7      2317.442 6      2317.444 6 111977665.884 7 111977678.886 7  87093725.657 6  87093725.638 6        44.600          43.900          41.100          40.600
R07  23760086.438 6  23760085.156 6  23760091.703 6  23760090.320 6     -3423.547 6     -3416.009 6     -2656.896 6     -2656.897 6 127189650.738 6 127189585.737 6  98925267.617 6  98925271.642 6        38.800          37.800          40.000          39.400
R08  21021729.023 7  21021728.801 7  21021731.664 7  21021731.289 7      -530.145 7      -516.610 7      -401.808 7      -401.808 7 112570404.604 7 112570406.630 7  87554768.457 7  87554785.471 7        46.900          45.200          46.200          46.400
R14  21501995.844 7  21501994.781 7  21502000.488 7  21502000.246 7     -2719.836 7     -2710.412 7     -2108.098 7     -2108.097 7 114617699.851 7 114617715.861 7  89147131.311 7  89147130.294 7        47.200          46.300          44.300          44.200
R15  21888916.055 7  21888917.180 7  21888920.504 7  21888920.305 7       909.445 7       922.491 7       717.494 7       717.493 7 116967734.152 7 116967771.141 7  90974901.290 7  90974910.304 7        47.000          45.700          44.100          42.800
R17  22422988.719 7  22422987.734 7  22422990.523 6  22422990.945 6      2817.164 7      2818.435 7      2192.116 6      2192.116 6 119989960.691 7 119989954.701 7  93325541.400 6  93325544.403 6        44.300          42.900          41.800          41.300
R23  20757163.156 8  20757162.117 7                                     -1824.641 8     -1820.939 7                                 111036853.195 8 111036932.203 7                                        48.000          46.000
R24  19784178.633 8  19784178.563 8  19784181.867 8  19784181.570 8       598.340 8       603.125 8       469.097 8       469.097 8 105794867.385 8 105795027.404 8  82284930.174 8  82284964.172 8        52.900          50.900          48.700          48.600
S36  37802896.203 7  37802887.820 7        -1.355 7        -1.354 7 198657063.718 7 148347544.755 7        44.300          46.500
> 2022 01 01 00 06 00.0000000  0 37
C05  39857604.234 5  39857593.902 6  39857598.699 6          .238 5          .112 6          .107 6 207549043.079 5 168650524.301 6 160490030.428 6        35.200          37.700          38.100
C06  40940720.547 5  40940707.359 5  40940714.082 5      1741.203 5      1416.311 5      1347.780 5 213189059.68815 173233533.03315 164851296.66115        33.100          34.900          34.500
C16  41117477.500 5  41117467.621 5  41117477.465 5      1563.430 5      1272.098 5      1210.545 5 214109494.042 5 173981464.616 5 165563042.774 5        33.700          33.600          35.400
C20  25229813.742 7  25229797.469 7                      3388.789 7      2754.832 7                 131378265.064 7 106755596.573 7                        42.700          42.400
C26  26776700.117 5  26776690.980 6                      1553.547 5      1267.657 6                 139433297.366 5 113300941.979 6                        34.900          36.900
C27  24053391.750 7  24053382.582 7                     -2280.633 7     -1851.457 7                 125252357.780 7 101777779.057 7                        46.500          44.500
C29  23571869.328 7  23571859.711 7                      2240.648 7      1821.947 7                 122744930.152 7  99740283.151 7                        47.200          47.200
C30  21541677.141 8  21541669.949 8                      -130.492 8      -102.749 8                 112173197.156 8  91149944.148 8                        51.900          51.900
E01  25178924.531 8  25178928.906 8  25178926.848 8  25178928.090 8     -2285.715 8     -1703.331 8     -1747.766 8     -1725.549 8 132316143.865 8  98807529.749 8 101385106.793 8 100096318.378 8        48.200          50.100          50.600          53.600
E07  26527247.109 7  26527252.859 7  26527251.434 7  26527251.898 8      2066.250 7      1546.138 7      1586.472 7      1566.305 8 139401625.299 7 104098643.273 7 106814249.320 7 105456444.401 8        44.200          45.000          46.400          48.900
E08  25174749.781 7  25174751.762 7  25174749.434 7  25174751.328 7      -166.910 7      -119.436 7      -122.552 7      -120.994 7 132294211.249 7  98791148.307 7 101368301.752 7 100079724.132 7        42.600          43.300          43.300          47.000
E13  26678322.977 7  26678326.777 7  26678324.121 7  26678326.305 7     -2175.168 7     -1624.128 7     -1666.495 7     -1645.312 7 140195563.305 7 104691520.417 7 107422598.055 7 106057056.348 7        42.400          43.700          42.600          47.000
E21  28102348.898 6  28102354.250 6  28102351.488 6  28102353.086 7     -3217.129 6     -2402.889 6     -2465.572 6     -2434.231 7 147678873.306 6 110279714.299 6 113156571.736 6 111718144.624 7        37.900          40.400          39.300          43.200
E24  28696117.820 6  28696120.926 6  28696118.098 6  28696119.781 7      2455.180 6      1836.167 6      1884.066 6      1860.116 7 150799114.909 6 112609734.554 6 115547376.373 6 114078556.073 7        37.100          41.700          39.500          44.600
E26  23743716.672 8  23743719.340 8  23743717.074 8  23743718.301 9      -593.547 8      -441.454 8      -452.970 8      -447.212 9 124774106.908 8  93175498.271 8  95606153.698 8  94390827.090 9        51.200          53.400          53.700          56.800
E31  25395877.203 7  25395882.406 8  25395879.863 8  25395881.074 8       495.492 7       375.401 8       385.194 8       380.298 8 133456229.176 7  99658890.907 8 102258677.590 8 100958785.354 8        47.200          49.800          49.000          53.000
E33  24760130.984 8  24760134.141 8  24760131.816 8  24760133.168 9      1397.191 8      1044.939 8      1072.199 8      1058.569 9 130115384.916 8  97164106.646 8  99698813.297 8  98431459.082 9        48.000          51.200          51.100          54.700
G01  23377935.672 6  23377943.109 3  23377942.824 6  23377942.383 7      3064.340 6      2389.957 3      2389.957 6      2290.374 7 122851870.251 6  95728773.178 3  95728769.180 6  91740077.892 7        38.300          22.200          38.800          46.500
G07  25109714.875 5  25109718.984 2  25109719.215 5                     -1688.945 5     -1312.297 2     -1312.097 5                 131952482.46915 102820104.91612 102820074.959 5                        33.400          15.600          34.900
G08  20484649.813 8  20484655.949 9  20484656.719 8  20484655.805 9       949.039 8       744.335 9       744.335 8       713.321 9 107647553.794 8  83881271.187 9  83881273.182 8  80386221.368 9        50.900          55.000          51.300          56.300
G10  21535089.898 8  21535096.352 8  21535095.938 8  21535094.973 8     -1374.398 8     -1064.484 8     -1064.484 8     -1020.130 8 113167681.334 8  88182647.518 8  88182638.528 8  84508367.043 8        51.500          53.900          48.700          53.800
G16  23167969.000 7  23167971.922 4                                     -3534.320 7     -2751.503 4                                 121748462.671 7  94868981.164 4                                        43.100          27.500
G21  21623258.500 7  21623262.363 6                                      1412.586 7      1103.932 6                                 113631087.276 7  88543661.916 6                                        47.600          37.800
G22  24339630.328 5  24339632.828 2                                      3709.684 5      2892.064 2                                 127905616.467 5  99666733.731 2                                        32.800          17.800
G23  23597210.320 6  23597215.070 4  23597214.863 6  23597218.219 7     -3117.598 6     -2425.751 4     -2425.752 6     -2324.679 7 124004188.223 6  96626665.468 4  96626682.474 6  92600588.735 7        39.000          25.700          41.800          46.000
G27  20500131.195 8  20500137.504 9  20500137.758 8  20500137.387 9     -1200.484 8      -930.267 9      -930.268 8      -891.506 9 107728821.396 8  83944663.529 9  83944664.531 8  80446975.314 9        51.900          55.000          51.600          56.700
G30  25514444.898 5                  25514450.965 5  25514451.066 6      -810.531 5                      -626.048 5      -599.967 6 134079440.85515                 104477406.902 5 100124170.472 6        30.300                          32.200          39.000
G32  24432306.133 6  24432311.984 5  24432312.152 6  24432311.875 7      2717.273 6      2119.156 5      2119.154 6      2030.857 7 128392639.484 6 100046222.926 5 100046227.943 6  95877635.271 7        39.800          35.000          38.400          43.200
R01  20931114.914 7  20931114.039 7  20931118.492 6  20931119.973 6      2950.758 7      2960.326 7      2302.475 6      2302.475 6 111888856.106 7 111888869.115 7  87024651.395 6  87024651.399 6        45.200          45.000          41.400          40.900
R07  23779313.430 6  23779311.938 6  23779316.555 6  23779315.410 6     -3437.793 6     -3430.710 6     -2668.331 6     -2668.330 6 127292572.015 6 127292507.036 6  99005317.545 6  99005321.545 6        39.900          38.300          37.800          37.100
R08  21024775.672 7  21024775.105 7  21024777.980 7  21024777.527 7      -557.168 7      -543.727 7      -422.900 7      -422.900 7 112586716.430 7 112586718.449 7  87567455.466 7  87567472.459 7        46.500          45.300          46.200          46.100
R14  21517356.367 7  21517355.141 7  21517360.766 7  21517360.805 7     -2738.609 7     -2729.310 7     -2122.795 7     -2122.795 7 114699579.149 7 114699595.158 7  89210815.161 7  89210814.158 7        47.300          46.200          44.900          43.600
R15  21883883.992 7  21883884.234 7  21883887.859 7  21883887.945 7       883.465 7       896.411 7       697.208 7       697.209 7 116940841.802 7 116940878.804 7  90953985.036 7  90953994.039 7        46.400          45.200          44.500          43.600
R17  22407201.680 7  22407200.918 7  22407204.570 7  22407204.523 6      2814.820 7      2815.969 7      2190.197 7      2190.198 6 119905481.622 7 119905475.629 7  93259835.482 7  93259838.478 6        44.600          43.100          43.000          41.500
R23  20767418.172 7  20767416.824 7                                     -1832.273 7     -1828.536 7                                 111091709.267 7 111091788.268 7                                        47.500          46.400
R24  19780849.047 8  19780848.777 8  19780851.844 8  19780851.750 8       588.824 8       593.518 8       461.625 8       461.625 8 105777061.858 8 105777221.862 8  82271081.420 8  82271115.425 8        52.600          51.200          49.100          48.400
S36  37802906.297 7  37802897.582 7        -1.656 7        -1.401 7 198657109.507 7 148347586.770 7        45.200          46.400
> 2022 01 01 00 06 30.0000000  0 37
C05  39857604.664 5  39857593.707 6  39857598.926 6         -.156 5          .024 6          .023 6 207549042.191 5 168650523.578 6 160490029.733 6        35.500          36.600          38.300
C06  40930697.641 5  40930684.750 5  40930691.906 5      1737.984 5      1413.578 5      1345.179 5 213136871.315 5 173191125.688 5 164810941.304 5        32.500          34.200          35.200
C16  41108482.250 5  41108472.961 5  41108481.770 5      1559.316 5      1268.793 5      1207.400 5 214062650.976 5 173943400.821 5 165526820.782 5        35.500          34.100          34.200
C20  25210300.672 7  25210284.246 7                      3385.348 7      2752.230 7                 131276654.494 7 106673029.673 7                        42.900          43.000
C26  26767789.422 5  26767779.914 5                      1539.805 5      1256.805 5                 139386896.979 5 113263237.824 5                        35.200          35.400
C27  24066544.789 7  24066535.922 7                     -2285.266 7     -1855.130 7                 125320847.997 7 101833432.957 7                        46.800          45.600
C29  23558970.477 7  23558960.898 7                      2237.180 7      1819.271 7                 122677763.831 7  99685705.009 7                        46.700          47.200
C30  21542453.797 8  21542446.340 8                      -139.027 8      -109.516 8                 112177240.420 8  91153229.627 8                        52.400          52.000
E01  25192002.305 8  25192006.520 8  25192004.480 8  25192005.707 8     -2295.621 8     -1710.646 8     -1755.271 8     -1732.958 8 132384867.212 8  98858849.118 8 101437764.921 8 100148307.126 8        48.400          49.800          50.300          53.700
E07  26515477.430 7  26515482.953 7  26515481.152 7  26515481.906 8      2057.406 7      1539.614 7      1579.777 7      1559.696 8 139339772.968 7 104052454.856 7 106766856.003 7 105409653.534 8        43.700          45.500          46.300          49.100
E08  25175744.320 6  25175746.566 7  25175744.492 7  25175746.023 7      -181.414 6      -130.109 7      -133.503 7      -131.807 7 132299438.260 6  98795051.580 7 101372306.855 7 100083678.329 7        41.800          43.400          43.300          47.000
E13  26690742.148 7  26690747.199 7  26690744.184 7  26690745.734 7     -2175.848 7     -1624.535 7     -1666.915 7     -1645.725 7 140260827.289 7 104740256.463 7 107472605.497 7 106106428.088 7        42.700          44.200          43.700          47.000
E21  28120713.594 6  28120718.871 6  28120716.086 6  28120717.484 7     -3216.270 6     -2402.201 6     -2464.867 6     -2433.534 7 147775379.111 6 110351780.320 6 113230517.747 6 111791150.635 7        37.900          40.600          39.700          43.600
E24  28682124.703 6  28682127.949 6  28682125.609 6  28682126.793 7      2447.313 6      1830.392 6      1878.141 6      1854.266 7 150725580.962 6 112554822.791 6 115491032.144 6 114022928.080 7        36.500          40.900          40.200          43.900
E26  23747119.797 8  23747122.633 8  23747120.250 9  23747121.457 9      -598.668 8      -445.157 8      -456.770 9      -450.963 9 124791990.594 8  93188852.980 8  95619856.788 9  94404355.993 9        51.500          53.600          54.200          56.900
E31  25393090.359 7  25393095.672 8  25393093.105 8  25393094.391 8       480.891 7       364.518 8       374.027 8       369.273 8 133441585.066 7  99647955.357 8 102247456.770 8 100947707.168 8        47.000          50.200          49.200          53.100
E33  24752168.047 8  24752171.367 8  24752169.051 8  24752170.387 9      1392.543 8      1041.587 8      1068.759 8      1055.173 9 130073540.285 8  97132859.029 8  99666750.523 8  98399803.884 9        48.000          51.300          51.300          54.900
G01  23360457.805 6  23360466.074 3  23360466.234 6  23360464.969 7      3058.520 6      2385.555 3      2385.555 6      2286.156 7 122760026.336 6  95657206.540 3  95657202.535 6  91671493.207 7        38.800          22.300          38.800          46.600
G07  25119384.367 5  25119388.746 2  25119389.352 5                     -1698.918 5     -1319.938 2     -1319.936 5                 132003300.033 5 102859703.046 2 102859673.042 5                        34.000          13.900          35.200
G08  20479268.953 8  20479275.086 9  20479275.496 8  20479274.438 9       936.215 8       734.477 9       734.476 8       703.873 9 107619276.460 8  83859236.893 9  83859238.901 8  80365105.185 9        50.200          55.100          51.300          56.100
G10  21542984.258 8  21542990.543 8  21542990.199 8  21542989.109 8     -1391.227 8     -1077.534 8     -1077.534 8     -1032.636 8 113209166.383 8  88214973.534 8  88214964.539 8  84539346.137 8        51.300          53.800          48.500          53.500
G16  23188164.750 7  23188167.609 4                                     -3540.957 7     -2756.608 4                                 121854592.089 7  94951679.415 4                                        44.100          27.700
G21  21615218.367 7  21615222.285 6                                      1404.164 7      1097.414 6                                 113588836.829 7  88510739.506 6                                        47.500          36.900
G22  24318464.352 5  24318466.559 3                                      3705.551 5      2889.040 3                                 127794388.366 5  99580062.528 3                                        33.300          18.600
G23  23615034.000 6  23615038.102 4  23615038.109 6  23615041.824 7     -3126.531 6     -2432.772 4     -2432.772 6     -2331.406 7 124097849.957 6  96699648.639 4  96699665.635 6  92670530.928 7        40.000          25.200          40.900          46.600
G27  20507023.758 8  20507029.871 9  20507030.016 8  20507029.758 9     -1214.094 8      -940.759 9      -940.759 8      -901.561 9 107765040.637 8  83972886.307 9  83972887.309 8  80474022.137 9        52.600          54.900          51.900          56.400
G30  25519116.242 4                  25519122.750 5  25519122.320 6      -826.109 4                      -637.635 5      -611.065 6                                 104496535.957 5 100142502.436 6        29.900                          33.100          39.000
G32  24416807.016 6  24416813.422 5  24416813.875 6  24416812.477 7      2712.445 6      2115.489 5      2115.490 6      2027.344 7 128311193.148 6  99982758.249 5  99982763.260 6  95816814.939 7        39.400          33.600          38.500          42.400
R01  20914609.383 7  20914609.195 7  20914613.508 6  20914615.160 6      2931.172 7      2940.952 7      2287.407 6      2287.407 6 111800627.552 7 111800640.547 7  86956029.183 6  86956029.193 6        45.800          44.700          41.400          41.200
R07  23798621.563 6  23798621.238 6  23798626.258 6  23798624.055 6     -3452.605 6     -3445.282 6     -2679.666 6     -2679.667 6 127395930.497 6 127395865.507 6  99085707.536 6  99085711.540 6        39.900          38.600          37.900          38.100
R08  21027974.047 7  21027972.930 7  21027975.664 7  21027975.254 7      -584.363 7      -570.827 7      -443.977 7      -443.977 7 112603841.242 7 112603843.259 7  87580774.769 7  87580791.761 7        47.100          45.400          45.900          45.700
R14  21532821.602 7  21532821.656 7  21532827.105 7  21532826.766 7     -2757.426 7     -2748.068 7     -2137.385 7     -2137.385 7 114782021.170 7 114782037.188 7  89274936.715 7  89274935.712 7        47.700          46.400          43.800          43.900
R15  21878998.813 7  21878998.512 7  21879001.488 7  21879002.223 7       857.211 7       870.293 7       676.895 7       676.895 7 116914733.018 7 116914770.025 7  90933678.178 7  90933687.189 7        47.600          45.700          43.800          43.600
R17  22391427.625 7  22391427.289 7  22391431.203 6  22391431.418 6      2812.180 7      2813.484 7      2188.265 6      2188.264 6 119821077.098 7 119821071.095 7  93194187.539 6  93194190.542 6        43.900          42.800          41.800          41.000
R23  20777715.359 7  20777714.246 7                                     -1839.891 7     -1836.115 7                                 111146792.722 7 111146871.730 7                                        47.900          46.400
R24  19777572.773 8  19777572.906 8  19777575.773 8  19777576.066 8       579.145 8       583.915 8       454.156 8       454.156 8 105759544.396 8 105759704.413 8  82257456.733 8  82257490.731 8        52.500          51.200          49.800          48.100
S36  37802915.109 7  37802907.387 7        -1.805 7        -1.180 7 198657160.707 7 148347622.160 7        44.500          47.000
> 2022 01 01 00 07 00.0000000  0 37
C05  39857604.781 5  39857593.969 6  39857599.176 6          .051 5         -.057 6         -.054 6 207549044.282 5 168650525.278 6 160490031.355 6        35.500          37.500          38.400
C06  40920695.703 5  40920681.750 5  40920689.684 5      1734.598 5      1410.844 5      1342.577 5 213084783.894 5 173148800.371 5 164770664.007 5        32.900          33.900          34.700
C16  41099509.789 5  41099499.762 5  41099509.219 5      1555.191 5      1265.478 5      1204.246 5 214015930.355 5 173905436.490 5 165490693.415 5        35.300          33.000          34.500
C20  25190806.039 7  25190789.945 7                      3381.973 7      2749.572 7                 131175142.073 7 106590542.522 7                        43.000          42.700
C26  26758955.109 5  26758946.098 5                      1526.520 5      1245.953 5                 139340898.50215 113225860.29515                        34.800          35.500
C27  24079723.133 7  24079714.492 7                     -2289.867 7     -1858.795 7                 125389473.551 7 101889196.819 7                        46.300          44.800
C29  23546091.250 7  23546080.980 7                      2233.785 7      1816.579 7                 122610696.907 7  99631207.642 7                        46.100          46.700
C30  21543278.125 8  21543270.836 8                      -147.336 8      -116.290 8                 112181533.786 8  91156718.336 8                        52.800          52.400
E01  25205135.516 8  25205139.770 8  25205137.797 8  25205138.934 8     -2305.398 8     -1717.915 8     -1762.731 8     -1740.323 8 132453882.632 8  98910386.579 8 101490646.842 8 100200516.819 8        48.500          50.100          50.700          53.600
E07  26503757.344 7  26503762.805 7  26503759.938 7  26503761.938 8      2048.547 7      1533.047 7      1573.040 7      1553.043 8 139278184.488 7 104006463.456 7 106719664.811 7 105363062.246 8        43.400          46.300          45.300          48.600
E08  25176820.031 6  25176822.797 7  25176821.238 7  25176822.348 7      -195.703 6      -140.780 7      -144.454 7      -142.617 7 132305093.947 6  98799274.990 7 101376640.472 7 100087956.839 7        41.200          43.600          43.800          46.800
E13  26703165.023 6  26703169.363 7  26703167.215 7  26703168.148 7     -2176.387 6     -1624.935 7     -1667.326 7     -1646.130 7 140326107.312 6 104789004.519 7 107522625.268 7 106155811.993 7        41.600          44.500          44.000          47.500
E21  28139071.914 6  28139077.797 6  28139075.375 6  28139076.250 7     -3215.406 6     -2401.467 6     -2464.114 6     -2432.790 7 147871855.421 6 110423824.317 6 113304441.171 6 111864134.346 7        37.300          40.400          39.900          43.600
E24  28668175.898 6  28668179.367 6  28668177.434 6  28668178.156 7      2439.445 6      1824.576 6      1872.173 6      1848.375 7 150652280.651 6 112500085.502 6 115434866.948 6 113967476.830 7        36.400          40.900          39.700          44.200
E26  23750550.961 8  23750553.914 9  23750551.707 8  23750552.824 9      -603.563 8      -448.847 9      -460.556 8      -454.701 9 124810022.546 8  93202318.395 9  95633673.475 8  94417997.037 9        51.700          54.000          53.700          56.900
E31  25390386.961 7  25390392.063 8  25390389.559 8  25390390.973 8       466.215 7       353.626 8       362.851 8       358.238 8 133427378.541 7  99637346.576 8 102236571.243 8 100936960.015 8        47.000          50.000          49.500          52.700
E33  24744231.086 8  24744234.238 8  24744231.836 8  24744233.156 9      1388.078 8      1038.242 8      1065.327 8      1051.785 9 130031829.996 8  97101711.755 8  99634790.707 8  98368250.335 9        48.100          51.000          50.600          54.200
G01  23343013.000 6  23343021.652 4  23343021.340 6  23343020.387 7      3052.824 6      2381.140 4      2381.140 6      2281.925 7 122668352.410 6  95585772.343 4  95585768.345 6  91603035.448 7        38.400          24.900          39.700          46.500
G07  25129111.039 5  25129116.566 2  25129116.914 5                     -1709.090 5     -1327.709 2     -1327.710 5                 132054416.933 5 102899534.330 2 102899504.336 5                        32.400          14.800          34.700
G08  20473960.164 8  20473966.645 9  20473967.250 8  20473966.305 9       923.422 8       724.561 9       724.561 8       694.371 9 107591380.868 8  83837500.064 9  83837502.066 8  80344274.053 9        51.500          55.300          51.500          56.400
G10  21550973.672 8  21550980.121 8  21550979.801 8  21550978.891 8     -1407.863 8     -1090.537 8     -1090.537 8     -1045.098 8 113251152.057 8  88247689.644 8  88247680.663 8  84570699.077 8        51.600          53.700          48.600          53.500
G16  23208397.070 7  23208400.207 4                                     -3547.441 7     -2761.658 4                                 121960915.880 7  95034529.144 4                                        43.500          28.900
G21  21607226.227 8  21607229.906 6                                      1395.754 8      1090.897 6                                 113546837.287 8  88478012.594 6                                        48.300          37.500
G22  24297321.648 5  24297323.047 3                                      3701.523 5      2885.969 3                                 127683278.563 5  99493483.472 3                                        33.000          18.600
G23  23632908.219 6  23632912.551 4  23632912.133 6  23632916.094 7     -3135.359 6     -2439.722 4     -2439.723 6     -2338.068 7 124191779.282 6  96772840.300 4  96772857.322 6  92740672.968 7        39.800          25.800          41.200          45.800
G27  20513993.109 8  20513998.977 9  20513999.133 8  20513998.852 9     -1227.539 8      -951.246 9      -951.245 8      -911.610 9 107801663.614 8  84001423.675 9  84001424.669 8  80501370.446 9        52.200          55.000          51.600          56.400
G30  25523872.852 5                  25523878.387 5  25523878.262 6      -840.449 5                      -649.175 5      -622.125 6 134128983.00115                 104516011.218 5 100161166.197 6        31.500                          33.200          39.100
G32  24401335.664 6  24401341.547 5  24401342.547 6  24401341.516 7      2707.629 6      2111.748 5      2111.748 6      2023.758 7 128229890.856 6  99919405.805 5  99919410.819 6  95756102.191 7        40.000          34.600          38.300          43.900
R01  20898213.953 7  20898213.449 7  20898218.492 6  20898219.242 6      2911.609 7      2921.453 7      2272.241 6      2272.240 6 111712983.969 7 111712996.971 7  86887861.965 6  86887861.975 6        46.000          44.500          41.600          40.400
R07  23818012.047 6  23818010.074 6  23818014.031 6  23818013.379 6     -3466.871 6     -3459.714 6     -2690.889 6     -2690.888 6 127499721.944 6 127499656.920 6  99166434.205 6  99166438.186 6        40.100          38.300          39.600          38.600
R08  21031323.195 7  21031322.625 7  21031325.355 7  21031324.848 7      -611.469 7      -597.915 7      -465.045 7      -465.046 7 112621778.718 7 112621780.720 7  87594726.128 7  87594743.135 7        47.400          46.000          45.900          45.500
R14  21548392.266 7  21548391.563 7  21548398.777 7  21548397.379 7     -2776.039 7     -2766.690 7     -2151.869 7     -2151.869 7 114865021.876 7 114865037.877 7  89339492.774 7  89339491.772 7        46.600          45.400          44.500          43.800
R15  21874260.219 7  21874259.918 7  21874262.418 7  21874262.930 7       831.008 7       844.141 7       656.554 7       656.554 7 116889408.804 7 116889445.803 7  90913981.547 7  90913990.566 7        47.300          45.400          43.400          43.000
R17  22375669.227 7  22375668.637 7  22375672.152 7  22375672.016 6      2809.727 7      2810.990 7      2186.325 7      2186.325 6 119736747.406 7 119736741.409 7  93128597.801 7  93128600.803 6        44.200          42.700          42.100          41.400
R23  20788055.063 7  20788054.082 7                                     -1847.531 7     -1843.695 7                                 111202103.577 7 111202182.577 7                                        47.600          46.500
R24  19774350.867 8  19774351.051 8  19774353.980 8  19774354.156 8       569.473 8       574.307 8       446.683 8       446.684 8 105742315.177 8 105742475.194 8  82244056.229 8  82244090.225 8        52.700          51.300          49.000          48.300
S36  37802925.234 7  37802917.480 7        -2.117 7        -1.237 7 198657219.096 7 148347659.269 7        45.300          46.400
> 2022 01 01 00 07 30.0000000  0 37
C05  39857605.703 5  39857595.008 6  39857600.211 6         -.199 5         -.144 6         -.137 6 207549049.603 5 168650529.600 6 160490035.467 6        35.500          37.300          37.900
C06  40910711.234 5  40910698.859 5  40910706.090 5      1731.125 5      1408.093 5      1339.961 5 213032797.966 5 173106557.569 5 164730465.187 5        32.400          34.300          35.600
C16  41090561.266 5  41090551.211 5  41090560.738 5      1551.305 5      1262.146 5      1201.074 5 213969332.765 5 173867572.107 5 165454661.190 5        34.400          32.600          34.800
C20  25171331.156 7  25171314.621 7                      3378.723 7      2746.847 7                 131073730.244 7 106508137.112 7                        43.100          43.200
C26  26750199.094 5  26750190.219 6                      1513.293 5      1234.990 6                 139295303.454 5 113188810.579 6                        34.500          36.000
C27  24092928.102 7  24092919.184 7                     -2294.309 7     -1862.460 7                 125458234.387 7 101945070.611 7                        45.600          44.400
C29  23533230.758 7  23533220.855 7                      2230.461 7      1813.865 7                 122543730.161 7  99576791.688 7                        46.000          47.000
C30  21544150.594 8  21544143.680 8                      -155.730 8      -123.080 8                 112186077.840 8  91160410.748 8                        52.700          53.000
E01  25218324.078 8  25218328.438 8  25218326.246 8  25218327.469 9     -2315.094 8     -1725.147 8     -1770.151 8     -1747.649 9 132523188.558 8  98962140.985 8 101543751.362 8 100252946.285 9        48.200          50.800          50.700          54.000
E07  26492087.719 7  26492093.324 7  26492091.059 7  26492092.543 8      2039.594 7      1526.430 7      1566.250 7      1546.340 8 139216861.787 7 103960670.549 7 106672677.309 7 105316672.042 8        43.100          46.000          45.400          48.800
E08  25177978.211 7  25177980.629 7  25177978.457 7  25177980.133 7      -210.063 7      -151.454 7      -155.405 7      -153.429 7 132311178.439 7  98803818.621 7 101381302.616 7 100092559.720 7        42.400          43.800          43.000          47.000
E13  26715589.750 7  26715593.805 7  26715592.262 7  26715593.508 7     -2176.906 7     -1625.336 7     -1667.735 7     -1646.536 7 140391403.461 7 104837764.600 7 107572657.330 7 106205208.074 7        42.100          42.600          43.700          46.600
E21  28157424.977 6  28157430.406 6  28157428.109 6  28157429.289 7     -3214.469 6     -2400.695 6     -2463.321 6     -2432.009 7 147968300.748 6 110495845.179 6 113378340.807 6 111937094.602 7        38.500          41.500          40.400          44.500
E24  28654272.414 6  28654275.289 6  28654273.422 6  28654274.508 7      2431.434 6      1818.715 6      1866.160 6      1842.438 7 150579215.804 6 112445524.059 6 115378882.142 6 113912203.705 7        37.000          40.200          39.500          43.600
E26  23754010.766 8  23754013.277 8  23754011.121 9  23754012.367 9      -608.512 8      -452.531 8      -464.337 9      -458.434 9 124828202.508 8  93215894.336 8  95647603.572 9  94431750.063 9        52.000          53.600          54.000          57.200
E31  25387766.750 7  25387772.012 8  25387769.578 8  25387770.938 8       451.605 7       342.719 8       351.660 8       347.189 8 133413610.201 7  99627065.018 8 102226021.453 8 100926544.338 8        46.800          49.800          49.100          53.300
E33  24736319.289 7  24736322.637 8  24736320.281 8  24736321.500 9      1383.590 7      1034.897 8      1061.895 8      1048.396 9 129990254.118 7  97070664.835 8  99602933.870 8  98336798.459 9        47.700          50.900          51.100          54.500
G01  23325599.570 6  23325609.266 3  23325608.688 6  23325607.898 7      3047.223 6      2376.703 3      2376.703 6      2277.673 7 122576849.281 6  95514471.254 3  95514467.252 6  91534705.251 7        38.400          23.400          40.900          46.900
G07  25138894.953 5  25138900.660 2  25138900.656 5                     -1718.563 5     -1335.419 2     -1335.420 5                 132105830.700 5 102939596.908 2 102939566.921 5                        33.100          13.900          35.400
G08  20468724.852 8  20468731.109 9  20468731.660 8  20468730.633 9       910.711 8       714.637 9       714.637 8       684.860 9 107563867.341 8  83816060.957 9  83816062.959 8  80323728.244 9        50.900          56.100          51.200          56.300
G10  21559058.508 8  21559064.641 8  21559064.445 8  21559063.164 8     -1424.496 8     -1103.499 8     -1103.499 8     -1057.520 8 113293636.781 8  88280794.624 8  88280785.629 8  84602424.684 8        51.900          53.700          48.500          53.800
G16  23228666.422 7  23228669.707 4                                     -3553.723 7     -2766.629 4                                 122067431.112 7  95117528.018 4                                        43.800          27.900
G21  21599281.922 7  21599285.453 6                                      1387.375 7      1084.386 6                                 113505088.446 7  88445481.023 6                                        47.300          37.700
G22  24276200.500 5  24276202.496 2                                      3697.445 5      2882.833 2                                 127572289.478 5  99406998.466 2                                        34.100          17.800
G23  23650832.063 6  23650836.715 4  23650836.262 6  23650840.746 7     -3144.313 6     -2446.610 4     -2446.609 6     -2344.667 7 124285973.759 6  96846238.612 4  96846255.589 6  92811012.961 7        39.900          25.600          41.200          46.300
G27  20521038.727 8  20521045.059 9  20521044.980 8  20521044.828 9     -1240.969 8      -961.734 9      -961.734 8      -921.661 9 107838690.365 8  84030275.689 9  84030276.683 8  80529020.290 9        51.300          54.900          51.400          56.400
G30  25528711.867 5                  25528718.832 5  25528719.387 6      -855.109 5                      -660.679 5      -633.151 6                                 104535831.602 5 100180160.741 6        31.500                          32.900          40.200
G32  24385892.125 6  24385898.953 5  24385899.668 6  24385898.773 7      2702.668 6      2107.924 5      2107.924 6      2020.094 7 128148735.770 6  99856168.085 5  99856173.089 6  95695499.375 7        39.500          34.200          39.100          43.300
R01  20881928.438 7  20881928.297 7  20881933.129 6  20881933.996 6      2891.824 7      2901.806 7      2256.959 6      2256.960 6 111625929.784 7 111625942.787 7  86820153.178 6  86820153.174 6        45.700          44.800          41.700          40.300
R07  23837480.586 6  23837479.500 6  23837481.051 5  23837481.563 5     -3481.273 6     -3474.031 6     -2702.022 5     -2702.024 5 127603942.847 6 127603877.838 6  99247494.875 5  99247498.912 5        39.800          38.800          35.500          35.000
R08  21034824.477 7  21034823.730 7  21034827.293 7  21034826.258 7      -638.512 7      -624.953 7      -486.075 7      -486.074 7 112640527.300 7 112640529.311 7  87609308.365 7  87609325.365 7        47.400          45.300          45.900          45.900
R14  21564066.727 7  21564066.504 7  21564072.934 7  21564072.609 7     -2794.500 7     -2785.180 7     -2166.251 7     -2166.250 7 114948577.303 7 114948593.292 7  89404480.295 7  89404479.285 7        46.200          45.000          44.100          43.600
R15  21869667.164 7  21869667.746 7  21869670.441 7  21869670.484 7       804.879 7       817.964 7       636.193 7       636.194 7 116864869.881 7 116864906.889 7  90894895.747 7  90894904.738 7        47.000          45.900          42.500          42.600
R17  22359924.539 7  22359923.816 7  22359926.828 7  22359926.957 6      2807.133 7      2808.479 7      2184.372 7      2184.372 6 119652493.037 7 119652487.042 7  93063066.643 7  93063069.632 6        44.500          42.700          42.600          41.400
R23  20798437.281 7  20798436.355 7                                     -1855.117 7     -1851.270 7                                 111257641.678 7 111257720.678 7                                        47.600          46.000
R24  19771183.438 8  19771183.258 8  19771186.715 8  19771186.066 8       559.738 8       564.664 8       439.183 8       439.183 8 105725375.274 8 105725535.286 8  82230880.728 8  82230914.740 8        52.800          50.400          48.800          48.000
S36  37802935.703 7  37802927.207 7        -1.664 7        -1.219 7 198657270.983 7 148347695.848 7        45.200          46.600
> 2022 01 01 00 08 00.0000000  0 38
C05  39857607.500 5  39857596.695 6  39857601.367 6         -.469 5         -.230 6         -.219 6 207549058.093 5 168650536.491 6 160490042.029 6        35.500          36.600          37.700
C06  40900748.531 5  40900734.816 5  40900742.234 6      1727.758 5      1405.328 5      1337.328 6 212980914.188 5 173064397.717 5 164690345.345 6        33.400          33.200          36.400
C16  41081635.898 5  41081626.754 5  41081636.027 5      1546.953 5      1258.799 5      1197.889 5 213922858.718 5 173829808.144 5 165418724.515 5        33.800          33.000          35.800
C20  25151875.984 7  25151859.457 7                      3375.082 7      2744.057 7                 130972421.432 7 106425815.404 7                        43.700          44.500
C26  26741521.352 5  26741511.613 6                      1499.574 5      1224.030 6                 139250113.014 5 113152089.676 6                        35.600          36.900
C27  24106158.992 7  24106149.852 7                     -2298.938 7     -1866.122 7                 125527130.415 7 102001054.270 7                        46.200          44.600
C29  23520390.461 7  23520380.215 7                      2227.070 7      1811.132 7                 122476864.335 7  99522457.739 7                        46.800          47.700
C30  21545071.805 8  21545064.605 8                      -164.199 8      -129.884 8                 112190873.059 8  91164307.254 8                        52.500          52.300
E01  25231567.461 8  25231572.051 8  25231569.922 8  25231570.988 8     -2324.793 8     -1732.338 8     -1777.530 8     -1754.934 8 132592783.396 8  99014111.126 8 101597077.267 8 100305594.302 8        48.000          50.700          50.200          53.800
E07  26480469.703 7  26480475.520 7  26480473.227 7  26480474.246 8      2030.480 7      1519.767 7      1559.413 7      1539.590 8 139155806.817 7 103915077.548 7 106625894.929 7 105270484.346 8        43.900          45.900          45.600          48.900
E08  25179217.641 6  25179220.219 7  25179217.949 7  25179219.496 7      -224.391 6      -162.130 7      -166.359 7      -164.244 7 132317691.790 6  98808682.519 7 101386293.386 7 100097487.052 7        41.500          43.600          43.500          47.000
E13  26728018.500 6  26728022.484 7  26728020.727 7  26728021.902 7     -2177.426 6     -1625.734 7     -1668.145 7     -1646.939 7 140456715.573 6 104886536.620 7 107622701.679 7 106254616.250 7        41.400          43.400          43.200          47.000
E21  28175771.852 6  28175777.336 7  28175775.113 6  28175775.961 7     -3213.230 6     -2399.880 7     -2462.486 6     -2431.183 7 148064713.313 6 110567841.586 7 113452215.381 6 112010030.101 7        38.700          42.000          40.900          45.200
E24  28640414.063 6  28640416.742 6  28640414.727 6  28640415.824 7      2423.563 6      1812.808 6      1860.100 6      1836.454 7 150506388.200 6 112391139.815 6 115323079.136 6 113857110.088 7        37.500          40.900          40.000          44.400
E26  23757498.281 8  23757500.938 8  23757498.664 8  23757500.020 9      -613.508 8      -456.208 8      -468.110 8      -462.159 9 124846530.189 8  93229580.588 8  95661646.861 8  94445614.832 9        51.500          53.700          53.800          57.100
E31  25385230.547 7  25385235.688 8  25385233.148 8  25385234.418 8       436.824 7       331.799 8       340.454 8       336.126 8 133400280.564 7  99617111.052 8 102215807.842 8 100916460.552 8        47.100          49.700          49.000          53.100
E33  24728433.281 7  24728436.379 8  24728434.164 8  24728435.453 9      1378.980 7      1031.554 8      1058.464 8      1045.009 9 129948812.540 7  97039718.203 8  99571179.938 8  98305448.180 9        47.500          51.000          51.300          54.700
G01  23308220.406 6  23308229.273 3  23308229.148 6  23308228.102 7      3041.355 6      2372.245 3      2372.245 6      2273.402 7 122485517.773 6  95443303.900 3  95443299.900 6  91466503.195 7        38.400          22.600          40.600          46.900
G07  25148734.492 5  25148740.152 2  25148740.160 5                     -1728.723 5     -1343.070 2     -1343.070 5                 132157539.046 5 102979889.009 2 102979859.031 5                        30.500          14.800          35.500
G08  20463562.141 8  20463568.414 9  20463569.156 8  20463568.027 9       897.781 8       704.671 9       704.671 8       675.310 9 107536737.522 8  83794920.833 9  83794922.835 8  80303468.956 9        50.500          55.400          51.900          56.200
G10  21567237.719 8  21567243.895 8  21567243.086 8  21567242.531 8     -1441.156 8     -1116.419 8     -1116.419 8     -1069.901 8 113336618.912 8  88314287.190 8  88314278.188 8  84634521.720 8        51.500          53.600          49.200          53.700
G16  23248971.602 7  23248974.840 4                                     -3560.063 7     -2771.547 4                                 122174135.695 7  95200674.436 4                                        43.200          28.200
G21  21591384.867 7  21591388.742 6                                      1378.934 7      1077.881 6                                 113463590.026 7  88413144.599 6                                        47.500          37.200
G22  24255104.133 5  24255106.055 3                                      3693.246 5      2879.645 3                                 127461423.141 5  99320609.112 3                                        34.000          19.600
G23  23668807.164 6  23668811.656 4  23668811.684 7  23668816.098 7     -3152.992 6     -2453.428 4     -2453.428 7     -2351.202 7 124380430.772 6  96919841.448 4  96919858.425 7  92881549.036 7        39.000          25.200          42.400          46.800
G27  20528161.672 8  20528167.875 9  20528168.137 8  20528167.664 9     -1254.555 8      -972.221 9      -972.221 8      -931.712 9 107876120.897 8  84059442.325 9  84059443.319 8  80556971.645 9        52.200          54.900          51.700          56.400
G30  25533636.922 5                  25533642.934 5  25533643.277 6      -870.004 5                      -672.144 5      -644.137 6 134180296.67015                 104555995.920 5 100199484.864 6        32.900                          32.200          40.500
G32  24370476.547 6  24370483.961 5  24370483.871 6  24370483.539 7      2697.469 6      2104.023 5      2104.025 6      2016.356 7 128067730.884 6  99793047.385 5  99793052.352 6  95635008.704 7        38.700          34.000          38.500          43.600
R01  20865754.703 7  20865753.574 7  20865759.496 6  20865759.613 6      2871.973 7      2882.031 7      2241.580 6      2241.579 6 111539468.836 7 111539481.846 7  86752905.786 6  86752905.797 6        46.100          44.700          41.800          40.700
R02  24427064.563 5  24427064.383 5  24427069.855 5  24427070.539 5      4454.309 5                                                 130347513.88515 130347550.88215 101381398.34215 101381408.31615        35.500          34.500          34.300          34.000
R07  23857028.133 6  23857026.621 6  23857033.066 6  23857032.043 6     -3495.359 6     -3488.201 6     -2713.048 6     -2713.047 6 127708588.868 6 127708523.859 6  99328886.324 6  99328890.324 6        38.700          37.500          39.200          38.500
R08  21038477.813 7  21038475.723 7  21038479.168 7  21038479.000 7      -665.641 7      -651.988 7      -507.101 7      -507.101 7 112660086.919 7 112660088.937 7  87624521.402 7  87624538.402 7        46.500          44.700          46.200          45.600
R14  21579845.664 7  21579844.727 7  21579851.164 7  21579850.449 7     -2812.766 7     -2803.541 7     -2180.530 7     -2180.530 7 115032683.504 7 115032699.515 7  89469896.204 7  89469895.187 7        46.300          45.500          43.900          43.500
R15  21865221.844 7  21865222.379 7  21865224.730 7  21865225.340 7       778.512 7       791.744 7       615.801 7       615.801 7 116841117.563 7 116841154.568 7  90876421.710 7  90876430.700 7        47.000          45.800          43.100          42.300
R17  22344193.484 7  22344192.355 7  22344196.191 7  22344196.234 6      2804.582 7      2805.953 7      2182.408 7      2182.408 6 119568314.414 7 119568308.447 7  92997594.400 7  92997597.396 6        44.800          42.800          43.200          41.700
R23  20808861.766 8  20808861.078 7                                     -1862.781 8     -1858.840 7                                 111313406.866 8 111313485.881 7                                        48.600          46.300
R24  19768069.523 8  19768069.219 8  19768073.109 8  19768072.500 7       550.027 8       555.008 8       431.673 8       431.673 7 105708725.028 8 105708885.047 8  82217930.543 8  82217964.546 7        52.600          51.300          49.500          47.900
S36  37802945.688 7  37802936.961 7        -1.820 7        -1.412 7 198657322.281 7 148347738.199 7        45.100          46.300
> 2022 01 01 00 08 30.0000000  0 38
C05  39857609.211 5  39857599.004 6  39857603.891 6         -.477 5         -.320 6         -.304 6 207549069.900 5 168650546.096 6 160490051.164 6        35.300          37.100          37.600
C06  40890804.172 5  40890790.910 5  40890798.832 6      1724.246 5      1402.543 5      1334.678 6 212929133.177 5 173022321.418 5 164650305.007 6        31.900          33.500          36.800
C16  41072735.813 5  41072725.750 5  41072735.438 6      1542.758 5      1255.437 5      1194.689 6 213876508.761 5 173792145.025 5 165382883.834 6        34.200          33.200          36.900
C20  25132441.070 7  25132424.387 7                      3371.742 7      2741.205 7                 130871217.900 7 106343579.254 7                        43.500          44.100
C26  26732920.477 5  26732911.578 6                      1486.059 5      1213.032 6                 139205328.644 5 113115698.705 6                        35.500          36.200
C27  24119415.352 7  24119406.895 7                     -2303.383 7     -1869.780 7                 125596161.520 7 102057147.678 7                        45.600          44.900
C29  23507568.531 7  23507558.926 7                      2223.762 7      1808.378 7                 122410100.203 7  99468206.413 7                        46.300          47.100
C30  21546040.734 8  21546033.660 8                      -172.434 8      -136.698 8                 112195919.866 8  91168408.196 8                        52.500          52.900
E01  25244865.875 8  25244870.199 8  25244868.148 8  25244869.113 8     -2334.207 8     -1739.488 8     -1784.866 8     -1762.177 8 132662665.474 8  99066295.780 8 101650623.254 8 100358459.628 8        48.400          50.300          50.400          53.800
E07  26468902.570 7  26468908.570 7  26468905.773 7  26468907.121 8      2021.602 7      1513.056 7      1552.528 7      1532.792 8 139095021.409 7 103869685.864 7 106579319.101 7 105224500.591 8        43.500          46.000          45.700          49.100
E08  25180538.117 6  25180540.918 7  25180539.348 7  25180540.578 7      -238.656 6      -172.805 7      -177.313 7      -175.059 7 132324634.059 6  98813866.664 7 101391612.774 7 100102738.827 7        41.400          43.200          43.400          47.000
E13  26740450.406 6  26740454.996 7  26740452.617 7  26740453.578 7     -2177.855 6     -1626.129 7     -1668.550 7     -1647.340 7 140522043.584 6 104935320.500 7 107672758.171 7 106304036.437 7        41.500          43.500          44.300          47.400
E21  28194111.984 6  28194117.395 7  28194114.680 6  28194116.160 7     -3211.914 6     -2399.024 7     -2461.608 6     -2430.316 7 148161091.516 6 110639812.309 7 113526063.612 6 112082939.570 7        36.700          42.000          41.300          45.000
E24  28626601.406 6  28626604.051 6  28626601.684 6  28626602.695 7      2415.719 6      1806.859 6      1853.992 6      1830.426 7 150433799.681 6 112336934.055 6 115267459.366 6 113802197.319 7        37.500          40.200          39.800          43.500
E26  23761013.930 8  23761016.672 8  23761014.434 9  23761015.719 9      -618.309 8      -459.876 8      -471.873 9      -465.875 9 124865005.222 8  93243376.872 8  95675803.053 9  94459591.069 9        51.700          53.700          54.000          56.900
E31  25382777.398 7  25382782.328 8  25382780.168 8  25382781.453 8       422.344 7       320.867 8       329.237 8       325.052 8 133387390.105 7  99607485.048 8 102205930.720 8 100906708.990 8        47.100          49.500          49.100          52.800
E33  24720572.734 7  24720575.848 8  24720573.441 8  24720574.938 9      1374.695 7      1028.216 8      1055.039 8      1041.627 9 129907505.078 7  97008871.730 8  99539528.775 8  98274199.362 9        47.800          51.500          51.700          54.400
G01  23290873.352 6  23290881.797 3  23290881.379 6  23290880.910 7      3035.816 6      2367.770 3      2367.770 6      2269.112 7 122394358.585 6  95372270.817 3  95372266.813 6  91398429.829 7        38.500          23.000          40.100          46.900
G07  25158630.633 5  25158635.957 2  25158635.832 6                     -1737.980 5     -1350.646 2     -1350.648 6                 132209538.994 5 103020408.385 2 103020378.461 6                        34.100          16.300          36.100
G08  20458472.789 8  20458478.945 9  20458479.875 8  20458478.711 9       884.988 8       694.662 9       694.663 8       665.718 9 107509993.030 8  83774080.963 9  83774082.958 8  80283497.409 9        51.000          55.400          51.200          56.400
G10  21575511.211 8  21575517.449 8  21575517.262 8  21575516.168 8     -1457.453 8     -1129.295 8     -1129.296 8     -1082.241 8 113380096.771 8  88348166.034 8  88348157.053 8  84666988.949 8        51.500          53.400          48.800          53.500
G16  23269312.578 7  23269315.602 4                                     -3566.117 7     -2776.382 4                                 122281026.415 7  95283965.907 4                                        43.700          29.000
G21  21583535.508 7  21583539.438 6                                      1370.777 7      1071.393 6                                 113422341.369 7  88381002.809 6                                        47.300          37.600
G22  24234030.789 5  24234032.113 3                                      3689.090 5      2876.457 3                                 127350681.91615  99234317.28613                                        34.200          18.600
G23  23686830.781 6  23686836.055 4  23686835.578 7  23686839.844 7     -3161.570 6     -2460.181 4     -2460.182 7     -2357.674 7 124475147.775 6  96993646.887 4  96993663.886 7  92952279.251 7        38.900          25.500          42.200          47.000
G27  20535361.297 8  20535367.422 9  20535367.406 8  20535367.234 9     -1267.902 8      -982.706 9      -982.706 8      -941.760 9 107913955.093 8  84088923.505 9  84088924.499 8  80585224.441 9        53.000          55.000          51.300          56.400
G30  25538642.859 5                  25538651.660 5  25538650.336 6      -884.453 5                      -683.568 5      -655.086 6 134206614.095 5                 104576502.945 5 100219137.448 6        30.500                          34.700          39.800
G32  24355091.969 6  24355098.160 5  24355098.754 6  24355097.484 7      2692.398 6      2100.043 5      2100.041 6      2012.541 7 127986879.192 6  99730046.093 5  99730051.131 6  95574632.461 7        40.300          34.200          38.300          42.800
R01  20849692.563 7  20849691.434 7  20849696.609 6  20849696.945 6      2852.105 7      2862.123 7      2226.095 6      2226.095 6 111453605.159 7 111453618.169 7  86686122.945 6  86686122.933 6        46.400          45.200          41.100          40.700
R02  24402012.281 6  24402011.617 6  24402015.184 5  24402016.344 5      4458.414 6      4456.346 6      3466.044 5      3466.044 5 130213823.459 6 130213860.495 6 101277417.010 5 101277427.001 5        37.800          36.900          33.100          32.400
R07  23876655.508 6  23876655.813 6  23876658.242 6  23876658.367 6     -3509.254 6     -3502.250 6     -2723.972 6     -2723.971 6 127813656.348 6 127813591.350 6  99410605.475 6  99410609.456 6        40.800          39.000          37.500          37.000
R08  21042280.539 7  21042279.992 7  21042283.520 7  21042283.227 7      -692.535 7      -678.986 7      -528.100 7      -528.101 7 112680456.497 7 112680458.506 7  87640364.410 7  87640381.418 7        46.400          45.200          46.300          46.000
R14  21595726.180 7  21595725.805 7  21595731.867 7  21595731.137 7     -2830.773 7     -2821.761 7     -2194.703 7     -2194.703 7 115117336.354 7 115117352.355 7  89535737.284 7  89535736.275 7        47.000          45.800          44.000          44.200
R15  21860924.898 7  21860925.109 7  21860927.758 7  21860928.023 7       752.371 7       765.503 7       595.392 7       595.392 7 116818152.472 7 116818189.480 7  90858559.944 7  90858568.951 7        47.100          46.000          42.900          43.200
R17  22328477.586 7  22328476.254 7  22328480.148 7  22328480.086 7      2802.082 7      2803.416 7      2180.432 7      2180.432 7 119484211.982 7 119484205.977 7  92932181.440 7  92932184.431 7        44.400          42.600          43.400          42.100
R23  20819329.016 7  20819328.320 7                                     -1870.230 7     -1866.396 7                                 111369398.756 7 111369477.756 7                                        47.400          46.500
R24  19765010.617 8  19765010.074 8  19765012.949 8  19765013.188 8       540.484 8       545.338 8       424.152 8       424.152 8 105692364.881 8 105692524.914 8  82205205.997 8  82205239.994 8        52.700          50.400          48.800          48.000
S36  37802954.078 7  37802946.703 7        -1.582 7        -1.312 7 198657374.278 7 148347777.562 7        45.100          47.000
> 2022 01 01 00 09 00.0000000  0 38
C05  39857612.133 5  39857601.770 6  39857606.633 6         -.570 5         -.401 6         -.382 6 207549084.727 5 168650558.139 6 160490062.627 6        35.200          37.500          38.600
C06  40880878.703 5  40880866.930 5  40880874.707 6      1720.789 5      1399.754 5      1332.024 6 212877455.146 5 172980328.787 5 164610344.293 6        32.000          34.400          36.100
C16  41063858.047 5  41063848.820 5  41063858.684 6      1538.629 5      1252.069 5      1191.484 6 213830283.151 5 173754582.947 5 165347139.305 6        34.800          35.300          36.000
C20  25113026.531 7  25113009.969 7                      3368.035 7      2738.297 7                 130770121.733 7 106261430.350 7                        43.700          43.900
C26  26724398.430 6  26724389.648 6                      1472.219 6      1202.007 6                 139160951.358 6 113079638.488 6                        37.700          36.000
C27  24132697.891 7  24132689.105 7                     -2307.770 7     -1873.426 7                 125665327.252 7 102113350.461 7                        45.900          44.600
C29  23494767.008 7  23494757.156 7                      2220.324 7      1805.611 7                 122343438.183 7  99414038.070 7                        46.400          47.300
C30  21547058.328 8  21547051.035 8                      -180.852 8      -143.518 8                 112201218.449 8  91172713.722 8                        52.500          52.100
E01  25258218.250 8  25258222.531 8  25258220.695 8  25258221.520 8     -2343.648 8     -1746.590 8     -1792.153 8     -1769.372 8 132732832.846 8  99118693.489 8 101704387.853 8 100411540.777 8        48.800          49.900          50.300          53.600
E07  26457387.031 7  26457392.148 7  26457390.094 7  26457391.559 8      2012.551 7      1506.307 7      1545.602 7      1525.955 8 139034507.150 7 103824496.650 7 106532951.050 7 105178721.955 8        43.600          46.000          45.700          49.500
E08  25181941.477 6  25181943.820 7  25181941.887 7  25181943.152 7      -252.824 6      -183.473 7      -188.259 7      -185.866 7 132332004.856 6  98819370.845 7 101397260.533 7 100108314.797 7        41.500          43.100          43.800          47.000
E13  26752884.953 6  26752889.063 7  26752887.781 7  26752887.965 7     -2178.371 6     -1626.515 7     -1668.945 7     -1647.730 7 140587387.072 6 104984115.939 7 107722826.535 7 106353468.349 7        41.800          44.100          44.200          47.500
E21  28212445.273 6  28212450.078 7  28212448.289 6  28212449.402 7     -3210.746 6     -2398.121 7     -2460.680 6     -2429.400 7 148257433.419 6 110711755.929 7 113599884.019 6 112155821.569 7        37.100          42.600          41.800          45.900
E24  28612834.063 6  28612836.152 6  28612833.703 6  28612835.445 7      2407.469 6      1800.872 6      1847.852 6      1824.362 7 150361451.663 6 112282907.889 6 115212023.816 6 113747466.459 7        36.400          40.600          39.400          43.700
E26  23764557.719 8  23764560.273 8  23764557.973 9  23764559.332 9      -623.172 8      -463.529 8      -475.621 9      -469.575 9 124883626.994 8  93257282.743 8  95690071.678 9  94473678.314 9        51.900          53.600          54.200          56.700
E31  25380408.047 7  25380413.008 8  25380410.836 8  25380412.105 8       407.664 7       309.931 8       318.016 8       313.973 8 133374939.001 7  99598187.128 8 102196390.250 8 100897289.799 8        47.100          49.500          49.000          52.900
E33  24712737.516 8  24712740.840 8  24712738.320 8  24712739.816 9      1370.211 8      1024.885 8      1051.622 8      1038.254 9 129866331.390 8  96978125.166 8  99507980.110 8  98243051.743 9        48.100          51.300          51.100          54.600
G01  23273559.445 6  23273567.395 3  23273567.152 6  23273566.672 7      3030.133 6      2363.284 3      2363.283 6      2264.813 7 122303372.087 6  95301372.288 3  95301368.317 6  91330485.436 7        38.100          23.000          40.000          46.900
G07  25168580.906 5  25168585.809 2  25168586.402 6                     -1747.641 5     -1358.163 2     -1358.161 6                 132261828.339 5 103061153.270 2 103061123.297 6                        34.500          15.600          36.200
G08  20453457.172 8  20453463.352 9  20453463.988 8  20453462.801 9       872.164 8       684.633 9       684.633 8       656.106 9 107483634.661 8  83753541.977 9  83753543.979 8  80263814.225 9        51.700          55.300          52.100          56.300
G10  21583878.594 8  21583884.785 8  21583884.934 8  21583883.777 8     -1473.934 8     -1142.120 8     -1142.120 8     -1094.532 8 113424068.369 8  88382429.624 8  88382420.643 8  84699824.897 8        51.100          53.400          48.400          53.400
G16  23289687.766 7  23289691.215 4                                     -3572.250 7     -2781.153 4                                 122388100.768 7  95367400.496 4                                        42.700          28.000
G21  21575733.672 7  21575737.383 6                                      1362.445 7      1064.913 6                                 113381342.189 7  88349055.411 6                                        47.300          37.900
G22  24212980.453 5  24212983.445 3                                      3685.191 5      2873.098 3                                 127240067.587 5  99148124.338 3                                        34.600          19.300
G23  23704904.492 6  23704909.109 4  23704908.496 6  23704912.105 7     -3170.262 6     -2466.860 4     -2466.860 6     -2364.074 7 124570121.932 6  97067652.697 4  97067669.678 6  93023201.480 7        39.500          25.100          41.700          46.000
G27  20542637.734 8  20542643.762 9  20542643.707 8  20542643.582 9     -1281.355 8      -993.181 9      -993.182 8      -951.799 9 107952192.583 8  84118718.950 9  84118719.951 8  80613778.417 9        52.400          55.000          51.700          56.300
G30  25543735.719 5  25543742.773 2  25543742.863 5  25543742.148 6      -899.363 5                      -694.943 5      -665.986 6 134233369.430 5 104597354.19312 104597351.239 5 100239117.035 6        31.900          16.300          34.800          40.100
G32  24339736.680 6  24339742.297 5  24339742.449 6  24339741.844 7      2687.254 6      2095.993 5      2095.993 6      2008.660 7 127906183.505 6  99667166.300 5  99667171.327 6  95514372.672 7        40.700          34.000          39.200          43.400
R01  20833741.953 7  20833741.246 7  20833745.383 6  20833746.973 6      2831.980 7      2842.086 7      2210.511 6      2210.510 6 111368342.597 7 111368355.591 7  86619807.617 6  86619807.621 6        46.600          45.200          41.800          41.000
R02  24376938.133 6  24376936.195 6  24376940.383 5  24376941.754 5      4461.617 6      4460.041 6      3468.921 5      3468.921 5 130080022.260 6 130080059.286 6 101173349.381 5 101173359.384 5        37.900          37.800          34.300          33.800
R07  23896361.055 6  23896359.641 6  23896364.289 6  23896364.035 6     -3523.102 6     -3516.161 6     -2734.793 6     -2734.794 6 127919141.166 6 127919076.171 6  99492649.265 6  99492653.266 6        38.300          37.100          38.800          38.200
R08  21046235.258 7  21046235.059 7  21046237.629 7  21046237.848 7      -719.449 7      -705.955 7      -549.076 7      -549.076 7 112701635.138 7 112701637.150 7  87656836.696 7  87656853.704 7        46.600          45.400          46.000          45.700
R14  21611709.539 7  21611708.313 7  21611713.938 7  21611713.625 7     -2848.883 7     -2839.833 7     -2208.758 7     -2208.758 7 115202531.333 7 115202547.343 7  89602000.016 7  89601999.013 7        47.400          46.400          44.000          43.900
R15  21856774.969 7  21856774.992 7  21856778.910 7  21856778.082 7       726.086 7       739.244 7       574.968 7       574.968 7 116795975.163 7 116796012.169 7  90841310.917 7  90841319.923 7        47.300          46.500          43.800          42.900
R17  22312774.641 7  22312774.070 7  22312777.355 7  22312777.691 7      2799.664 7      2800.866 7      2178.450 7      2178.451 7 119400186.001 7 119400179.998 7  92866827.929 7  92866830.912 7        44.500          42.500          42.900          42.000
R23  20829838.688 7  20829837.602 7                                     -1877.777 7     -1873.957 7                                 111425617.470 7 111425696.471 7                                        47.800          45.800
R24  19762004.703 8  19762004.723 8  19762007.402 8  19762007.828 8       530.738 8       535.677 8       416.637 8       416.637 8 105676294.599 8 105676454.610 8  82192706.874 8  82192740.878 8        52.500          50.300          49.100          48.100
S36  37802964.938 7  37802956.129 7        -1.789 7        -1.288 7 198657426.052 7 148347816.212 7        45.400          46.500
> 2022 01 01 00 09 30.0000000  0 38
C05  39857615.547 5  39857605.230 6  39857610.359 6         -.609 5         -.483 6         -.460 6 207549101.53215 168650571.60016 160490075.38316        35.000          37.500          37.900
C06  40870974.063 5  40870963.047 5  40870969.750 5      1717.523 5      1396.949 5      1329.355 5 212825880.667 5 172938420.327 5 164570463.636 5        30.800          34.700          35.000
C16  41055003.891 5  41054995.422 5  41055004.598 5      1534.453 5      1248.688 5      1188.269 5 213784182.356 5 173717122.301 5 165311491.246 5        34.400          33.600          34.100
C20  25093633.250 7  25093616.457 7                      3364.375 7      2735.328 7                 130669135.200 7 106179370.516 7                        44.500          43.600
C26  26715955.477 6  26715946.008 6                      1458.848 6      1190.949 6                 139116982.293 6 113043910.005 6                        37.200          36.900
C27  24146006.453 7  24145997.418 7                     -2312.203 7     -1877.067 7                 125734627.376 7 102169662.479 7                        45.400          44.600
C29  23481985.047 7  23481975.191 7                      2216.910 7      1802.827 7                 122276878.983 7  99359953.273 7                        46.700          47.900
C30  21548124.531 8  21548117.203 8                      -189.238 8      -150.348 8                 112206769.185 8  91177224.153 8                        52.600          52.300
E01  25271624.609 8  25271628.656 8  25271627.004 8  25271627.875 8     -2353.035 8     -1753.648 8     -1799.395 8     -1776.521 8 132803283.757 8  99171302.926 8 101758369.707 8 100464836.419 8        48.800          50.000          50.000          53.800
E07  26445923.211 7  26445928.684 7  26445926.746 7  26445928.078 8      2003.453 7      1499.513 7      1538.631 7      1519.072 8 138974265.827 7 103779511.256 7 106486792.122 7 105133149.797 8        43.600          46.500          45.600          49.300
E08  25183425.117 7  25183428.016 7  25183426.547 7  25183427.238 7      -267.164 7      -194.139 7      -199.202 7      -196.671 7 132339804.110 7  98825195.010 7 101403236.606 7 100114214.915 7        42.100          43.500          43.300          47.700
E13  26765321.758 6  26765326.449 7  26765323.941 7  26765325.352 7     -2178.836 6     -1626.896 7     -1669.337 7     -1648.117 7 140652745.872 6 105032922.824 7 107772906.655 7 106402911.849 7        41.000          43.600          43.400          46.900
E21  28230771.063 6  28230776.473 7  28230774.789 7  28230775.367 7     -3209.414 6     -2397.171 7     -2459.706 7     -2428.439 7 148353737.192 6 110783671.073 7 113673675.204 7 112228674.742 7        36.800          42.600          42.300          45.500
E24  28599112.711 6  28599114.707 6  28599112.043 6  28599114.039 7      2399.535 6      1794.842 6      1841.664 6      1818.253 7 150289345.874 6 112229062.633 6 115156773.909 6 113692918.876 7        37.200          40.500          39.500          43.700
E26  23768129.141 8  23768131.895 8  23768129.535 8  23768130.793 9      -628.063 8      -467.171 8      -479.358 8      -473.264 9 124902395.093 8  93271297.863 8  95704452.416 8  94487876.248 9        52.000          53.700          53.800          56.700
E31  25378122.383 7  25378127.457 8  25378125.184 8  25378126.426 8       393.105 7       298.985 8       306.784 8       302.884 8 133362927.613 7  99589217.589 8 102187186.720 8 100888203.267 8        47.600          48.800          49.200          52.400
E33  24704928.078 7  24704931.418 8  24704928.938 8  24704930.129 9      1365.766 7      1021.561 8      1048.210 8      1034.885 9 129825291.297 7  96947478.344 8  99476533.808 8  98212005.184 9        47.800          51.400          51.300          54.400
G01  23256278.578 6  23256286.270 3  23256286.258 6  23256285.645 7      3024.270 6      2358.777 3      2358.777 6      2260.495 7 122212559.076 6  95230608.990 3  95230605.001 6  91262670.594 7        38.800          23.000          40.500          47.200
G07  25178585.398 5  25178590.809 2  25178591.145 5                     -1757.234 5     -1365.599 2     -1365.598 5                 132314403.938 5 103102121.230 2 103102091.228 5                        35.700          15.600          35.200
G08  20448514.523 8  20448521.215 9  20448521.766 8  20448520.828 9       859.199 8       674.567 9       674.567 8       646.460 9 107457663.850 8  83733304.970 9  83733306.966 8  80244420.424 9        52.100          55.500          51.300          56.600
G10  21592339.883 8  21592346.168 8  21592345.801 8  21592344.945 8     -1490.270 8     -1154.897 8     -1154.896 8     -1106.776 8 113468531.883 8  88417076.523 8  88417067.528 8  84733028.166 8        51.500          53.400          48.700          53.700
G16  23310097.984 7  23310101.484 4                                     -3578.129 7     -2785.847 4                                 122495355.910 7  95450975.916 4                                        42.500          27.300
G21  21567979.688 7  21567982.746 6                                      1354.199 7      1058.437 6                                 113340592.365 7  88317302.302 6                                        47.900          38.400
G22  24191955.883 5  24191958.980 3                                      3680.648 5      2869.750 3                                 127129582.128 5  99062031.828 3                                        34.800          19.300
G23  23723025.609 6  23723029.102 4  23723029.855 6  23723033.578 7     -3178.406 6     -2473.471 4     -2473.472 6     -2370.409 7 124665350.519 6  97141856.818 4  97141873.832 6  93094313.763 7        40.100          24.500          40.900          46.100
G27  20549990.719 8  20549996.777 9  20549996.988 8  20549996.707 9     -1294.746 8     -1003.653 9     -1003.653 8      -961.834 9 107990833.224 8  84148828.532 9  84148829.535 8  80642633.426 9        52.600          55.000          51.200          56.400
G30  25548910.008 5  25548916.324 2  25548917.266 5  25548917.336 6      -913.480 5      -706.275 2      -706.273 5      -676.846 6 134260560.946 5 104618542.431 2 104618539.435 5 100259422.423 6        33.900          15.600          34.600          40.800
G32  24324410.617 6  24324417.012 5  24324416.898 6  24324416.836 7      2681.773 6      2091.864 5      2091.865 6      2004.703 7 127825646.704 6  99604410.372 5  99604415.362 6  95454231.576 7        40.900          34.300          38.600          43.500
R01  20817904.352 7  20817904.250 7  20817909.301 6  20817909.879 6      2811.832 7      2821.939 7      2194.842 6      2194.841 6 111283684.419 7 111283697.428 7  86553962.367 6  86553962.386 6        46.400          45.200          41.900          40.900
R02  24351844.336 6  24351842.461 6  24351847.359 6  24351847.531 5      4465.277 6      4463.658 6      3471.729 6      3471.730 5 129946112.571 6 129946149.553 6 101069197.495 6 101069207.492 5        40.900          38.700          37.300          35.600
R07  23916143.039 6  23916143.871 6  23916147.402 6  23916146.770 6     -3536.723 6     -3529.933 6     -2745.505 6     -2745.504 6 128025039.176 6 128024974.171 6  99575014.407 6  99575018.387 6        40.200          39.600          38.300          37.500
R08  21050341.492 7  21050340.992 7  21050343.566 7  21050343.496 7      -746.332 7      -732.875 7      -570.014 7      -570.014 7 112723621.395 7 112723623.412 7  87673937.126 7  87673954.126 7        46.400          45.500          46.200          45.300
R14  21627792.156 7  21627790.605 7  21627796.625 7  21627796.844 7     -2866.645 7     -2857.766 7     -2222.706 7     -2222.706 7 115288264.320 7 115288280.331 7  89668681.188 7  89668680.177 7        46.300          45.600          43.600          43.400
R15  21852771.875 7  21852771.801 7  21852775.188 7  21852775.457 7       699.816 7       712.956 7       554.522 7       554.521 7 116774586.511 7 116774623.501 7  90824675.269 7  90824684.287 7        47.200          45.800          43.400          43.400
R17  22297086.961 7  22297086.125 7  22297089.246 7  22297089.594 6      2797.098 7      2798.299 7      2176.455 7      2176.455 6 119316237.029 7 119316231.043 7  92801534.267 7  92801537.277 6        44.300          42.700          42.600          41.900
R23  20840390.141 7  20840389.832 7                                     -1885.273 7     -1881.498 7                                 111482062.385 7 111482141.401 7                                        47.900          46.800
R24  19759053.656 8  19759053.590 8  19759056.996 8  19759057.129 8       521.203 8       525.994 8       409.107 8       409.106 8 105660514.771 8 105660674.789 8  82180433.679 8  82180467.684 8        52.300          51.300          49.400          48.000
S36  37802974.578 7  37802965.813 7        -1.586 7        -1.239 7 198657477.055 7 148347853.390 7        45.500          46.300
> 2022 01 01 00 10 00.0000000  0 38
C05  39857620.094 5  39857609.379 6  39857614.148 6         -.852 5         -.564 6         -.537 6 207549122.68815 168650588.79716 160490092.74616        35.400          37.300          37.600
C06  40861091.734 5  40861078.527 5  40861085.977 5      1713.680 5      1394.120 5      1326.663 5 212774410.605 5 172896596.717 5 164530663.738 5        33.500          35.400          35.500
C16  41046174.859 5  41046165.652 5  41046175.063 5      1530.340 5      1245.287 5      1185.032 5 213738207.138 5 173679763.690 5 165275940.289 5        32.500          32.800          34.500
C20  25074261.648 7  25074244.441 7                      3360.473 7      2732.287 7                 130568260.911 7 106097401.896 7                        43.600          43.800
C26  26707589.633 6  26707580.234 6                      1444.973 6      1179.848 6                 139073423.083 6 113008514.576 6                        37.100          36.500
C27  24159340.609 7  24159332.078 7                     -2316.809 7     -1880.713 7                 125804062.102 7 102226083.871 7                        45.900          44.900
C29  23469222.883 7  23469213.113 7                      2213.457 7      1800.014 7                 122210423.621 7  99305952.854 7                        46.400          47.900
C30  21549239.070 8  21549231.828 8                      -197.688 8      -157.198 8                 112212572.821 8  91181940.081 8                        53.200          52.700
E01  25285084.563 8  25285088.805 8  25285086.824 8  25285087.918 8     -2362.438 8     -1760.671 8     -1806.602 8     -1783.637 8 132874016.826 8  99224123.066 8 101812567.770 8 100518345.524 8        48.300          49.700          50.200          53.200
E07  26434512.141 7  26434518.449 7  26434515.539 7  26434516.859 8      1994.211 7      1492.666 7      1531.605 7      1512.136 8 138914299.565 7 103734731.276 7 106440843.963 7 105087785.726 8        44.200          46.500          45.700          49.400
E08  25184991.039 6  25184993.789 7  25184992.363 7  25184992.863 7      -281.363 6      -204.810 7      -210.152 7      -207.481 7 132348032.101 6  98831339.300 7 101409541.177 7 100120439.339 7        40.700          43.400          44.000          47.000
E13  26777762.750 6  26777766.363 7  26777764.988 7  26777765.617 7     -2179.410 6     -1627.281 7     -1669.732 7     -1648.506 7 140718120.166 6 105081741.257 7 107822998.608 7 106452367.031 7        40.900          43.600          43.600          47.100
E21  28249090.063 6  28249094.480 7  28249093.352 7  28249093.930 7     -3208.059 6     -2396.189 7     -2458.699 7     -2427.444 7 148450001.497 6 110855556.752 7 113747436.184 7 112301498.072 7        36.400          42.400          42.300          45.700
E24  28585437.922 6  28585440.172 6  28585436.965 6  28585439.359 7      2391.176 6      1788.763 6      1835.427 6      1812.095 7 150217484.337 6 112175399.732 6 115101711.112 6 113638556.035 7        36.800          40.100          39.500          43.400
E26  23771728.461 8  23771731.125 8  23771728.910 9  23771730.074 9      -632.898 8      -470.813 8      -483.096 9      -476.954 9 124921309.498 8  93285422.261 8  95718945.281 9  94502184.876 9        50.900          53.600          54.000          56.800
E31  25375920.625 7  25375925.559 8  25375923.301 8  25375924.566 8       378.391 7       288.020 8       295.534 8       291.777 8 133351356.730 7  99580576.982 8 102178320.701 8 100879449.947 8        47.300          49.200          49.400          52.800
E33  24697143.648 8  24697147.016 8  24697144.836 8  24697145.910 9      1361.289 8      1018.230 8      1044.792 8      1031.511 9 129784385.004 8  96916931.433 8  99445190.036 8  98181059.843 9        48.000          51.600          51.000          55.000
G01  23239030.523 6  23239038.445 4  23239038.164 6  23239037.867 7      3018.273 6      2354.250 4      2354.251 6      2256.156 7 122121920.412 6  95159981.480 4  95159977.463 6  91194985.923 7        39.700          24.700          40.600          47.500
G07  25188645.375 5  25188649.547 2  25188650.113 5                     -1766.883 5     -1372.984 2     -1372.985 5                 132367263.811 5 103143310.741 2 103143280.780 5                        34.400          14.800          35.100
G08  20443647.000 8  20443653.188 9  20443653.660 8  20443652.656 9       846.176 8       664.458 9       664.458 8       636.772 9 107432082.223 8  83713371.237 9  83713373.231 8  80225317.269 9        51.800          55.600          51.300          56.400
G10  21600894.406 8  21600900.359 8  21600900.129 8  21600899.160 8     -1506.691 8     -1167.637 8     -1167.637 8     -1118.985 8 113513485.915 8  88452105.635 8  88452096.626 8  84766597.728 8        51.300          53.300          48.500          53.300
G16  23330541.969 6  23330545.473 4                                     -3584.078 6     -2790.488 4                                 122602789.708 6  95534690.561 4                                        41.900          27.700
G21  21560272.727 7  21560275.625 6                                      1345.852 7      1051.963 6                                 113300091.782 7  88285743.410 6                                        47.000          38.000
G22  24170955.672 5  24170959.367 3                                      3676.348 5      2866.402 3                                                                                                        34.100          19.000
G23  23741194.570 6  23741200.008 4  23741199.594 7  23741204.164 7     -3186.816 6     -2480.022 4     -2480.022 7     -2376.688 7 124760831.413 6  97216257.482 4  97216274.489 7  93165614.387 7        39.700          26.700          42.900          47.600
G27  20557420.727 8  20557426.648 9  20557426.984 8  20557426.629 9     -1308.219 8     -1014.129 9     -1014.129 8      -971.874 9 108029877.198 8  84179252.400 9  84179253.395 8  80671789.639 9        52.200          55.000          51.500          56.400
G30  25554168.273 5  25554172.996 2  25554173.969 5  25554173.945 6      -928.176 5      -717.573 2      -717.575 5      -687.675 6 134288187.510 5 104640069.618 2 104640066.676 5 100280052.667 6        34.900          16.300          34.800          41.800
G32  24309115.250 6  24309121.898 5  24309122.699 6  24309121.859 7      2676.367 6      2087.651 5      2087.651 6      2000.666 7 127745272.111 6  99541780.829 5  99541785.818 6  95394211.585 7        40.900          34.800          38.600          43.800
R01  20802181.508 7  20802181.105 7  20802186.059 6  20802186.746 6      2791.469 7      2801.637 7      2179.050 6      2179.050 6 111199635.311 7 111199648.327 7  86488590.879 6  86488590.883 6        46.400          44.800          41.800          41.800
R02  24326729.438 6  24326728.137 6  24326732.820 6  24326732.906 6      4468.816 6      4467.096 6      3474.406 6      3474.407 6 129812099.672 6 129812136.668 6 100964965.303 6 100964975.291 6        40.600          39.900          36.800          36.000
R07  23936002.016 6  23936001.254 6  23936006.504 6  23936006.340 6     -3550.324 6     -3543.582 6     -2756.121 6     -2756.122 6 128131346.627 6 128131281.621 6  99657698.040 6  99657702.043 6        37.700          37.200          37.800          36.800
R08  21054598.141 7  21054597.660 7  21054600.320 7  21054599.719 7      -773.258 7      -759.787 7      -590.946 7      -590.946 7 112746415.030 7 112746417.025 7  87691665.496 7  87691682.512 7        47.000          45.500          46.000          45.400
R14  21643975.945 7  21643974.684 7  21643980.730 7  21643980.410 7     -2884.445 7     -2875.582 7     -2236.563 7     -2236.563 7 115374531.775 7 115374547.777 7  89735778.070 7  89735777.068 7        47.200          45.600          43.200          43.200
R15  21848918.594 7  21848917.746 7  21848921.168 7  21848920.590 7       673.465 7       686.637 7       534.050 7       534.051 7 116753987.410 7 116754024.404 7  90808653.762 7  90808662.758 7        47.600          45.500          43.000          42.700
R17  22281412.781 7  22281412.262 6  22281417.152 7  22281416.281 6      2794.434 7      2795.719 6      2174.447 7      2174.448 6 119232365.458 7 119232359.458 6  92736300.850 7  92736303.844 6        43.200          41.300          42.900          41.900
R23  20850983.984 7  20850983.359 7                                     -1892.797 7     -1889.053 7                                 111538733.974 7 111538812.996 7                                        47.500          46.200
R24  19756157.227 8  19756157.363 8  19756160.727 8  19756160.582 8       511.418 8       516.274 8       401.546 8       401.546 8 105645026.550 8 105645186.568 8  82168387.290 8  82168421.295 8        53.000          51.000          49.500          49.100
S36  37802984.031 7  37802975.758 7        -1.688 7        -1.166 7 198657524.456 7 148347888.370 7        45.400          46.300
> 2022 01 01 00 10 30.0000000  0 38
C05  39857624.672 5  39857613.941 6  39857619.063 6         -.852 5         -.658 6         -.627 6 207549147.013 5 168650608.548 6 160490111.547 6        35.300          36.500          37.900
C06  40851225.727 5  40851213.508 5  40851221.418 5      1710.418 5      1391.285 5      1323.964 5 212723045.247 5 172854858.163 5 164490944.803 5        32.600          33.500          35.100
C16  41037370.594 5  41037360.535 5  41037370.660 5      1526.160 5      1241.876 5      1181.785 5 213692357.909 5 173642507.412 5 165240486.730 5        34.200          31.400          35.500
C20  25054911.570 7  25054894.691 7                      3356.727 7      2729.189 7                 130467501.005 7 106015526.230 7                        43.600          43.700
C26  26699303.508 6  26699294.180 6                      1431.348 6      1168.719 6                 139030274.744 6 112973452.998 6                        36.900          36.500
C27  24172700.828 7  24172691.934 7                     -2321.172 7     -1884.349 7                 125873631.073 7 102282614.340 7                        45.200          44.700
C29  23456480.836 7  23456470.895 7                      2209.930 7      1797.185 7                 122144072.709 7  99252037.302 7                        46.700          47.500
C30  21550402.031 8  21550394.883 8                      -206.133 8      -164.056 8                 112218629.660 8  91186861.754 8                        52.300          52.800
E01  25298597.891 7  25298602.379 8  25298600.277 8  25298601.352 8     -2371.691 7     -1767.649 8     -1813.762 8     -1790.705 8 132945030.229 7  99277152.541 8 101866980.624 8 100572066.688 8        47.700          49.700          50.100          53.300
E07  26423153.555 7  26423159.641 7  26423156.887 7  26423158.273 8      1985.086 7      1485.776 7      1524.536 7      1505.156 8 138854610.081 7 103690157.988 7 106395107.885 7 105042631.039 8        44.300          46.500          46.200          49.300
E08  25186638.109 6  25186641.168 7  25186639.527 7  25186640.133 7      -295.637 6      -215.476 7      -221.097 7      -218.286 7 132356688.617 6  98837803.576 7 101416174.086 7 100126987.933 7        40.900          43.600          43.900          46.800
E13  26790206.102 6  26790210.434 7  26790207.750 7  26790208.906 7     -2179.934 6     -1627.661 7     -1670.123 7     -1648.892 7 140783509.718 6 105130571.103 7 107873102.286 7 106501833.804 7        41.600          43.900          42.700          46.900
E21  28267400.453 6  28267405.273 7  28267403.793 7  28267404.500 7     -3206.707 6     -2395.162 7     -2457.644 7     -2426.403 7 148546224.579 6 110927411.607 7 113821165.501 7 112374290.158 7        36.800          42.200          42.100          45.700
E24  28571809.828 6  28571812.258 6  28571809.191 6  28571811.305 7      2383.117 6      1782.642 6      1829.145 6      1805.893 7 150145868.642 6 112121920.485 6 115046836.765 6 113584379.238 7        37.000          40.600          39.500          43.600
E26  23775355.398 8  23775358.090 8  23775355.926 8  23775357.121 9      -637.723 8      -474.442 8      -486.819 8      -480.631 9 124940369.708 8  93299655.533 8  95733549.850 8  94516603.797 9        52.100          53.600          53.700          56.600
E31  25373802.297 7  25373807.316 8  25373805.328 8  25373806.578 8       363.641 7       277.051 8       284.278 8       280.664 8 133340226.550 7  99572265.467 8 102169792.375 8 100871030.030 8        47.100          49.200          50.300          52.900
E33  24689384.891 8  24689387.957 8  24689385.789 8  24689387.125 9      1356.957 8      1014.906 8      1041.382 8      1028.144 9 129743612.213 8  96886484.253 8  99413948.573 8  98150215.516 9        48.200          51.400          51.500          54.400
G01  23221815.117 6  23221823.766 4  23221823.539 6  23221822.887 7      3012.625 6      2349.705 4      2349.704 6      2251.801 7 122031456.710 6  95089490.321 4  95089486.347 6  91127431.892 7        40.000          25.300          40.500          46.700
G07  25198756.883 5  25198762.504 2  25198762.246 5                     -1775.941 5     -1380.292 2     -1380.291 5                 132420405.067 5 103184719.496 2 103184689.522 5                        31.600          12.600          35.700
G08  20438853.039 8  20438859.500 9  20438860.063 8  20438858.895 9       833.207 8       654.318 9       654.318 8       627.055 9 107406890.957 8  83693741.682 9  83693743.684 8  80206505.610 9        51.800          55.300          51.500          56.200
G10  21609541.891 8  21609548.016 8  21609547.648 8  21609546.711 8     -1522.898 8     -1180.328 8     -1180.328 8     -1131.147 8 113558928.532 8  88487515.459 8  88487506.476 8  84800532.151 8        50.900          53.200          48.700          53.200
G16  23351019.453 6  23351022.941 4                                     -3589.867 6     -2795.043 4                                 122710398.872 6  95618541.842 4                                        41.800          28.100
G21  21552612.570 7  21552616.297 6                                      1337.613 7      1045.501 6                                 113259839.964 7  88254378.378 6                                        47.300          38.100
G22  24149982.102 5  24149985.117 2                                      3672.184 5      2863.054 2                                                                                                        34.300          16.300
G23  23759411.984 6  23759417.105 4  23759416.258 7  23759420.109 7     -3195.172 6     -2486.501 4     -2486.501 7     -2382.897 7 124856561.730 6  97290852.521 4  97290869.513 7  93237101.305 7        40.400          25.300          42.300          46.200
G27  20564927.242 8  20564933.195 9  20564933.480 8  20564933.215 9     -1321.570 8     -1024.599 9     -1024.599 8      -981.907 9 108069324.266 8  84209990.362 9  84209991.372 8  80701246.854 9        52.600          54.900          51.500          56.400
G30  25559507.133 5  25559513.078 2  25559513.809 5  25559513.246 7      -942.727 5      -728.826 2      -728.825 5      -698.458 7 134316247.296 5 104661934.407 2 104661931.435 5 100301006.401 7        34.300          16.900          35.400          42.200
G32  24293852.008 6  24293858.582 5  24293858.871 6  24293858.375 7      2670.902 6      2083.363 5      2083.363 6      1996.556 7 127665062.646 6  99479279.943 5  99479284.922 6  95334314.898 7        41.300          35.500          39.400          43.200
R01  20786572.984 7  20786572.246 7  20786576.902 7  20786578.484 6      2771.039 7      2781.209 7      2163.161 7      2163.162 6 111116199.035 7 111116212.045 7  86423696.036 7  86423696.017 6        46.300          44.900          42.600          41.200
R02  24301595.813 6  24301595.117 6  24301599.512 6  24301599.512 6      4472.133 6      4470.479 6      3477.038 6      3477.037 6 129677985.309 6 129678022.316 6 100860654.176 6 100860664.168 6        40.800          39.300          36.900          36.200
R07  23955937.922 6  23955936.637 6  23955941.195 6  23955941.313 6     -3563.730 6     -3557.107 6     -2766.640 6     -2766.639 6 128238059.823 6 128237994.843 6  99740697.235 6  99740701.212 6        38.900          38.400          38.800          37.700
R08  21059006.125 7  21059004.773 7  21059007.316 7  21059006.926 7      -799.992 7      -786.663 7      -611.849 7      -611.849 7 112770014.908 7 112770016.918 7  87710020.959 7  87710037.973 7        47.000          45.600          45.800          44.800
R14  21660258.211 7  21660257.633 7  21660263.625 7  21660263.262 7     -2902.012 7     -2893.245 7     -2250.301 7     -2250.301 7 115461329.108 7 115461345.119 7  89803287.095 7  89803286.091 7        46.800          45.600          43.500          43.000
R15  21845210.477 7  21845210.633 7  21845213.332 7  21845213.406 7       647.148 7       660.295 7       513.563 7       513.563 7 116734178.564 7 116734215.564 7  90793246.873 7  90793255.865 7        47.500          46.400          44.100          42.900
R17  22265754.063 7  22265753.543 7  22265757.352 7  22265757.094 6      2791.859 7      2793.120 7      2172.426 7      2172.425 6 119148571.860 7 119148565.865 7  92671128.075 7  92671131.084 6        42.900          42.000          43.500          41.400
R23  20861621.141 7  20861620.242 7                                     -1900.297 7     -1896.593 7                                 111595631.772 7 111595710.794 7                                        47.500          46.400
R24  19753316.367 8  19753315.820 8  19753318.973 8  19753318.762 8       501.695 8       506.548 8       393.982 8       393.982 8 105629830.101 8 105629990.118 8  82156567.830 8  82156601.827 8        52.700          51.000          49.300          48.200
S36  37802993.766 7  37802985.262 7        -1.480 7        -1.297 7 198657569.025 7 148347927.281 7        45.100          46.400
> 2022 01 01 00 11 00.0000000  0 38
C05  39857629.750 5  39857619.230 6  39857624.164 6        -1.055 5         -.748 6         -.712 6 207549174.632 5 168650630.999 6 160490132.910 6        35.400          37.000          37.900
C06  40841382.969 5  40841369.641 5  40841377.391 5      1706.934 5      1388.428 5      1321.247 5 212671785.369 5 172813205.313 5 164451307.403 5        32.800          33.700          34.100
C16  41028591.172 5  41028580.551 5  41028590.109 6      1521.633 5      1238.448 5      1178.522 6 213646635.213 5 173605353.969 5 165205131.067 6        34.600          33.400          36.700
C20  25035583.820 7  25035567.223 7                      3352.707 7      2726.026 7                 130366857.888 7 105933745.463 7                        43.900          43.600
C26  26691096.734 6  26691087.109 6                      1417.566 6      1157.553 6                 138987538.605 6 112938726.394 6                        37.100          37.800
C27  24186086.477 7  24186078.055 7                     -2325.781 7     -1887.984 7                 125943334.239 7 102339253.859 7                        46.200          45.200
C29  23443759.094 7  23443748.863 7                      2206.316 7      1794.335 7                 122077827.014 7  99198207.258 7                        46.600          47.400
C30  21551613.922 8  21551606.617 8                      -214.738 8      -170.927 8                 112224940.171 8  91191989.559 8                        52.800          52.700
E01  25312164.180 8  25312168.824 8  25312166.910 8  25312167.789 8     -2381.152 8     -1774.585 8     -1820.879 8     -1797.732 8 133016322.284 8  99330390.097 8 101921606.994 8 100625998.657 8        48.000          50.400          49.700          53.400
E07  26411848.320 7  26411853.230 7  26411851.473 7  26411852.797 8      1975.602 7      1478.841 7      1517.420 7      1498.130 8 138795199.243 7 103645792.753 7 106349585.300 7 104997687.134 8        43.900          45.600          46.500          49.600
E08  25188367.328 7  25188369.527 7  25188368.715 7  25188368.969 7      -310.020 7      -226.141 7      -232.040 7      -229.090 7 132365773.574 7  98844587.795 7 101423135.298 7 100133860.646 7        42.100          43.000          43.800          46.700
E13  26802651.766 6  26802656.656 7  26802654.234 7  26802655.070 7     -2180.492 6     -1628.039 7     -1670.509 7     -1649.274 7 140848914.418 6 105179412.265 7 107923217.566 7 106551312.018 7        41.200          43.600          42.700          46.900
E21  28285702.906 6  28285708.063 7  28285706.219 7  28285706.902 7     -3205.504 6     -2394.093 7     -2456.548 7     -2425.320 7 148642404.708 6 110999234.393 7 113894861.939 7 112447049.762 7        37.200          42.400          42.800          45.700
E24  28558228.617 5  28558231.008 6  28558228.488 6  28558230.527 7      2374.570 5      1776.478 6      1822.821 6      1799.650 7 150074500.618 5 112068626.148 6 114992152.125 6 113530389.750 7        35.900          40.400          39.100          43.500
E26  23779010.070 8  23779012.789 8  23779010.559 9  23779011.867 9      -642.746 8      -478.065 8      -490.536 9      -484.300 9 124959575.448 8  93313997.477 8  95748265.933 9  94531132.809 9        51.300          53.500          54.000          56.800
E31  25371768.367 7  25371773.332 8  25371771.512 8  25371772.500 8       348.863 7       266.068 8       273.009 8       269.539 8 133329537.569 7  99564283.420 8 102161602.105 8 100862943.870 8        47.300          49.800          49.600          53.500
E33  24681651.422 7  24681654.379 8  24681652.258 8  24681653.703 9      1352.262 7      1011.586 8      1037.974 8      1024.780 9 129702972.858 7  96856136.682 8  99382809.337 8  98119472.115 9        47.600          51.100          51.200          54.200
G01  23204634.188 6  23204642.219 4  23204642.281 6  23204641.387 7      3006.637 6      2345.142 4      2345.142 6      2247.427 7 121941168.725 6  95019136.069 4  95019132.074 6  91060009.086 7        40.000          25.000          39.500          47.200
G07  25208923.547 5                  25208927.941 5                     -1785.473 5                     -1387.540 5                 132473825.39715                 103226315.714 5                        32.900                          33.500
G08  20434133.734 8  20434140.227 9  20434140.922 8  20434139.656 9       820.004 8       644.148 9       644.148 8       617.308 9 107382091.265 8  83674417.239 9  83674419.233 8  80187986.358 9        50.900          55.600          51.800          56.100
G10  21618282.289 8  21618288.168 8  21618288.063 8  21618286.719 8     -1539.176 8     -1192.974 8     -1192.973 8     -1143.266 8 113604858.008 8  88523304.666 8  88523295.663 8  84834830.134 8        51.400          53.300          48.800          53.400
G16  23371530.000 6  23371533.121 4                                     -3595.605 6     -2799.553 4                                 122818181.671 6  95702528.424 4                                        41.800          26.800
G21  21545000.047 7  21545003.797 6                                      1329.203 7      1039.044 6                                 113219836.756 7  88223207.055 6                                        47.600          38.600
G22  24129033.039 5  24129035.957 2                                      3667.473 5      2859.707 2                                                                                                        34.300          16.900
G23  23777675.250 6  23777679.566 3  23777679.730 6  23777684.527 7     -3203.348 6     -2492.917 3     -2492.918 6     -2389.046 7 124952539.070 6  97365640.033 3  97365657.047 6  93308772.678 7        37.700          22.500          40.600          46.200
G27  20572510.305 8  20572516.457 9  20572516.531 8  20572516.523 9     -1335.176 8     -1035.065 9     -1035.065 8      -991.937 9 108109174.298 8  84241042.324 9  84241043.326 8  80731004.978 9        52.300          55.100          51.900          56.300
G30  25564928.727 5  25564935.551 2  25564935.840 5  25564935.555 7      -956.641 5      -740.032 2      -740.033 5      -709.198 7 134344738.558 5 104684135.369 2 104684132.419 5 100322282.342 7        32.800          16.300          35.600          42.700
G32  24278620.836 6  24278627.063 5  24278627.891 6  24278627.680 7      2665.102 6      2078.997 5      2078.997 6      1992.373 7 127585021.269 6  99416910.028 5  99416915.002 6  95274543.721 7        41.200          34.400          39.100          44.100
R01  20771079.820 7  20771079.086 7  20771084.664 7  20771085.348 6      2750.164 7      2760.654 7      2147.175 7      2147.174 6 111033379.436 7 111033392.438 7  86359280.775 7  86359280.786 6        46.600          44.900          42.500          41.100
R02  24276445.320 6  24276443.590 6  24276448.750 6  24276448.699 6      4475.285 6      4473.719 6      3479.557 6      3479.557 6 129543773.731 6 129543810.743 6 100756267.463 6 100756277.453 6        40.700          39.200          38.600          37.800
R07  23975947.203 6  23975946.770 6  23975951.094 6  23975951.027 6     -3577.199 6     -3570.491 6     -2777.050 6     -2777.052 6 128345174.574 6 128345109.583 6  99824008.734 6  99824012.768 6        40.500          38.800          38.400          37.800
R08  21063562.961 7  21063562.254 7  21063564.508 7  21063564.863 7      -826.973 7      -813.507 7      -632.728 7      -632.728 7 112794420.112 7 112794422.131 7  87729002.809 7  87729019.801 7        47.300          45.400          46.000          45.700
R14  21676640.758 7  21676640.047 7  21676645.613 7  21676644.891 7     -2919.648 7     -2910.769 7     -2263.930 7     -2263.930 7 115548652.184 7 115548668.187 7  89871204.991 7  89871204.004 7        47.800          45.700          44.100          43.200
R15  21841652.117 7  21841651.496 7  21841653.391 7  21841654.809 7       620.598 7       633.929 7       493.056 7       493.055 7 116715160.721 7 116715197.705 7  90778455.203 7  90778464.213 7        47.400          46.200          43.500          43.000
R17  22250110.813 7  22250109.680 6  22250113.348 7  22250112.730 6      2789.043 7      2790.504 6      2170.392 7      2170.392 6 119064856.744 7 119064850.751 6  92606016.302 7  92606019.326 6        44.100          41.800          42.100          41.500
R23  20872299.328 7  20872299.031 7                                     -1908.031 7     -1904.129 7                                 111652755.661 7 111652834.662 7                                        47.700          45.900
R24  19750528.414 8  19750528.438 8  19750531.426 8  19750531.766 8       491.816 8       496.810 8       386.408 8       386.408 8 105614925.786 8 105615085.805 8  82144975.585 8  82145009.591 8        52.100          50.900          48.700          48.100
S36  37803003.719 7  37802995.051 7        -2.074 7        -1.357 7 198657620.253 7 148347967.990 7        45.700          46.500
> 2022 01 01 00 11 30.0000000  0 38
C05  39857635.688 5  39857625.262 6  39857630.352 6         -.996 5         -.838 6         -.797 6 207549205.27715 168650654.89416 160490157.60016        35.000          37.500          38.000
C06  40831558.852 5  40831545.469 5  40831553.887 5      1703.234 5      1385.562 5      1318.519 5 212620631.312 5 172771638.446 5 164411751.840 5        32.200          32.400          34.800
C16  41019833.609 5  41019824.855 5  41019834.324 5      1517.691 5      1235.014 5      1175.255 5 213601039.297 5 173568303.548 5 165169873.424 5        34.000          34.800          35.800
C20  25016279.359 7  25016262.461 7                      3348.887 7      2722.803 7                 130266333.743 7 105852061.358 7                        43.600          43.300
C26  26682968.422 6  26682959.980 6                      1403.828 6      1146.359 6                 138945215.777 6 112904335.636 6                        36.400          38.500
C27  24199498.289 7  24199489.242 7                     -2330.063 7     -1891.609 7                 126013171.230 7 102396002.114 7                        45.500          45.600
C29  23431057.406 7  23431047.512 7                      2202.902 7      1791.468 7                 122011687.146 7  99144463.207 7                        46.900          47.600
C30  21552874.602 8  21552867.379 8                      -223.047 8      -177.804 8                 112231504.595 8  91197323.688 8                        52.900          52.300
E01  25325783.391 7  25325787.746 8  25325785.934 8  25325786.859 8     -2390.180 7     -1781.474 8     -1827.947 8     -1804.711 8 133087891.076 7  99383834.316 8 101976445.413 8 100680139.973 8        47.800          50.200          50.100          53.300
E07  26400596.242 7  26400601.355 7  26400599.191 7  26400600.648 8      1966.273 7      1471.865 7      1510.261 7      1491.063 8 138736068.673 7 103601636.805 7 106304277.467 7 104952955.242 8        43.300          46.100          46.000          49.300
E08  25190177.469 6  25190179.598 7  25190178.637 7  25190179.305 7      -324.332 6      -236.799 7      -242.977 7      -239.888 7 132375286.734 6  98851691.763 7 101430424.599 7 100141057.287 7        41.900          43.000          43.800          47.100
E13  26815100.977 6  26815104.605 7  26815101.832 7  26815104.090 7     -2180.820 6     -1628.408 7     -1670.889 7     -1649.649 7 140914334.006 6 105228264.517 7 107973344.223 7 106600801.487 7        41.900          43.100          42.300          46.000
E21  28303997.266 6  28304001.578 6  28304000.148 7  28304000.859 7     -3203.668 6     -2392.979 6     -2455.404 7     -2424.192 7 148738540.006 6 111071023.753 6 113968524.062 7 112519775.518 7        37.200          41.700          43.100          45.300
E24  28544695.008 5  28544698.086 6  28544695.430 6  28544697.109 7      2366.426 5      1770.275 6      1816.455 6      1793.365 7 150003381.795 5 112015517.911 6 114937658.485 6 113476588.802 7        35.700          40.900          39.900          44.200
E26  23782692.422 8  23782695.188 8  23782692.809 8  23782694.180 9      -647.418 8      -481.673 8      -494.239 8      -487.956 9 124978926.157 8  93328447.675 8  95763093.099 8  94545771.494 9        51.600          53.900          53.700          57.100
E31  25369818.156 7  25369823.449 8  25369821.273 8  25369822.438 8       334.313 7       255.082 8       261.737 8       258.410 8 133319289.918 7  99556630.963 8 102153750.005 8 100855191.584 8        46.900          49.200          49.600          52.400
E33  24673943.352 7  24673946.426 8  24673944.109 8  24673945.633 9      1348.082 7      1008.272 8      1034.575 8      1021.423 9 129662466.608 7  96825888.531 8  99351772.096 8  98088829.423 9        47.700          51.600          51.400          55.400
G01  23187486.352 6  23187494.469 4  23187493.930 6  23187493.914 7      3000.691 6      2340.563 4      2340.563 6      2243.040 7 121851057.035 6  94948919.183 4  94948915.185 6  90992717.903 7        40.800          24.500          40.200          47.400
G07  25219143.039 5                  25219145.313 5                     -1794.410 5                     -1394.707 5                 132527521.639 5                 103268156.933 5                        32.200                          32.700
G08  20429489.359 8  20429495.859 9  20429496.250 8  20429495.227 9       807.031 8       633.949 9       633.948 8       607.535 9 107357684.241 8  83655398.776 9  83655400.785 8  80169760.317 9        52.000          55.300          51.500          56.400
G10  21627114.344 8  21627120.563 8  21627120.398 8  21627119.227 8     -1555.121 8     -1205.568 8     -1205.568 8     -1155.336 8 113651272.387 8  88559471.714 8  88559462.712 8  84869490.217 8        50.900          53.200          48.800          53.500
G16  23392072.195 7  23392075.957 4                                     -3601.285 7     -2803.977 4                                 122926134.783 7  95786647.734 4                                        42.100          27.000
G21  21537434.977 7  21537438.402 6                                      1321.078 7      1032.604 6                                 113180081.495 7  88192228.941 6                                        47.200          38.400
G22  24108109.602 5  24108113.563 3                                      3662.266 5      2856.359 3                                                                                                        32.600          18.300
G23  23795986.641 6  23795990.051 4  23795990.770 6  23795994.258 7     -3211.422 6     -2499.260 4     -2499.260 6     -2395.124 7 125048760.600 6  97440617.839 4  97440634.855 6  93380626.408 7        39.800          25.200          41.000          45.500
G27  20580170.148 8  20580176.250 9  20580176.238 8  20580176.156 9     -1348.457 8     -1045.524 9     -1045.524 8     -1001.960 9 108149426.989 8  84272408.045 9  84272409.032 8  80761063.777 9        52.000          54.900          51.800          56.300
G30  25570432.578 5  25570438.980 2  25570439.078 6  25570439.035 7      -970.938 5      -751.195 2      -751.194 6      -719.895 7 134373659.523 5 104706671.231 2 104706668.224 6 100343879.185 7        33.500          16.900          36.100          43.200
G32  24263421.875 6  24263428.469 5  24263429.051 6  24263428.539 7      2659.336 6      2074.556 5      2074.557 6      1988.116 7 127505150.817 6  99354673.336 5  99354678.292 6  95214900.234 7        40.600          34.300          39.500          44.100
R01  20755702.617 7  20755702.039 7  20755706.898 7  20755708.102 6      2729.691 7      2739.984 7      2131.098 7      2131.099 6 110951179.903 7 110951192.913 7  86295347.824 7  86295347.827 6        45.800          44.800          42.100          41.500
R02  24251277.078 6  24251275.371 6  24251280.188 6  24251279.367 6      4478.449 6      4476.842 6      3481.988 6      3481.987 6 129409468.466 6 129409505.468 6 100651807.828 6 100651817.846 6        40.100          38.500          36.500          36.000
R07  23996031.648 6  23996031.914 6  23996034.910 6  23996035.336 6     -3590.289 6     -3583.739 6     -2787.354 6     -2787.351 6 128452686.735 6 128452621.737 6  99907629.337 6  99907633.306 6        40.200          38.700          38.200          37.400
R08  21068270.414 7  21068269.531 7  21068272.137 7  21068272.133 7      -853.652 7      -840.297 7      -653.564 7      -653.564 7 112819629.017 7 112819631.035 7  87748609.739 7  87748626.732 7        46.500          45.100          46.300          45.800
R14  21693119.969 7  21693119.352 7  21693125.145 7  21693124.648 7     -2936.777 7     -2928.154 7     -2277.453 7     -2277.452 7 115636496.806 7 115636512.816 7  89939528.568 7  89939527.578 7        47.200          45.600          43.600          43.800
R15  21838240.398 7  21838240.594 7  21838243.422 7  21838243.887 7       594.422 7       607.559 7       472.546 7       472.547 7 116696933.939 7 116696970.940 7  90764278.821 7  90764287.817 7        47.200          45.600          43.500          43.500
R17  22234481.789 7  22234479.949 7  22234484.512 7  22234483.664 6      2786.535 7      2787.878 7      2168.349 7      2168.350 6 118981220.402 7 118981214.400 7  92540965.838 7  92540968.829 6        43.400          42.200          42.300          41.900
R23  20883020.906 7  20883019.871 7                                     -1915.387 7     -1911.662 7                                 111710105.495 7 111710184.510 7                                        47.800          46.100
R24  19747796.125 8  19747796.141 8  19747799.383 8  19747799.125 8       482.160 8       487.063 8       378.826 8       378.827 8 105600313.897 8 105600473.917 8  82133610.797 8  82133644.794 8        52.900          50.700          48.700          48.300
S36  37803013.328 7  37803004.965 7        -1.938 7        -1.300 7 198657679.502 7 148348006.986 7        46.000          46.900
> 2022 01 01 00 12 00.0000000  0 38
C05  39857641.961 5  39857631.754 6  39857636.625 6         -.980 5         -.928 6         -.883 6 207549238.12715 168650683.39916 160490183.77016        35.200          36.600          37.600
C06  40821756.805 5  40821742.664 5  40821750.980 5      1699.957 5      1382.681 5      1315.776 5 212569583.616 5 172730158.009 5 164372278.562 5        32.800          34.800          34.800
C16  41011103.008 5  41011093.000 5  41011102.355 5      1513.570 5      1231.561 5      1171.970 5 213555570.798 5 173531356.725 5 165134714.334 5        33.300          32.700          35.800
C20  24996997.977 7  24996981.102 7                      3344.844 7      2719.518 7                 130165930.895 7 105770475.816 7                        44.200          43.200
C26  26674920.813 6  26674912.281 6                      1390.129 6      1135.131 6                 138903307.476 6 112870281.710 6                        36.900          38.300
C27  24212935.336 7  24212926.898 7                     -2334.508 7     -1895.232 7                 126083141.999 7 102452859.084 7                        46.600          45.000
C29  23418376.672 7  23418366.609 7                      2199.395 7      1788.579 7                 121945653.956 7  99090805.839 7                        47.200          47.700
C30  21554184.047 8  21554176.945 8                      -231.367 8      -184.697 8                 112238323.502 8  91202864.601 8                        52.700          52.300
E01  25339454.758 7  25339459.258 8  25339457.320 8  25339458.258 8     -2399.273 7     -1788.323 8     -1834.974 8     -1811.649 8 133159735.021 7  99437483.999 8 102031494.647 8 100734489.431 8        47.700          49.800          50.100          52.800
E07  26389397.648 7  26389403.500 7  26389400.816 7  26389402.098 8      1957.023 7      1464.841 7      1503.054 7      1483.948 8 138677220.234 7 103557691.584 7 106259185.840 7 104908436.817 8        44.200          46.400          46.200          50.000
E08  25192069.375 6  25192072.055 7  25192070.453 7  25192071.012 7      -338.316 6      -247.457 7      -253.912 7      -250.685 7 132385228.005 6  98859115.475 7 101438041.972 7 100148577.825 7        41.600          43.600          44.000          47.000
E13  26827552.758 7  26827555.953 7  26827553.875 7  26827555.949 7     -2181.340 7     -1628.780 7     -1671.271 7     -1650.025 7 140979768.500 7 105277127.929 7 108023482.349 7 106650302.245 7        42.100          43.100          42.800          46.700
E21  28322282.398 6  28322287.020 7  28322285.184 7  28322285.992 7     -3201.969 6     -2391.824 7     -2454.220 7     -2423.022 7 148834628.983 6 111142778.483 7 114042150.660 7 112592466.173 7        37.300          42.100          42.700          45.900
E24  28531209.563 5  28531212.590 6  28531209.977 6  28531211.473 7      2358.254 5      1764.026 6      1810.043 6      1787.035 7 149932514.019 5 111962597.128 6 114883357.184 6 113422977.761 7        34.800          40.900          40.800          44.500
E26  23786402.266 8  23786405.031 8  23786402.996 8  23786404.074 9      -652.172 8      -485.277 8      -497.937 8      -491.607 9 124998421.645 8  93343005.992 8  95778031.198 8  94560519.697 9        50.800          53.600          53.700          56.300
E31  25367952.555 7  25367957.289 8  25367955.285 8  25367956.473 8       319.563 7       244.084 8       250.451 8       247.267 8 133309484.136 7  99549308.451 8 102146236.475 8 100847773.568 8        47.500          49.600          49.500          52.800
E33  24666260.680 7  24666264.047 8  24666261.727 8  24666262.914 9      1343.676 7      1004.960 8      1031.176 8      1018.068 9 129622093.462 7  96795739.740 8  99320836.820 8  98058287.390 9        47.300          51.800          51.700          54.900
G01  23170372.648 6  23170380.750 3  23170380.258 6  23170379.934 7      2995.008 6      2335.964 3      2335.964 6      2238.631 7 121761122.363 6  94878840.252 3  94878836.255 6  90925558.961 7        40.500          23.200          41.100          47.000
G07  25229409.414 4                  25229416.160 5                     -1803.617 4                     -1401.875 5                 132581491.62914                 103310211.40915                        28.000                          32.000
G08  20424919.797 8  20424926.141 9  20424926.828 8  20424925.848 9       793.922 8       623.713 9       623.714 8       597.725 9 107333671.291 8  83636687.377 9  83636689.379 8  80151828.568 9        52.100          55.600          51.500          56.400
G10  21636038.438 8  21636044.879 8  21636044.559 8  21636043.535 8     -1571.207 8     -1218.119 8     -1218.119 8     -1167.364 8 113698169.973 8  88596015.283 8  88596006.280 8  84904511.145 8        51.000          53.300          48.800          53.800
G16  23412647.117 6  23412651.121 4                                     -3606.727 6     -2808.327 4                                 123034255.397 6  95870897.556 4                                        41.400          27.300
G21  21529916.945 7  21529920.277 6                                      1312.859 7      1026.170 6                                 113140573.929 7  88161443.831 6                                        46.800          37.900
G22  24087214.867 5  24087217.711 3                                      3657.824 5      2853.011 3                                 126579167.72915  98633137.54713                                        33.100          18.600
G23  23814342.305 6  23814347.086 3  23814346.609 6  23814350.551 7     -3219.348 6     -2505.539 3     -2505.539 6     -2401.142 7 125145223.849 6  97515784.008 3  97515801.012 6  93452660.669 7        40.200          23.800          40.500          45.100
G27  20587906.586 8  20587912.793 9  20587912.813 8  20587912.664 9     -1361.840 8     -1055.981 9     -1055.981 8     -1011.982 9 108190082.272 8  84304087.482 9  84304088.470 8  80791423.238 9        52.500          54.900          51.300          56.400
G30  25576016.914 5  25576022.695 2  25576024.195 6  25576023.633 7      -985.277 5      -762.313 2      -762.315 6      -730.552 7 134403008.605 5 104729540.619 2 104729537.665 6 100365795.738 7        33.700          15.600          36.300          42.300
G32  24248257.055 6  24248263.012 5  24248263.414 6  24248262.453 7      2653.727 6      2070.036 5      2070.035 6      1983.784 7 127425454.439 6  99292572.252 5  99292577.256 6  95155386.715 7        40.300          35.400          39.900          43.800
R01  20740443.016 7  20740441.887 7  20740447.379 6  20740447.914 6      2708.852 7      2719.181 7      2114.918 6      2114.918 6 110869604.480 7 110869617.488 7  86231900.289 6  86231900.293 6        46.300          45.000          41.700          41.300
R02  24226089.906 6  24226089.363 6  24226094.117 6  24226094.168 6      4481.574 6      4479.865 6      3484.338 6      3484.338 6 129275072.488 6 129275109.526 6 100547277.681 6 100547287.702 6        39.800          38.600          37.800          36.100
R07  24016189.906 6  24016189.559 6  24016193.184 6  24016192.867 6     -3603.313 6     -3596.871 6     -2797.567 6     -2797.569 6 128560592.831 6 128560527.858 6  99991556.349 6  99991560.364 6        39.900          38.600          37.900          37.800
R08  21073127.961 7  21073126.789 7  21073130.465 7  21073129.902 7      -880.352 7      -867.071 7      -674.389 7      -674.389 7 112845641.161 7 112845643.172 7  87768841.402 7  87768858.401 7        46.400          44.600          46.000          45.700
R14  21709696.766 7  21709696.148 7  21709701.457 7  21709701.082 7     -2953.875 7     -2945.400 7     -2290.866 7     -2290.866 7 115724858.826 7 115724874.827 7  90008254.545 7  90008253.552 7        47.600          46.700          44.700          43.600
R15  21834977.508 7  21834977.883 7  21834981.508 7  21834981.211 7       568.059 7       581.156 7       452.010 7       452.010 7 116679499.282 7 116679536.267 7  90750718.512 7  90750727.518 7        47.200          45.900          43.600          43.000
R17  22218865.984 7  22218864.809 6  22218868.742 7  22218869.195 6      2783.926 7      2785.235 6      2166.294 7      2166.293 6 118897663.365 7 118897657.341 6  92475977.018 7  92475980.037 6        42.600          41.400          42.400          41.400
R23  20893784.125 7  20893783.082 7                                     -1922.883 7     -1919.190 7                                 111767681.205 7 111767760.205 7                                        47.500          46.000
R24  19745118.523 8  19745118.117 8  19745121.000 8  19745121.547 8       472.504 8       477.288 8       371.225 8       371.224 8 105585995.237 8 105586155.263 8  82122474.057 8  82122508.062 8        52.300          50.200          49.100          48.200
S36  37803021.922 7  37803014.473 7        -1.676 7        -1.158 7 198657732.922 7 148348041.719 7        44.600          47.200
> 2022 01 01 00 12 30.0000000  0 38
C05  39857649.555 5  39857638.766 6  39857643.773 6        -1.426 5        -1.006 6         -.957 6 207549275.253 5 168650713.568 6 160490212.485 6        35.200          37.600          37.400
C06  40811973.297 5  40811960.215 5  40811967.906 5      1696.430 5      1379.783 5      1313.021 5 212518642.893 5 172688764.511 5 164332887.944 5        32.300          34.000          35.000
C16  41002395.781 5  41002384.625 5  41002394.793 5      1509.332 5      1228.097 5      1168.674 5 213510230.241 5 173494513.812 5 165099654.121 5        34.600          32.400          34.900
C20  24977740.250 7  24977723.680 7                      3340.492 7      2716.170 7                 130065651.644 7 105688990.720 7                        43.000          43.600
C26  26666952.508 6  26666943.867 6                      1376.113 6      1123.870 6                 138861814.944 6 112836565.625 6                        37.800          38.200
C27  24226398.063 7  24226389.570 7                     -2339.066 7     -1898.850 7                 126153246.352 7 102509824.590 7                        45.100          44.800
C29  23405716.523 7  23405706.367 8                      2195.703 7      1785.670 8                 121879728.153 7  99037235.728 8                        47.000          48.000
C30  21555542.406 8  21555535.359 8                      -240.082 8      -191.602 8                 112245397.318 8  91208612.655 8                        52.700          52.700
E01  25353178.313 7  25353182.785 8  25353180.668 8  25353181.719 8     -2408.508 7     -1795.128 8     -1841.957 8     -1818.542 8 133231852.351 7  99491337.830 8 102086753.353 8 100789045.697 8        46.600          49.600          50.300          53.600
E07  26378252.672 7  26378258.922 7  26378256.934 7  26378257.641 8      1947.441 7      1457.773 7      1495.802 7      1476.787 8 138618655.797 7 103513958.402 7 106214311.790 7 104864133.201 8        44.000          46.700          46.100          49.900
E08  25194042.609 6  25194045.309 7  25194043.602 7  25194044.238 7      -352.688 6      -258.112 7      -264.845 7      -261.479 7 132395597.367 6  98866858.839 7 101445987.314 7 100156422.183 7        41.800          43.600          43.900          47.000
E13  26840006.313 6  26840011.500 7  26840008.727 7  26840010.383 7     -2181.863 6     -1629.148 7     -1671.647 7     -1650.397 7 141045217.747 6 105326002.369 7 108073631.768 7 106699814.167 7        41.000          42.900          43.100          46.500
E21  28340558.305 6  28340562.445 6  28340560.902 6  28340562.012 7     -3200.695 6     -2390.627 6     -2452.992 6     -2421.810 7 148930669.890 6 111214497.298 6 114115740.415 6 112665120.461 7        38.700          41.600          41.800          45.300
E24  28517771.711 5  28517774.738 6  28517771.785 6  28517773.930 7      2349.582 5      1757.734 6      1803.588 6      1780.661 7 149861898.995 5 111909865.110 6 114829249.539 6 113369557.930 7        35.300          41.200          40.800          44.000
E26  23790139.734 8  23790142.352 9  23790140.293 9  23790141.406 9      -657.004 8      -488.873 9      -501.626 9      -495.249 9 125018061.580 8  93357672.170 9  95793079.971 9  94575377.180 9        51.300          54.100          54.000          56.900
E31  25366170.484 7  25366175.430 8  25366173.371 8  25366174.613 8       304.715 7       233.077 8       239.158 8       236.117 8 133300120.538 7  99542316.137 8 102139061.744 8 100840690.051 8        46.800          49.000          49.300          52.700
E33  24658603.070 7  24658606.578 8  24658604.266 8  24658605.430 9      1339.117 7      1001.649 8      1027.779 8      1014.715 9 129581853.245 7  96765690.257 8  99290003.437 8  98027845.945 9        47.500          52.100          51.700          55.300
G01  23153292.078 6  23153300.844 4  23153300.180 6  23153299.305 7      2988.949 6      2331.348 4      2331.348 6      2234.209 7 121671365.386 6  94808899.809 4  94808895.801 6  90858532.702 7        39.900          25.200          41.100          47.300
G07  25239732.719 4                  25239738.496 5                     -1812.398 4                     -1409.042 5                 132635732.46214                 103352476.88515                        26.800                          30.800
G08  20420425.664 8  20420431.727 9  20420432.609 8  20420431.480 9       780.652 8       613.448 9       613.448 8       587.888 9 107310053.552 8  83618283.949 9  83618285.944 8  80134191.942 9        52.100          55.600          51.400          56.400
G10  21645054.352 8  21645060.586 8  21645060.449 8  21645059.520 8     -1587.340 8     -1230.622 8     -1230.622 8     -1179.346 8 113745548.918 8  88632933.949 8  88632924.947 8  84939891.519 8        50.900          53.200          48.400          53.500
G16  23433253.133 6  23433256.809 4                                     -3612.223 6     -2812.602 4                                 123142540.576 6  95955275.601 4                                        41.600          26.400
G21  21522446.172 7  21522449.469 6                                      1304.590 7      1019.739 6                                 113101313.953 7  88130851.655 6                                        47.100          37.600
G22  24066345.992 5  24066349.176 3                                      3653.266 5      2849.663 3                                 126469502.08115  98547683.81613                                        34.300          19.600
G23  23832744.609 6  23832748.254 4  23832748.988 6  23832752.020 7     -3227.355 6     -2511.752 4     -2511.753 6     -2407.095 7 125241926.290 6  97591136.560 4  97591153.594 6  93524873.519 7        40.600          24.400          40.500          45.400
G27  20595719.313 8  20595725.816 9  20595726.066 8  20595725.574 9     -1375.270 8     -1066.432 9     -1066.433 8     -1021.998 9 108231139.944 8  84336080.456 9  84336081.450 8  80822083.171 9        52.700          55.000          51.200          56.500
G30  25581683.461 5  25581689.098 2  25581690.246 6  25581689.992 7      -999.621 5      -773.391 2      -773.389 6      -741.165 7 134432784.119 5 104752742.347 2 104752739.337 6 100388030.677 7        34.800          16.900          36.900          42.400
G32  24233124.070 6  24233130.633 5  24233131.008 6  24233130.512 7      2647.648 6      2065.438 5      2065.438 6      1979.378 7 127345935.048 6  99230609.106 5  99230614.133 6  95096005.367 7        39.500          35.300          40.000          44.100
R01  20725299.008 7  20725298.488 7  20725304.910 7  20725304.602 6      2687.805 7      2698.252 7      2098.640 7      2098.640 6 110788656.931 7 110788669.939 7  86168941.079 7  86168941.098 6        46.200          44.900          42.300          41.700
R02  24200888.570 6  24200887.418 6  24200892.219 6  24200892.270 6      4484.195 6      4482.763 6      3486.591 6      3486.592 6 129140589.626 6 129140626.630 6 100442679.955 6 100442689.944 6        40.600          38.900          37.600          37.300
R07  24036419.906 6  24036418.844 6  24036423.875 6  24036423.098 6     -3616.277 6     -3609.862 6     -2807.671 6     -2807.671 6 128668888.684 6 128668823.709 6 100075786.468 6 100075790.502 6        38.900          37.900          36.700          36.000
R08  21078135.672 7  21078134.039 7  21078137.277 7  21078136.777 7      -907.195 7      -893.789 7      -695.168 7      -695.169 7 112872454.817 7 112872456.834 7  87789696.453 7  87789713.460 7        46.400          44.500          45.800          45.800
R14  21726368.945 7  21726367.711 7  21726374.344 7  21726373.809 7     -2970.996 7     -2962.506 7     -2304.170 7     -2304.169 7 115813733.980 7 115813749.997 7  90077379.648 7  90077378.623 7        46.100          45.300          43.600          42.500
R15  21831863.227 7  21831863.410 7  21831867.223 7  21831866.844 7       541.492 7       554.736 7       431.461 7       431.462 7 116662857.191 7 116662894.195 7  90737774.682 7  90737783.666 7        47.200          45.600          43.800          43.600
R17  22203266.602 7  22203265.488 7  22203268.340 7  22203269.340 6      2781.234 7      2782.570 7      2164.220 7      2164.221 6 118814186.262 7 118814180.256 7  92411050.419 7  92411053.415 6        43.300          42.200          42.600          41.200
R23  20904588.711 7  20904587.945 7                                     -1930.484 7     -1926.716 7                                 111825482.659 7 111825561.674 7                                        46.900          46.000
R24  19742495.695 8  19742495.559 8  19742499.000 8  19742498.664 8       462.621 8       467.504 8       363.614 8       363.614 8 105571970.131 8 105572130.148 8  82111565.647 8  82111599.646 8        52.400          50.400          48.900          48.000
S36  37803033.078 7  37803023.930 7        -1.414 7        -1.262 7 198657780.538 7 148348079.574 7        45.400          47.000
> 2022 01 01 00 13 00.0000000  0 37
C05  39857657.016 5  39857646.613 6  39857651.684 6        -1.270 5        -1.083 6        -1.031 6 207549315.47815 168650748.24816 160490243.58216        35.600          37.000          38.400
C06  40802211.695 5  40802198.016 5  40802206.188 5      1692.578 5      1376.871 5      1310.248 5 212467809.664 5 172647458.365 5 164293580.494 5        32.200          34.300          35.500
C16  40993712.602 5  40993701.734 5  40993711.910 5      1504.848 5      1224.622 5      1165.365 5 213465018.054 5 173457775.161 5 165064693.177 5        35.200          32.100          35.900
C20  24958506.766 7  24958490.422 7                      3336.434 7      2712.761 7                 129965498.246 7 105607607.896 7                        43.300          43.200
C26  26659064.961 6  26659055.773 6                      1362.449 6      1112.581 6                 138820739.229 6 112803188.206 6                        38.700          37.900
C27  24239886.203 7  24239877.543 7                     -2343.477 7     -1902.463 7                 126223484.067 7 102566898.468 7                        45.300          44.500
C29  23393076.742 7  23393066.578 7                      2192.172 7      1782.743 7                 121813910.443 7  98983753.449 7                        47.000          47.900
C30  21556949.938 8  21556942.727 8                      -248.484 8      -198.514 8                 112252726.346 8  91214568.086 8                        52.900          52.500
E01  25366953.500 8  25366958.027 8  25366955.738 8  25366956.887 8     -2417.367 8     -1801.887 8     -1848.893 8     -1825.390 8 133304241.230 8  99545394.450 8 102142220.138 8 100843807.400 8        48.200          49.200          49.400          52.700
E07  26367163.203 7  26367168.199 7  26367166.379 7  26367167.594 8      1937.930 7      1450.662 7      1488.506 7      1469.584 8 138560377.000 7 103470438.544 7 106169656.612 7 104820045.684 8        44.000          46.200          46.100          49.900
E08  25196097.273 6  25196100.359 7  25196098.254 7  25196098.852 7      -366.918 6      -268.760 7      -275.771 7      -272.265 7 132406394.541 6  98874921.630 7 101454260.454 7 100164590.143 7        41.400          43.700          44.000          47.100
E13  26852464.523 6  26852469.375 7  26852466.660 7  26852467.844 7     -2182.328 6     -1629.510 7     -1672.019 7     -1650.765 7 141110681.633 6 105374887.674 7 108123792.338 7 106749337.109 7        41.700          43.600          43.400          47.000
E21  28358824.641 6  28358829.402 6  28358827.211 6  28358828.422 7     -3198.758 6     -2389.389 6     -2451.720 6     -2420.554 7 149026661.005 6 111286178.963 6 114189292.013 6 112737737.092 7        39.100          40.800          40.900          44.300
E24  28504383.000 5  28504386.203 6  28504383.473 6  28504384.801 7      2341.199 5      1751.402 6      1797.092 6      1774.247 7 149791538.389 5 111857323.048 6 114775336.793 6 113316330.533 7        35.300          41.100          40.700          44.900
E26  23793904.445 8  23793907.254 8  23793905.160 9  23793906.184 9      -661.750 8      -492.457 8      -505.303 9      -498.880 9 125037845.510 8  93372445.865 8  95808239.072 9  94590343.577 9        52.000          53.800          54.000          56.800
E31  25364472.719 7  25364477.828 8  25364475.828 8  25364476.961 8       290.109 7       222.065 8       227.858 8       224.962 8 133291199.328 7  99535654.189 8 102132226.008 8 100833941.202 8        46.900          49.200          49.800          52.900
E33  24650970.828 7  24650974.184 8  24650971.777 8  24650973.227 9      1334.785 7       998.345 8      1024.388 8      1011.366 9 129541745.840 7  96735739.919 8  99259271.784 8  97997504.958 9        47.900          51.500          51.800          54.700
G01  23136245.664 6  23136254.211 4  23136253.863 6  23136253.438 7      2983.094 6      2326.717 4      2326.717 6      2229.771 7 121581786.715 6  94739098.290 4  94739094.292 6  90791639.580 7        39.800          25.000          41.300          46.800
G08  20416006.789 8  20416012.988 9  20416013.832 8  20416012.828 9       767.480 8       603.144 9       603.144 8       578.012 9 107286832.541 8  83600189.640 9  83600191.635 8  80116851.579 9        52.100          55.700          51.500          56.500
G10  21654161.711 8  21654167.816 8  21654167.324 8  21654166.805 8     -1603.145 8     -1243.075 8     -1243.075 8     -1191.280 8 113793407.307 8  88670226.191 8  88670217.203 8  84975629.927 8        49.700          53.200          48.500          53.300
G16  23453890.164 6  23453893.777 4                                     -3617.555 6     -2816.832 4                                 123250988.634 6  96039780.573 4                                        41.700          26.100
G21  21515022.469 7  21515025.859 6                                      1296.348 7      1013.312 6                                 113062301.435 7  88100452.294 6                                        47.000          38.600
G22  24045505.328 5  24045508.379 3                                      3648.504 5      2846.315 3                                 126359980.38715  98462342.29313                                        33.900          19.300
G23  23851190.844 6  23851195.313 4  23851195.820 6  23851200.500 7     -3235.188 6     -2517.896 4     -2517.895 6     -2412.982 7 125338865.250 6  97666673.423 4  97666690.440 6  93597262.979 7        40.700          25.000          41.400          47.800
G27  20603609.391 8  20603615.344 9  20603615.316 8  20603615.047 9     -1388.617 8     -1076.878 9     -1076.878 8     -1032.009 9 108272599.776 8  84368386.810 9  84368387.804 8  80853043.427 9        52.300          55.000          51.500          56.100
G30  25587430.211 5  25587436.512 2  25587436.664 6  25587436.980 7     -1013.723 5      -784.411 2      -784.411 6      -751.727 7 134462983.952 5 104776274.662 2 104776271.680 6 100410582.496 7        35.000          16.900          36.400          42.500
G32  24218025.766 6  24218032.559 5  24218033.223 6  24218032.848 7      2641.656 6      2060.763 5      2060.765 6      1974.899 7 127266595.655 6  99168786.208 5  99168791.173 6  95036758.383 7        38.300          34.000          39.100          43.900
R01  20710274.586 7  20710273.895 7  20710278.645 7  20710279.996 6      2666.805 7      2677.195 7      2082.261 7      2082.262 6 110708341.071 7 110708354.087 7  86106473.249 7  86106473.237 6        46.300          45.000          42.400          41.500
R02  24175671.297 6  24175669.660 6  24175674.418 6  24175674.473 6      4487.008 6      4485.559 6      3488.767 6      3488.766 6 129006022.867 6 129006059.874 6 100338016.955 6 100338026.965 6        39.000          38.200          37.800          37.500
R07  24056722.070 6  24056721.813 6  24056725.941 6  24056725.512 6     -3629.047 6     -3622.721 6     -2817.677 6     -2817.676 6 128777570.300 6 128777505.333 6 100160316.763 6 100160320.770 6        40.100          38.200          38.400          37.400
R08  21083292.016 7  21083290.852 7  21083294.016 7  21083293.863 7      -933.707 7      -920.468 7      -715.920 7      -715.920 7 112900068.861 7 112900070.864 7  87811174.054 7  87811191.047 7        46.000          45.000          45.800          45.500
R14  21743136.547 7  21743135.742 7  21743142.535 7  21743141.902 7     -2987.797 7     -2979.465 7     -2317.361 7     -2317.362 7 115903117.947 7 115903133.955 7  90146900.485 7  90146899.468 7        45.400          44.600          43.000          42.800
R15  21828897.453 7  21828897.984 7  21828900.996 7  21828901.086 7       515.152 7       528.302 7       410.902 7       410.901 7 116647008.156 7 116647045.149 7  90725447.612 7  90725456.629 7        47.400          46.300          43.300          43.000
R17  22187682.000 7  22187681.063 7  22187685.402 7  22187684.918 6      2778.609 7      2779.886 7      2162.134 7      2162.134 6 118730789.679 7 118730783.665 7  92346186.405 7  92346189.401 6        43.900          42.600          42.600          41.900
R23  20915436.719 8  20915435.508 7                                     -1937.809 8     -1934.232 7                                 111883509.604 8 111883588.627 7                                        48.000          45.700
R24  19739927.875 8  19739927.777 8  19739930.852 8  19739930.832 8       452.965 8       457.704 8       355.992 8       355.992 8 105558239.030 8 105558399.041 8  82100885.895 8  82100919.900 8        52.200          50.800          49.100          48.500
S36  37803042.297 7  37803033.477 7        -1.527 7        -1.196 7 198657828.030 7 148348115.466 7        46.000          46.600
> 2022 01 01 00 13 30.0000000  0 37
C05  39857665.320 5  39857655.039 6  39857659.984 6        -1.578 5        -1.177 6        -1.120 6 207549358.930 5 168650783.561 6 160490277.183 6        35.200          37.400          38.000
C06  40792469.914 5  40792457.098 5  40792464.250 5      1689.082 5      1373.950 5      1307.469 5 212417084.296 5 172606239.867 5 164254356.416 5        33.300          34.200          34.300
C16  40985055.070 5  40985045.445 5  40985055.020 6      1500.918 5      1221.134 5      1162.047 6 213419934.580 5 173421141.146 5 165029831.783 6        34.300          33.700          37.000
C20  24939298.203 7  24939281.523 7                      3331.961 7      2709.287 7                 129865473.093 7 105526329.281 7                        44.100          43.800
C26  26651256.820 6  26651247.742 6                      1348.195 6      1101.255 6                 138780081.597 6 112770150.549 6                        36.700          37.700
C27  24253400.367 7  24253392.059 7                     -2347.930 7     -1906.070 7                 126293854.978 7 102624080.579 7                        45.400          44.700
C29  23380457.789 7  23380447.762 7                      2188.477 7      1779.793 7                 121748201.606 7  98930359.651 7                        46.600          47.600
C30  21558406.523 8  21558399.391 8                      -257.133 8      -205.441 8                 112260311.093 8  91220731.308 8                        52.700          52.500
E01  25380780.156 8  25380784.383 8  25380782.203 8  25380783.426 8     -2426.418 8     -1808.604 8     -1855.786 8     -1832.195 8 133376899.971 8  99599652.584 8 102197893.713 8 100898773.253 8        48.100          49.200          49.500          52.400
E07  26356127.391 7  26356133.207 7  26356130.805 7  26356132.281 8      1928.195 7      1443.507 7      1481.163 7      1462.335 8 138502385.668 7 103427133.331 7 106125221.726 7 104776175.638 8        44.500          46.500          46.700          49.700
E08  25198233.289 7  25198236.160 7  25198234.145 7  25198234.805 7      -381.281 7      -279.407 7      -286.696 7      -283.051 7 132417619.393 7  98883303.830 7 101462861.322 7 100173081.684 7        42.700          44.100          43.900          47.500
E13  26864924.617 6  26864928.410 7  26864925.934 7  26864927.902 7     -2182.770 6     -1629.871 7     -1672.390 7     -1651.131 7 141176159.965 6 105423783.812 7 108173964.046 7 106798871.035 7        41.200          43.000          43.200          46.300
E21  28377081.602 6  28377085.867 6  28377084.234 6  28377085.059 7     -3197.141 6     -2388.109 6     -2450.406 6     -2419.257 7 149122600.671 6 111357822.221 6 114262804.198 6 112810314.812 7        39.400          40.900          40.700          44.400
E24  28491042.859 5  28491045.523 6  28491042.938 6  28491044.250 7      2332.371 5      1745.026 6      1790.548 6      1767.787 7 149721433.879 5 111804972.275 6 114721620.361 6 113263296.924 7        35.100          41.100          40.500          44.500
E26  23797696.445 8  23797699.285 9  23797697.055 9  23797698.285 9      -666.672 8      -496.034 9      -508.974 9      -502.504 9 125057773.144 8  93387326.884 9  95823508.290 9  94605418.692 9        51.700          54.000          54.100          56.900
E31  25362859.617 7  25362864.543 8  25362862.371 8  25362863.578 8       275.207 7       211.043 8       216.549 8       213.796 8 133282720.906 7  99529322.892 8 102125729.552 8 100827527.330 8        46.800          48.900          49.600          52.500
E33  24643363.914 7  24643367.152 8  24643364.848 8  24643366.262 9      1330.238 7       995.043 8      1021.001 8      1008.022 9 129501771.044 7  96705888.622 8  99228641.747 8  97967264.294 9        47.700          51.800          51.300          54.900
G01  23119233.820 6  23119241.555 4  23119241.516 6  23119241.621 8      2977.004 6      2322.066 4      2322.066 6      2225.314 8 121492387.093 6  94669436.296 4  94669432.297 6  90724880.158 8        40.000          25.600          41.400          48.000
G08  20411663.969 8  20411669.895 9  20411670.590 8  20411669.727 9       754.105 8       592.797 9       592.797 8       568.097 9 107264009.851 8  83582405.728 9  83582407.730 8  80099808.665 9        52.200          55.400          51.400          56.400
G10  21663359.813 8  21663365.938 8  21663365.473 8  21663364.781 8     -1619.156 8     -1255.482 8     -1255.482 8     -1203.170 8 113841743.360 8  88707890.653 8  88707881.658 8  85011725.031 8        50.700          53.200          48.500          53.200
G16  23474557.414 6  23474560.910 4                                     -3622.957 6     -2820.990 4                                 123359596.733 6  96124410.258 4                                        41.800          25.500
G21  21507645.172 7  21507648.738 6                                      1288.035 7      1006.903 6                                 113023535.646 7  88070245.200 6                                        47.200          38.700
G22  24024692.313 5  24024694.313 3                                      3643.590 5      2840.918 3                                 126250605.017 5  98377114.740 3                                        33.700          20.100
G23  23869682.047 6  23869687.262 3  23869687.379 6  23869690.992 7     -3242.941 6     -2523.969 3     -2523.969 6     -2418.805 7 125436038.148 6  97742392.500 3  97742409.516 6  93669827.132 7        40.600          22.600          40.900          45.600
G27  20611575.141 8  20611581.352 9  20611581.383 8  20611581.223 9     -1402.152 8     -1087.320 9     -1087.320 8     -1042.014 9 108314461.602 8  84401006.398 9  84401007.393 8  80884303.859 9        52.500          55.200          51.300          56.100
G30  25593257.102 5  25593263.918 2  25593263.840 6  25593263.398 7     -1027.816 5      -795.394 2      -795.394 6      -762.253 7 134493606.592 5 104800136.469 2 104800133.493 6 100433450.101 7        34.900          16.300          36.800          42.600
G32  24202963.516 6  24202970.328 5  24202970.594 6  24202969.813 7      2635.504 6      2056.013 5      2056.011 6      1970.344 7 127187439.153 6  99107105.831 5  99107110.828 6  94977648.050 7        40.300          35.500          40.200          44.500
R01  20695367.992 7  20695367.898 7  20695373.176 7  20695373.844 6      2645.398 7      2656.017 7      2065.791 7      2065.790 6 110628660.565 7 110628673.575 7  86044499.522 7  86044499.526 6        46.400          44.800          42.400          41.200
R02  24150439.508 6  24150436.426 6  24150441.633 6  24150441.809 6      4489.496 6      4488.222 6      3490.837 6      3490.837 6 128871376.248 6 128871413.218 6 100233291.852 6 100233301.855 6        38.400          37.700          37.400          37.300
R07  24077097.164 6  24077096.621 6  24077099.551 6  24077099.082 6     -3641.820 6     -3635.440 6     -2827.566 6     -2827.566 6 128886633.544 6 128886568.534 6 100245143.750 6 100245147.752 6        40.000          37.800          37.300          36.200
R08  21088597.266 7  21088596.574 7  21088599.359 7  21088599.828 7      -960.363 7      -947.106 7      -736.638 7      -736.638 7 112928482.030 7 112928484.041 7  87833273.188 7  87833290.181 7        45.500          44.300          46.100          46.000
R14  21759999.391 7  21759998.672 7  21760004.586 7  21760004.746 7     -3004.738 7     -2996.288 7     -2330.445 7     -2330.446 7 115993006.587 7 115993022.581 7  90216813.836 7  90216812.832 7        45.800          45.000          43.400          42.600
R15  21826080.117 7  21826080.359 7  21826083.000 7  21826083.715 7       488.629 7       501.857 7       390.333 7       390.333 7 116631952.450 7 116631989.432 7  90713737.626 7  90713746.624 7        47.300          46.000          43.500          43.600
R17  22172112.664 7  22172110.730 7  22172114.789 7  22172115.305 6      2775.773 7      2777.202 7      2160.046 7      2160.045 6 118647473.617 7 118647467.604 7  92281385.032 7  92281388.043 6        43.300          42.000          42.600          41.900
R23  20926327.266 7  20926325.785 7                                     -1945.566 7     -1941.749 7                                 111941762.084 7 111941841.092 7                                        47.500          46.800
R24  19737415.219 8  19737414.953 8  19737418.207 8  19737418.160 8       443.000 8       447.894 8       348.362 8       348.362 8 105544802.195 8 105544962.220 8  82090435.036 8  82090469.033 8        52.000          50.800          49.400          48.500
S36  37803050.766 7  37803043.094 7        -1.594 7        -1.374 7 198657878.914 7 148348156.673 7        46.300          47.000
> 2022 01 01 00 14 00.0000000  0 37
C05  39857674.328 5  39857664.012 6  39857668.871 6        -1.660 5        -1.261 6        -1.200 6 207549405.509 5 168650821.403 6 160490313.196 6        35.500          36.900          38.100
C06  40782749.844 5  40782736.273 5  40782744.164 5      1685.359 5      1371.013 5      1304.674 5 212366467.385 5 172565109.464 5 164215216.205 5        32.900          34.200          35.400
C16  40976421.438 5  40976412.488 5  40976422.102 5      1496.156 5      1217.630 5      1158.712 5 213374980.387 5 173384612.249 5 164995070.430 5        34.400          34.000          35.800
C20  24920114.305 7  24920097.574 7                      3327.641 7      2705.756 7                 129765578.328 7 105445156.599 7                        44.100          43.200
C26  26643528.531 6  26643520.422 6                      1334.219 6      1089.904 6                 138739843.067 6 112737453.418 6                        36.500          37.600
C27  24266939.836 7  24266931.531 7                     -2352.363 7     -1909.672 7                 126364358.840 7 102681370.723 7                        44.700          44.700
C29  23367860.523 7  23367850.066 8                      2184.805 7      1776.826 8                 121682602.310 7  98877054.864 8                        46.900          48.200
C30  21559912.313 8  21559905.160 8                      -265.621 8      -212.375 8                 112268151.830 8  91227102.549 8                        52.500          52.700
E01  25394657.445 7  25394661.754 8  25394659.836 8  25394660.906 8     -2435.355 7     -1815.276 8     -1862.631 8     -1838.954 8 133449826.730 7  99654110.870 8 102253772.649 8 100953941.862 8        47.600          48.800          49.300          52.600
E07  26345147.039 7  26345153.539 7  26345150.051 7  26345151.805 8      1918.496 7      1436.309 7      1473.778 7      1455.043 8 138444683.520 7 103384044.074 7 106081008.388 7 104732524.340 8        43.400          47.000          45.900          49.500
E08  25200450.461 7  25200454.305 7  25200451.477 7  25200452.180 7      -395.566 7      -290.046 7      -297.612 7      -293.829 7 132429271.682 7  98892005.206 7 101471789.692 7 100181896.555 7        42.400          44.500          43.600          47.600
E13  26877387.313 6  26877391.848 7  26877388.867 7  26877390.953 7     -2183.266 6     -1630.229 7     -1672.756 7     -1651.493 7 141241652.664 6 105472690.674 7 108224146.727 7 106848415.811 7        41.400          43.000          42.500          46.100
E21  28395327.953 6  28395332.410 6  28395331.125 6  28395331.688 7     -3195.242 6     -2386.782 6     -2449.047 6     -2417.915 7 149218487.040 6 111429425.691 6 114336275.618 6 112882852.251 7        40.100          39.600          39.800          43.800
E24  28477751.188 5  28477753.762 6  28477751.270 6  28477752.875 7      2323.965 5      1738.609 6      1783.964 6      1761.287 7 149651587.171 5 111752813.993 6 114668101.440 6 113210458.317 7        34.600          41.100          40.000          44.400
E26  23801515.984 8  23801518.652 9  23801516.367 9  23801517.676 9      -671.430 8      -499.600 9      -512.633 9      -506.117 9 125077844.038 8  93402314.888 9  95838887.280 9  94620602.190 9        51.500          54.000          54.200          57.200
E31  25361330.469 7  25361335.383 8  25361333.441 8  25361334.484 8       260.453 7       200.017 8       205.234 8       202.626 8 133274685.459 7  99523322.382 8 102119572.522 8 100821448.551 8        47.000          48.900          49.800          52.700
E33  24635782.359 7  24635785.582 8  24635783.348 8  24635784.527 9      1325.836 7       991.747 8      1017.618 8      1004.683 9 129461928.700 7  96676136.222 8  99198113.199 8  97937123.814 9        47.900          52.200          51.800          55.400
G01  23102256.117 6  23102264.016 4  23102263.430 6  23102262.996 7      2971.031 6      2317.403 4      2317.403 6      2220.844 7 121403167.036 6  94599914.210 4  94599910.206 6  90658254.836 7        40.600          25.700          41.200          47.600
G08  20407396.984 8  20407402.930 9  20407403.512 8  20407402.680 9       740.738 8       582.433 9       582.433 8       558.165 9 107241586.203 8  83564932.750 9  83564934.752 8  80083063.724 9        52.000          55.500          51.100          56.700
G10  21672648.438 8  21672654.582 8  21672654.117 8  21672653.184 8     -1635.004 8     -1267.837 8     -1267.836 8     -1215.010 8 113890555.078 8  88745925.752 8  88745916.742 8  85048175.328 8        50.400          53.000          48.000          53.200
G16  23495254.633 6  23495258.211 4                                     -3627.957 6     -2825.064 4                                 123468361.692 6  96209162.182 4                                        41.800          25.200
G21  21500315.055 7  21500318.758 6                                      1279.844 7      1000.502 6                                 112985016.291 7  88040230.145 6                                        47.200          38.900
G22  24003906.641 5  24003909.211 3                                      3638.434 5      2837.070 3                                 126141377.787 5  98292002.641 3                                        34.500          19.300
G23  23888217.648 6  23888221.152 3  23888222.094 6  23888225.395 7     -3250.688 6     -2529.980 3     -2529.979 6     -2424.563 7 125533442.345 6  97818291.889 3  97818308.871 6  93742564.019 7        39.800          22.200          37.900          44.300
G27  20619617.961 8  20619623.816 9  20619623.984 8  20619623.695 9     -1415.516 8     -1097.753 9     -1097.754 8     -1052.014 9 108356725.115 8  84433938.999 9  84433940.002 8  80915864.275 9        52.700          55.200          51.000          56.300
G30  25599164.883 5  25599171.203 3  25599171.703 6  25599171.625 7     -1041.961 5      -806.331 3      -806.329 6      -772.732 7 134524650.276 5 104824326.387 3 104824323.366 6 100456632.054 7        34.300          18.600          37.200          43.800
G32  24187935.820 6  24187942.539 5  24187942.492 6  24187942.176 7      2629.273 6      2051.185 5      2051.184 6      1965.719 7 127108468.561 6  99045570.296 5  99045575.311 6  94918676.489 7        39.600          35.200          40.200          44.500
R01  20680581.961 7  20680581.645 7  20680585.832 7  20680587.625 6      2624.070 7      2634.720 7      2049.227 7      2049.227 6 110549618.932 7 110549631.963 7  85983022.716 7  85983022.712 6        47.100          45.000          42.900          41.600
R02  24125191.375 6  24125191.031 6  24125193.926 6  24125194.656 5      4491.914 6      4490.796 6      3492.841 6      3492.842 5 128736652.319 6 128736689.319 6 100128506.628 6 100128516.598 5        38.100          36.800          37.500          35.400
R07  24097542.023 6  24097542.777 6  24097545.121 6  24097544.652 6     -3654.223 6     -3648.026 6     -2837.355 6     -2837.355 6 128996074.305 6 128996009.317 6 100330264.391 6 100330268.404 6        41.100          38.600          39.100          37.200
R08  21094051.977 7  21094051.684 7  21094055.238 7  21094054.340 7      -986.980 7      -973.705 7      -757.327 7      -757.327 7 112957693.188 7 112957695.199 7  87855992.996 7  87856009.990 7        46.400          45.000          45.500          45.800
R14  21776956.656 7  21776956.230 7  21776962.695 7  21776961.527 7     -3021.293 7     -3012.963 7     -2343.415 7     -2343.415 7 116083395.455 7 116083411.462 7  90287116.283 7  90287115.271 7        46.700          45.300          42.800          43.300
R15  21823411.656 7  21823411.055 7  21823413.793 7  21823414.625 7       462.129 7       475.399 7       369.756 7       369.755 7 116617690.465 7 116617727.464 7  90702644.959 7  90702653.971 7        47.700          45.700          43.200          43.400
R17  22156557.727 7  22156557.180 7  22156559.914 6  22156560.391 6      2773.059 7      2774.492 7      2157.938 6      2157.938 6 118564238.859 7 118564232.847 7  92216646.896 6  92216649.909 6        44.300          42.500          41.600          41.000
R23  20937258.508 7  20937257.016 7                                     -1952.980 7     -1949.245 7                                 112000239.443 7 112000318.452 7                                        47.700          45.600
R24  19734957.398 8  19734957.332 8  19734960.730 8  19734960.621 8       433.141 8       438.062 8       340.715 8       340.714 8 105531660.363 8 105531820.374 8  82080213.598 8  82080247.615 8        52.700          51.000          49.100          48.300
S36  37803060.250 7  37803052.926 7        -1.676 7        -1.325 7 198657926.540 7 148348196.425 7        45.700          46.500
