     3.04           OBSERVATION DATA    Mixed(MIXED)        RINEX VERSION / TYPE
cnvtToRINEX 3.14.0  REGINA              20230101 001523 UTC PGM / RUN BY / DATE
----------------------------------------------------------- COMMENT
TLSE                                                        MARKER NAME
10003M009                                                   MARKER NUMBER
GEODETIC                                                    MARKER TYPE
Automatic           CNES                                    OBSERVER / AGENCY
6139R40106          TRIMBLE ALLOY       6.14                REC # / TYPE / VERS
5129354206          TRM59800.00     NONE                    ANT # / TYPE
  4627852.7427   119640.5773  4372995.1476                  APPROX POSITION XYZ
        1.0530        0.0000        0.0000                  ANTENNA: DELTA H/E/N
C   24 C1X C2I C5X C6I C7D C7I D1X D2I D5X D6I D7D D7I L1X  SYS / # / OBS TYPES
       L2I L5X L6I L7D L7I S1X S2I S5X S6I S7D S7I          SYS / # / OBS TYPES
R   16 C1C C1P C2C C2P D1C D1P D2C D2P L1C L1P L2C L2P S1C  SYS / # / OBS TYPES
       S1P S2C S2P                                          SYS / # / OBS TYPES
S    8 C1C C5I D1C D5I L1C L5I S1C S5I                      SYS / # / OBS TYPES
G   20 C1C C1X C2W C2X C5X D1C D1X D2W D2X D5X L1C L1X L2W  SYS / # / OBS TYPES
       L2X L5X S1C S1X S2W S2X S5X                          SYS / # / OBS TYPES
I    4 C5A D5A L5A S5A                                      SYS / # / OBS TYPES
E   20 C1X C5X C6X C7X C8X D1X D5X D6X D7X D8X L1X L5X L6X  SYS / # / OBS TYPES
       L7X L8X S1X S5X S6X S7X S8X                          SYS / # / OBS TYPES
     1.000                                                  INTERVAL
  2023     1     1     0     0    0.0000000     GPS         TIME OF FIRST OBS
  2023     1     1     0     0   10.0000000     GPS         TIME OF LAST OBS
     0                                                      RCV CLOCK OFFS APPL
  9 R06 -4 R07  5 R08  6 R12 -1 R13 -2 R14 -7 R21  4 R22 -3 GLONASS SLOT / FRQ #
    R23  3                                                  GLONASS SLOT / FRQ #
R L1P  0.25000                                              SYS / PHASE SHIFT
R L2C -0.25000                                              SYS / PHASE SHIFT
R L2P  0.00000                                              SYS / PHASE SHIFT
G L1X  0.25000                                              SYS / PHASE SHIFT
G L2X -0.25000                                              SYS / PHASE SHIFT
    18                                                      LEAP SECONDS
    53                                                      # OF SATELLITES
   C05     0   900     0   900     0   900     0   900     0PRN / # OF OBS
         899     0   899     0   899     0   899     0   899PRN / # OF OBS
           0   900     0   900     0   900                  PRN / # OF OBS
   C06     0   900     0   900     0   900     0   900     0PRN / # OF OBS
         899     0   899     0   900     0   900     0   900PRN / # OF OBS
           0   900     0   900     0   900                  PRN / # OF OBS
   C09     0   900     0   900     0   900     0   900     0PRN / # OF OBS
         899     0   899     0   899     0   899     0   899PRN / # OF OBS
           0   900     0   900     0   900                  PRN / # OF OBS
   C11     0   900     0   900     0   900     0   900     0PRN / # OF OBS
         899     0   899     0   900     0   900     0   900PRN / # OF OBS
           0   900     0   900     0   900                  PRN / # OF OBS
   C14     0   900     0   900     0   900     0   900     0PRN / # OF OBS
         899     0   899     0   900     0   900     0   900PRN / # OF OBS
           0   900     0   900     0   900                  PRN / # OF OBS
   C16     0   900     0   900     0   900     0   900     0PRN / # OF OBS
         899     0   899     0   900     0   900     0   900PRN / # OF OBS
           0   900     0   900     0   900                  PRN / # OF OBS
   C27   900   900   900   900   900     0   899   900   899PRN / # OF OBS
         899   899     0   900   900   900   900   900     0PRN / # OF OBS
         900   900   900   900   900     0                  PRN / # OF OBS
   C28   900   900   900   900   900     0   899   900   899PRN / # OF OBS
         899   899     0   900   900   900   900   900     0PRN / # OF OBS
         900   900   900   900   900     0                  PRN / # OF OBS
   C33   900   900   900   900   900     0   899   900   899PRN / # OF OBS
         899   899     0   900   900   900   900   900     0PRN / # OF OBS
         900   900   900   900   900     0                  PRN / # OF OBS
   C36   900   900   900   900   855     0   899   900   899PRN / # OF OBS
         899   847     0   900   900   900   900   845     0PRN / # OF OBS
         900   900   900   900   855     0                  PRN / # OF OBS
   C37   900   900   900   900   900     0   899   900   899PRN / # OF OBS
         899   899     0   900   900   900   900   900     0PRN / # OF OBS
         900   900   900   900   900     0                  PRN / # OF OBS
   C39   900   900   900   900   900     0   899   900   899PRN / # OF OBS
         899   899     0   900   900   900   900   900     0PRN / # OF OBS
         900   900   900   900   900     0                  PRN / # OF OBS
   C41   900   900   900   900   900     0   899   900   899PRN / # OF OBS
         899   899     0   900   900   900   900   900     0PRN / # OF OBS
         900   900   900   900   900     0                  PRN / # OF OBS
   C42   900   900   900   900   900     0   899   900   899PRN / # OF OBS
         899   899     0   900   900   900   900   900     0PRN / # OF OBS
         900   900   900   900   900     0                  PRN / # OF OBS
   C43   900   900   900   900   900     0   899   900   899PRN / # OF OBS
         899   899     0   900   900   900   900   900     0PRN / # OF OBS
         900   900   900   900   900     0                  PRN / # OF OBS
   C46   900   900   900   900   900     0   899   900   899PRN / # OF OBS
         899   899     0   900   900   900   900   900     0PRN / # OF OBS
         900   900   900   900   900     0                  PRN / # OF OBS
   E02   544   544   543   544   544   544   543   542   543PRN / # OF OBS
         543   543   544   542   544   544   544   544   543PRN / # OF OBS
         544   544                                          PRN / # OF OBS
   E04   900   900   900   900   900   900   899   899   899PRN / # OF OBS
         899   900   900   900   900   900   900   900   900PRN / # OF OBS
         900   900                                          PRN / # OF OBS
   E10   900   900   900   900   900   900   899   899   899PRN / # OF OBS
         899   900   900   900   900   900   900   900   900PRN / # OF OBS
         900   900                                          PRN / # OF OBS
   E11   900   900   900   900   900   900   899   899   899PRN / # OF OBS
         899   900   900   900   900   900   900   900   900PRN / # OF OBS
         900   900                                          PRN / # OF OBS
   E12   900   900   900   900   900   900   899   899   899PRN / # OF OBS
         899   900   900   900   900   900   900   900   900PRN / # OF OBS
         900   900                                          PRN / # OF OBS
   E19   900   900   900   900   900   900   899   899   899PRN / # OF OBS
         899   900   900   900   900   900   900   900   900PRN / # OF OBS
         900   900                                          PRN / # OF OBS
   E24   900   900   900   900   900   900   899   899   899PRN / # OF OBS
         899   900   900   900   900   900   900   900   900PRN / # OF OBS
         900   900                                          PRN / # OF OBS
   E25   900   900   900   900   900   900   899   899   899PRN / # OF OBS
         899   900   900   900   900   900   900   900   900PRN / # OF OBS
         900   900                                          PRN / # OF OBS
   E31   900   900   900   900   900   900   899   899   899PRN / # OF OBS
         899   900   900   900   900   900   900   900   900PRN / # OF OBS
         900   900                                          PRN / # OF OBS
   E33   900   900   900   900   900   900   899   899   899PRN / # OF OBS
         899   900   900   900   900   900   900   900   900PRN / # OF OBS
         900   900                                          PRN / # OF OBS
   G01   900     0   900   900   900   900     0   899   899PRN / # OF OBS
         899   900     0   900   900   900   900     0   900PRN / # OF OBS
         900   900                                          PRN / # OF OBS
   G03   900     0   900   900   900   900     0   899   899PRN / # OF OBS
         899   900     0   900   900   900   900     0   900PRN / # OF OBS
         900   900                                          PRN / # OF OBS
   G08   900     0   900   900   900   900     0   899   899PRN / # OF OBS
         899   900     0   900   900   900   900     0   900PRN / # OF OBS
         900   900                                          PRN / # OF OBS
   G10   900     0   900   900   900   900     0   899   899PRN / # OF OBS
         899   900     0   900   900   900   900     0   900PRN / # OF OBS
         900   900                                          PRN / # OF OBS
   G14   900   900   900   900   900   900   899   899   899PRN / # OF OBS
         899   900   900   900   900   900   900   900   900PRN / # OF OBS
         900   900                                          PRN / # OF OBS
   G16   900     0   663     0     0   900     0   661     0PRN / # OF OBS
           0   882     0   648     0     0   900     0   663PRN / # OF OBS
           0     0                                          PRN / # OF OBS
   G21   900     0   900     0     0   900     0   899     0PRN / # OF OBS
           0   900     0   900     0     0   900     0   900PRN / # OF OBS
           0     0                                          PRN / # OF OBS
   G22   900     0   900     0     0   900     0   899     0PRN / # OF OBS
           0   900     0   900     0     0   900     0   900PRN / # OF OBS
           0     0                                          PRN / # OF OBS
   G23   530   530   371   530   530   530   529   369   529PRN / # OF OBS
         529   511   528   361   530   530   530   530   371PRN / # OF OBS
         530   530                                          PRN / # OF OBS
   G27   900     0   900   900   900   900     0   899   899PRN / # OF OBS
         899   900     0   900   900   900   900     0   900PRN / # OF OBS
         900   900                                          PRN / # OF OBS
   G32   900     0   900   900   900   900     0   899   899PRN / # OF OBS
         899   900     0   900   900   900   900     0   900PRN / # OF OBS
         900   900                                          PRN / # OF OBS
   I06   900   900   900   900                              PRN / # OF OBS
   I09   900   900   900   900                              PRN / # OF OBS
   R06   900   900     0     0   900   899     0     0   900PRN / # OF OBS
         900     0     0   900   900     0     0            PRN / # OF OBS
   R07   900   900   900   900   900   899   899   899   900PRN / # OF OBS
         900   900   900   900   900   900   900            PRN / # OF OBS
   R08   900   900   900   900   900   899   899   899   900PRN / # OF OBS
         900   900   900   900   900   900   900            PRN / # OF OBS
   R12   900   900   900   900   900   899   899   899   900PRN / # OF OBS
         900   900   900   900   900   900   900            PRN / # OF OBS
   R13   900   900   900   900   900   899   899   899   900PRN / # OF OBS
         900   900   900   900   900   900   900            PRN / # OF OBS
   R14   900   900   900   900   900   899   899   899   900PRN / # OF OBS
         900   900   900   900   900   900   900            PRN / # OF OBS
   R21   900   900   900   900   900   899   899   899   900PRN / # OF OBS
         900   900   900   900   900   900   900            PRN / # OF OBS
   R22   900   900   900   900   900   899   899   899   900PRN / # OF OBS
         900   900   900   900   900   900   900            PRN / # OF OBS
   R23   900   900     0     0   900   899     0     0   900PRN / # OF OBS
         900     0     0   900   900     0     0            PRN / # OF OBS
   S23   900   900   900   899   900   900   900   900      PRN / # OF OBS
   S26   667     0   667     0   667     0   667     0      PRN / # OF OBS
   S27   366   354   366   320   366   327   366   354      PRN / # OF OBS
   S36   900   900   900   899   900   900   900   900      PRN / # OF OBS
   S48   896     0   896     0   896     0   896     0      PRN / # OF OBS
DBHZ                                                        SIGNAL STRENGTH UNIT
                                                            END OF HEADER
> 2023 01 01 00 00  0.0000000  0 52
C05                  39893212.227 5                  39893201.480 6                  39893203.824 6                        -7.516 5                                                                                 207734415.797 5                 168801205.413 6                 160633409.236 6                        35.200                          37.200                          39.000
C06                  41001744.609 5                  41001732.363 5                  41001736.703 5                      1699.867 5                                                                                 213506846.472 5                 173491754.336 5                 165097004.363 5                        32.800                          34.100                          35.500
C09                  41545986.531 5                  41545974.125 5                  41545981.234 5                      1856.191 5                                                                                 216340855.985 5                 175794617.702 5                 167288448.661 5                        34.700                          32.900                          34.300
C11                  26348712.195 5                  26348700.621 6                  26348706.473 6                     -2664.230 5                                                                                 137204946.296 5                 111490331.409 6                 106095692.268 6                        35.900                          37.700                          40.700
C14                  22617098.492 8                  22617085.500 8                  22617091.055 8                      -624.953 8                                                                                 117773261.677 8                  95700399.291 8                  91069760.547 8                        49.300                          50.600                          50.700
C16                  41045284.195 5                  41045274.480 5                  41045281.004 5                      1543.113 5                                                                                 213733568.596 5                 173675993.971 5                 165272340.024 5                        34.200                          32.400                          35.200
C27  24002056.527 7  24002057.313 7  24002053.641 7  24002048.121 7  24002051.469 6                                      2445.059 7                                                                 126131655.232 7 124985024.367 7  94189236.918 7 101560532.810 7  96646329.184 6                        45.000          45.500          46.600          45.700          40.600
C28  21633913.184 8  21633914.570 8  21633910.988 8  21633905.297 8  21633908.930 7                                       365.531 8                                                                 113687009.950 8 112653506.497 8  84896164.668 8  91540179.599 8  87110829.221 7                        51.900          52.700          52.500          52.800          47.400
C33  22560323.453 8  22560324.703 8  22560346.125 8  22560327.594 8  22560343.684 7                                      1108.613 8                                                                 118555418.812 8 117477663.955 8  88531780.383 8  95460288.177 8  90841294.830 7                        52.500          52.700          53.400          52.100          47.300
C36  27305899.063 5  27305899.398 5  27305902.883 6  27305895.539 5  27305900.848 4                                      1014.820 5                                                                 143493451.454 5 142188982.038 5 107154223.481 6 115540180.950 5 109949540.479 4                        35.000          34.400          37.500          35.400          28.900
C37  26483917.336 6  26483918.367 6  26483919.684 7  26483913.574 6  26483917.492 5                                     -2672.809 6                                                                 139173902.897 6 137908688.007 6 103928566.676 7 112062087.849 6 106639738.605 5                        38.800          38.900          42.800          39.300          35.600
C39  40703887.645 6  40703887.891 6  40703882.453 6  40703875.875 6  40703879.957 5                                      1287.375 6                                                                 213900363.038 6 211955822.853 6 159730790.840 6 172231424.883 6 163897661.002 5                        38.800          37.800          41.300          38.200          33.800
C41  24680088.863 7  24680089.758 7  24680096.598 7  24680086.289 7  24680094.566 6                                      3296.523 7                                                                 129694787.212 7 128515753.702 7  96850050.073 7 104429582.257 7  99376559.166 6                        45.700          45.400          46.000          44.600          40.500
C42  24379577.754 7  24379578.180 7  24379585.184 7  24379577.141 7  24379582.922 6                                     -2005.836 7                                                                 128115595.976 7 126950926.803 7  95670789.146 7 103158042.361 7  98166522.617 6                        46.400          44.400          47.900          46.600          41.100
C43  23829609.473 7  23829610.695 7  23829608.363 7  23829601.230 7  23829605.371 6                                     -2254.172 7                                                                 125225643.344 7 124087251.802 7  93512761.923 7 100831100.626 7  95952093.798 6                        47.500          47.600          47.900          46.400          41.100
C46  25774462.207 6  25774462.086 6  25774451.289 7  25774446.426 6  25774448.469 6                                     -1064.250 6                                                                 135445693.483 6 134214374.458 6 101144505.442 7 109060112.936 6 103783015.482 6                        41.400          39.800          44.600          39.900          37.100
E04  28119234.641 6  28119237.328 6  28119229.660 7  28119234.707 6  28119237.309 7      3018.375 6                                                                 147767647.305 6 110346014.464 6 119941277.121 7 113224585.268 6 111785313.155 7        38.700          40.600          43.800          40.500          44.700
E10  24097237.656 8  24097239.418 8  24097232.480 9  24097236.980 8  24097239.238 9       943.152 8                                                                 126631894.948 8  94562821.198 8 102785633.433 9  97029663.771 8  95796248.280 9        51.800          52.500          56.400          52.600          56.200
E11  25550146.117 7  25550144.750 7  25550136.754 7  25550142.270 7  25550144.582 7      1822.035 7                                                                 134266936.371 7 100264265.235 7 108982864.333 7 102879836.918 7 101572077.871 7        43.100          43.500          47.000          42.400          46.100
E12  23575815.352 7  23575814.168 8  23575805.703 9  23575811.832 8  23575814.113 9      -136.738 7                                                                 123891773.441 7  92516596.934 8 100561477.060 9  94930062.790 8  93723335.666 9        47.800          50.400          54.300          51.600          54.800
E19  26839277.555 7  26839278.691 7  26839270.465 7  26839276.348 7  26839278.461 7      1994.773 7                                                                 141041361.555 7 105323099.219 7 114481598.785 7 108070649.603 7 106696879.705 7        43.000          42.900          44.300          42.700          46.300
E24  25591576.422 8  25591577.602 8  25591569.895 8  25591574.555 8  25591577.152 8     -2120.480 8                                                                 134484652.840 8 100426854.410 8 109159591.351 8 103046671.573 8 101736771.790 8        48.100          49.200          51.400          48.200          52.500
E25  26105927.648 7  26105930.348 7  26105920.414 8  26105927.406 7  26105930.004 8       579.293 7                                                                 137187571.921 7 102445271.902 7 111353517.267 8 105117747.793 7 103781515.653 8        45.700          47.000          48.700          46.200          51.000
E31  27801691.711 6  27801695.031 6  27801684.723 7  27801692.984 6  27801695.453 7     -3154.898 6                                                                 146098927.830 6 109099891.749 6 118586779.678 7 111945963.524 6 110522932.936 7        40.100          41.100          42.600          41.500          45.100
E33  26029580.547 7  26029581.266 7  26029574.383 8  26029578.910 7  26029581.418 8     -1924.602 7                                                                 136786628.010 7 102146013.911 7 111028187.829 8 104810661.935 7 103478343.715 8        45.500          46.400          49.200          46.600          50.600
G01  21797490.547 7                  21797497.863 5  21797497.621 7  21797493.875 8      2378.789 7                                                                 114546570.735 7                  89257125.684 5  89257128.693 7  85538067.312 8        44.800                          35.900          46.200          51.200
G03  24498810.367 6                  24498817.250 3  24498817.273 6  24498815.277 7      3809.121 6                                                                 128741988.030 6                 100318572.054 3 100318580.062 6  96138629.223 7        39.700                          23.900          41.300          44.500
G08  20368595.180 8                  20368601.988 9  20368602.484 8  20368598.309 9      -612.957 8                                                                 107037638.368 8                  83406051.761 9  83406051.760 8  79930785.432 9        52.100                          56.100          53.200          55.700
G10  22565631.164 7                  22565637.672 7  22565637.262 7  22565633.141 8     -2645.301 7                                                                 118583420.690 7                  92402845.549 7  92402791.549 7  88552700.042 8        47.000                          46.600          45.400          49.200
G14  24112244.156 6  24112242.180 6  24112248.242 4  24112248.566 7  24112249.852 7      2328.773 6                                                                 126710700.440 6 126710709.444 6  98735628.322 4  98735634.313 7  94621647.836 7        38.900          41.800          25.600          42.000          45.300
G16  25374686.016 5                  25374690.129 2                                     -3748.977 5                                                                 133344841.807 5                 103905127.610 2                                        33.900                          17.800
G21  20979427.938 8                  20979431.898 7                                       636.508 8                                                                 110247660.078 8                  85907296.111 7                                        51.000                          43.000
G22  23794136.234 6                  23794140.516 3                                      2626.441 6                                                                 125039178.320 6                  97433054.351 3                                        40.000                          22.000
G23  25360636.484 5  25360634.590 6  25360640.273 2  25360641.395 6  25360641.906 6     -3578.398 5                                                                 133271166.602 5 133271199.562 6 103847643.025 2 103847766.020 6  99520841.927 6        33.500          36.500          16.300          36.500          41.600
G27  21723906.523 8                  21723912.660 8  21723912.684 8  21723909.859 8     -2634.227 8                                                                 114159902.137 8                  88955833.751 8  88955832.749 8  85249331.851 8        48.500                          51.400          48.800          52.800
G32  23192719.641 7                  23192725.547 7  23192725.742 7  23192722.680 7      1474.766 7                                                                 121878559.767 7                  94970361.001 7  94970363.993 7  91013224.560 7        43.900                          43.300          43.800          47.000
I06  38539258.805 6        58.109 6 151236405.966 6        37.600
I09  37770106.695 6       179.988 6 148218073.123 6        38.300
R06  21334585.305 6  21334582.844 6                                     -2304.730 6                                                 113845473.495 6 113845442.492 6                                        38.600          37.500
R07  20125376.234 9  20125375.281 8  20125379.020 8  20125378.855 8      1727.504 9                                                 107732774.505 9 107732804.516 8  83792236.792 8  83792178.795 8        54.000          51.900          50.000          49.600
R08  22427110.234 7  22427110.664 6  22427112.816 7  22427113.094 7      4334.465 7                                                 120096226.648 7 120096241.649 6  93408217.272 7  93408242.295 7        43.000          41.700          42.300          42.100
R12  23151108.258 7  23151107.797 6  23151111.207 6  23151112.160 6     -3821.602 7                                                 123669041.763 7 123669053.769 6  96187039.996 6  96187051.002 6        42.600          41.200          38.300          37.800
R13  22065048.922 5  22065046.258 5  22065050.547 6  22065050.523 6     -1613.258 5                                                 117826145.926 5 117826123.918 5  91642544.926 6  91642547.947 6        35.000          33.200          37.100          40.100
R14  23584801.977 6  23584800.602 6  23584804.531 6  23584804.164 6      2041.625 6                                                 125720221.961 6 125720467.967 6  97782440.670 6  97782447.670 6        41.400          40.400          39.900          39.200
R21  22096975.977 8  22096974.078 7  22096976.762 7  22096977.594 7     -2560.613 8                                                 118245487.908 8 118245489.922 7  91968763.060 7  91968788.081 7        48.000          46.500          43.100          43.000
R22  19759407.859 9  19759406.695 8  19759408.043 8  19759408.715 8      -434.109 9                                                 105477104.372 9 105477112.384 8  82037762.955 8  82037783.958 8        54.000          52.000          52.100          51.800
R23  21626812.203 7  21626811.082 7                                      2663.148 7                                                 115688790.886 7 115689101.896 7                                        46.400          44.600
S23  38480921.078 7  38480905.277 7         3.672 7                 202219766.402 7 151006061.231 7        44.100          43.100
S26  40239101.656 5                       -58.906 5                 211457745.813 5                        33.200
S27  39841514.938 5  39841505.449 5        14.320 5                 209368566.437 5                        31.200          35.700
S36  37805832.891 7  37805816.348 7        -1.047 7                 198672165.553 7 148358279.715 7        46.800          46.100
S48  67108863.984 6                       -39.707 6                 400749911.360 6                        37.900
> 2023 01 01 00 00  1.0000000  0 51
C05                  39893213.461 5                  39893202.879 6                  39893205.363 6                        -7.383 5                        -5.926 6                        -5.642 6                 207734423.095 5                 168801211.339 6                 160633414.878 6                        35.800                          37.300                          39.200
C06                  41001418.313 5                  41001405.957 5                  41001410.352 5                      1699.527 5                      1381.171 5                      1314.333 5                 213505146.736 5                 173490373.165 5                 165095690.030 5                        32.600                          33.500                          35.700
C09                  41545630.445 5                  41545617.633 5                  41545624.879 5                      1856.176 5                      1508.329 5                      1435.355 5                 216338999.752 5                 175793109.373 5                 167287013.306 5                        33.600                          33.100                          33.900
C11                  26349223.336 5                  26349212.141 6                  26349218.250 6                     -2664.414 5                     -2164.910 6                     -2060.163 6                 137207610.530 5                 111492496.319 6                 106097752.430 6                        35.700                          37.900                          40.600
C14                  22617218.406 8                  22617205.570 8                  22617211.195 8                      -625.539 8                      -508.068 8                      -483.484 8                 117773886.930 8                  95700907.358 8                  91070244.031 8                        49.400                          50.700                          50.900
C16                  41044987.055 5                  41044978.242 5                  41044984.824 5                      1542.859 5                      1253.849 5                      1193.187 5                 213732025.539 5                 173674740.122 5                 165271146.837 5                        34.600                          32.100                          34.500
C27  24001587.055 7  24001588.141 7  24001584.094 7  24001578.590 7  24001581.930 6                      2467.418 7      2444.875 7      1842.543 7      1986.754 7      1890.618 6                 126129187.814 7 124982579.385 7  94187394.375 7 101558546.056 7  96644438.566 6                        45.000          45.200          46.700          46.000          40.400
C28  21633842.941 8  21633844.383 8  21633840.859 8  21633835.152 8  21633838.793 7                       368.685 8       365.199 8       275.310 8       296.866 8       282.501 7                 113686641.265 8 112653141.167 8  84895889.358 8  91539882.733 8  87110546.720 7                        51.900          52.600          52.300          52.600          47.300
C33  22560110.551 8  22560112.023 8  22560133.281 8  22560114.742 8  22560130.828 7                      1118.450 8      1107.984 8       835.208 8       900.566 8       856.989 7                 118554300.362 8 117476555.681 8  88530945.174 8  95459387.611 8  90840437.842 7                        52.500          52.800          53.500          52.500          47.300
C36  27305704.375 5  27305704.727 5  27305707.988 6  27305700.680 5  27305706.035 4                      1023.796 5      1014.355 5       764.538 6       824.346 5       784.447 4                 143492427.658 5 142187967.556 5 107153458.942 6 115539356.604 5 109948756.033 4                        34.600          34.300          37.700          35.700          27.200
C37  26484430.590 6  26484432.125 6  26484432.973 7  26484426.828 6  26484430.730 5                     -2697.312 6     -2673.047 6     -2014.230 7     -2171.876 6     -2066.787 5                 139176600.210 6 137911360.824 6 103930580.906 7 112064259.725 6 106641805.391 5                        38.400          38.800          42.400          39.800          35.500
C39  40703640.477 6  40703641.055 6  40703635.273 6  40703628.723 6  40703632.730 5                      1299.217 6      1287.367 6       970.196 6      1046.138 6       995.518 5                 213899063.822 6 211954535.436 6 159729820.644 6 172230378.745 6 163896665.484 5                        38.900          37.500          41.200          38.300          33.800
C41  24679455.660 7  24679456.344 7  24679463.598 7  24679453.258 7  24679461.445 6                      3326.646 7      3296.262 7      2484.180 7      2678.594 7      2548.986 6                 129691460.566 7 128512457.297 7  96847565.892 7 104426903.662 7  99374010.180 6                        45.600          45.200          46.000          44.500          40.400
C42  24379962.945 7  24379963.391 7  24379970.453 8  24379962.449 7  24379968.199 6                     -2024.517 7     -2006.402 7     -1511.814 8     -1630.138 7     -1551.264 6                 128117620.493 7 126952932.925 7  95672300.961 8 103159672.500 7  98168073.882 6                        46.400          44.300          48.100          47.100          41.300
C43  23830042.125 7  23830043.641 7  23830041.316 8  23830034.078 7  23830038.281 6                     -2274.941 7     -2254.352 7     -1698.825 8     -1831.772 7     -1743.140 6                 125227918.285 7 124089506.056 7  93514460.748 8 100832932.399 7  95953836.939 6                        47.500          47.400          48.100          46.600          41.100
C46  25774666.805 6  25774666.391 6  25774655.582 7  25774650.926 6  25774652.906 6                     -1074.210 6     -1064.570 6      -802.164 7      -864.933 6      -823.082 6                 135446767.693 6 134215438.896 6 101145307.606 7 109060977.869 6 103783838.564 6                        41.200          40.100          44.500          39.800          37.500
E04  28118660.406 6  28118662.961 6  28118655.125 7  28118660.500 6  28118662.914 7      3018.555 6      2254.050 6      2450.069 7      2312.871 6      2283.444 7 147764628.809 6 110343760.415 6 119938827.053 7 113222272.397 6 111783029.711 7        38.600          40.600          43.900          40.400          44.700
E10  24097058.102 8  24097059.941 8  24097052.945 9  24097057.480 8  24097059.762 9       943.082 8       704.295 8       765.547 9       722.669 8       713.479 9 126630951.796 8  94562116.903 8 102784867.887 9  97028941.102 8  95795534.801 9        51.800          52.300          56.400          52.300          55.800
E11  25549799.352 7  25549798.148 7  25549790.012 7  25549795.742 7  25549797.859 7      1821.859 7      1360.571 7      1478.873 7      1396.064 7      1378.319 7 134265114.402 7 100262904.664 7 108981385.460 7 102878440.854 7 101570699.552 7        43.300          43.700          47.000          42.800          46.000
E12  23575841.188 8  23575840.266 8  23575831.613 9  23575837.879 8  23575840.148 9      -136.926 8      -102.165 8      -111.033 9      -104.823 8      -103.484 9 123891910.232 8  92516699.099 8 100561588.092 9  94930167.613 8  93723439.150 9        48.000          50.100          54.300          51.900          54.300
E19  26838897.578 7  26838899.176 7  26838890.973 7  26838896.754 7  26838898.898 7      1994.363 7      1489.486 7      1619.002 7      1528.341 7      1508.909 7 141039366.941 7 105321609.733 7 114479979.783 7 108069121.262 7 106695370.796 7        42.300          42.400          44.200          42.700          46.400
E24  25591979.961 8  25591981.098 8  25591973.363 8  25591978.000 8  25591980.680 8     -2120.891 8     -1583.603 8     -1721.322 8     -1624.925 8     -1604.257 8 134486773.509 8 100428438.013 8 109161312.673 8 103048296.497 8 101738376.047 8        48.300          49.100          51.400          48.100          52.400
E25  26105817.523 7  26105820.109 7  26105809.855 8  26105817.316 7  26105819.820 8       578.762 7       432.412 7       470.018 8       443.694 7       438.067 8 137186992.851 7 102444839.491 7 111353047.249 8 105117304.099 7 103781077.585 8        45.600          46.700          48.700          46.000          51.000
E31  27802291.898 6  27802295.477 6  27802285.027 7  27802293.195 6  27802295.797 7     -3154.848 6     -2355.875 6     -2560.749 7     -2417.328 6     -2386.608 7 146102082.659 6 109102247.624 6 118589340.427 7 111948380.852 6 110525319.544 7        39.800          40.900          42.600          41.400          45.200
E33  26029946.391 7  26029947.371 7  26029940.656 8  26029945.168 7  26029947.629 8     -1924.582 7     -1437.155 7     -1562.124 8     -1474.637 7     -1455.907 8 136788552.551 7 102147451.066 7 111029749.953 8 104812136.572 7 103479799.622 8        45.400          46.800          49.200          46.800          50.900
G01  21797037.547 7                  21797045.266 6  21797045.441 7  21797041.281 8      2378.297 7                      1853.382 6      1853.372 7      1776.160 8 114544192.230 7                  89255272.302 6  89255275.320 7  85536291.152 8        44.700                          36.100          45.900          51.200
G03  24498085.305 6                  24498092.332 4  24498092.988 6  24498090.383 7      3808.934 6                      2968.108 4      2968.100 6      2844.420 7 128738178.966 6                 100315603.946 4 100315611.961 6  96135784.803 7        39.600                          25.600          41.600          44.500
G08  20368711.773 8                  20368718.637 9  20368718.941 8  20368714.969 9      -613.531 8                      -477.842 9      -477.848 8      -457.932 9 107038251.604 8                  83406529.603 9  83406529.609 8  79931243.364 9        52.100                          55.600          52.700          55.500
G10  22566134.297 7                  22566141.047 7  22566140.797 7  22566136.617 8     -2645.738 7                     -2061.447 7     -2061.453 7     -1975.544 8 118586066.204 7                  92404906.996 7  92404853.002 7  88554675.586 8        46.600                          46.900          45.700          49.000
G14  24111801.008 6  24111798.918 7  24111805.223 4  24111805.469 7  24111806.734 7      2328.234 6      2328.568 7      1814.457 4      1814.464 7      1738.854 7 126708371.883 6 126708380.876 7  98733813.865 4  98733819.849 7  94619908.983 7        38.500          42.000          24.400          42.000          45.000
G16  25375399.758 5                  25375403.406 2                                     -3748.965 5                     -2921.248 2                                 133348590.787 5                 103908048.858 2                                        34.300                          16.900
G21  20979307.016 8                  20979310.617 7                                       636.168 8                       495.853 7                                 110247023.732 8                  85906800.257 7                                        50.200                          42.800
G22  23793636.742 6                  23793640.840 3                                      2626.098 6                      2046.493 3                                 125036551.976 6                  97431007.858 3                                        40.200                          23.000
G23  25361317.438 5  25361315.555 6  25361321.332 2  25361321.320 5  25361322.980 6     -3578.359 5     -3578.332 6     -2788.307 2     -2788.327 5     -2672.101 6 133274744.927 5 133274777.894 6 103850431.331 2 103850554.347 5  99523514.028 6        32.500          36.300          16.300          35.900          41.600
G27  21724407.281 8                  21724414.102 8  21724413.984 8  21724411.160 8     -2634.621 8                     -2052.802 8     -2052.801 8     -1967.262 8 114162536.564 8                  88957886.553 8  88957885.550 8  85251299.114 8        48.100                          51.700          48.800          52.500
G32  23192438.938 7                  23192444.961 7  23192445.523 7  23192442.172 7      1474.289 7                      1148.956 7      1148.939 7      1101.069 7 121877085.276 7                  94969212.045 7  94969215.054 7  91012123.492 7        43.900                          43.400          43.700          47.200
I06  38539244.070 6        58.184 6 151236347.966 6        38.100
I09  37770061.242 6       180.047 6 148217893.094 6        38.500
R06  21335017.320 6  21335015.234 6                                     -2305.691 6     -2305.230 6                                 113847778.771 6 113847747.722 6                                        38.600          37.500
R07  20125053.391 9  20125052.773 8  20125056.703 8  20125056.203 8      1726.625 9      1726.997 8      1343.218 8      1343.219 8 107731047.502 9 107731077.519 8  83790893.573 8  83790835.575 8        54.100          52.000          49.900          49.400
R08  22426300.891 7  22426301.430 6  22426303.766 7  22426303.551 6      4334.289 7      4334.368 6      3371.177 7      3371.183 6 120091892.270 7 120091907.281 6  93404846.095 7  93404871.111 6        43.200          41.900          42.600          41.800
R12  23151823.586 7  23151823.297 6  23151826.734 6  23151827.359 6     -3821.820 7     -3821.660 6     -2972.416 6     -2972.395 6 123672863.420 7 123672875.429 6  96190012.411 6  96190023.397 6        42.200          41.200          38.700          37.400
R13  22065351.477 5  22065348.820 5  22065352.230 6  22065352.793 6     -1614.008 5     -1613.515 5     -1254.996 6     -1254.957 6 117827759.443 5 117827737.433 5  91643799.922 6  91643802.904 6        34.500          33.700          37.500          39.100
R14  23584418.406 6  23584417.586 6  23584421.555 6  23584421.172 6      2040.984 6      2041.221 6      1587.610 6      1587.622 6 125718180.739 6 125718426.745 6  97780853.060 6  97780860.048 6        41.300          39.800          39.900          39.500
R21  22097454.180 8  22097452.422 7  22097455.723 7  22097456.191 7     -2560.816 8     -2560.695 7     -1991.668 7     -1991.652 7 118248048.598 8 118248050.617 7  91970754.728 7  91970779.734 7        48.000          46.300          43.400          42.700
R22  19759489.125 8  19759488.117 8  19759489.402 8  19759490.129 8      -434.449 8      -434.282 8      -337.785 8      -337.779 8 105477538.661 8 105477546.666 8  82038100.740 8  82038121.737 8        53.700          52.100          52.100          52.000
R23  21626314.266 7  21626313.094 7                                      2663.043 7      2663.113 7                                 115686127.780 7 115686438.783 7                                        46.400          44.900
S23  38480920.719 7  38480904.563 7         3.695 7         2.783 7 202219762.663 7 151006058.448 7        44.100          42.800
S26  40239120.453 5                       -59.184 5                 211457804.790 5                        33.200
S36  37805833.063 7  37805816.582 7        -1.117 7         -.719 7 198672166.613 7 148358280.434 7        46.200          45.700
S48  67108863.984 6                       -39.715 6                 400749951.019 6                        38.500
> 2023 01 01 00 00  2.0000000  0 51
C05                  39893215.016 5                  39893204.270 6                  39893206.938 6                        -7.293 5                        -5.868 6                        -5.582 6                 207734430.315 5                 168801217.207 6                 160633420.459 6                        35.900                          37.100                          39.200
C06                  41001092.063 5                  41001079.488 5                  41001084.238 5                      1699.539 5                      1381.130 5                      1314.301 5                 213503447.048 5                 173488992.035 5                 165094375.729 5                        32.500                          34.000                          35.400
C09                  41545273.703 5                  41545261.207 5                  41545268.363 5                      1856.008 5                      1508.311 5                      1435.329 5                 216337143.570 5                 175791601.062 5                 167285577.977 5                        34.500                          32.400                          34.300
C11                  26349734.883 6                  26349723.883 6                  26349729.801 6                     -2664.465 6                     -2164.909 6                     -2060.157 6                 137210274.774 6                 111494661.229 6                 106099812.587 6                        36.000                          38.100                          40.500
C14                  22617338.672 8                  22617325.734 8                  22617331.375 8                      -626.023 8                      -508.492 8                      -483.888 8                 117774512.699 8                  95701415.850 8                  91070727.919 8                        49.500                          51.000                          51.100
C16                  41044690.727 5                  41044681.848 5                  41044688.590 5                      1542.965 5                      1253.814 5                      1193.137 5                 213730482.552 5                 173673486.308 5                 165269953.701 5                        34.500                          32.600                          34.900
C27  24001117.566 7  24001118.578 7  24001114.547 7  24001109.094 7  24001112.469 6                      2467.386 7      2444.879 7      1842.529 7      1986.721 7      1890.586 6                 126126720.427 7 124980134.435 7  94185551.846 7 101556559.335 7  96642547.980 6                        45.100          45.400          46.700          46.400          40.500
C28  21633772.906 8  21633774.438 8  21633770.777 8  21633765.086 8  21633768.699 7                       368.437 8       364.934 8       275.129 8       296.644 8       282.291 7                 113686272.828 8 112652776.100 8  84895614.229 8  91539586.089 8  87110264.429 7                        52.100          52.900          52.600          52.600          47.400
C33  22559897.898 8  22559899.297 8  22559920.613 8  22559902.008 8  22559918.082 7                      1117.937 8      1107.535 8       834.825 8       900.165 8       856.603 7                 118553182.425 8 117475447.901 8  88530110.349 8  95458487.447 8  90839581.239 7                        52.500          52.500          53.500          51.900          47.300
C36  27305509.625 5  27305510.367 5  27305513.348 6  27305505.914 5  27305511.289 4                      1023.366 5      1013.766 5       764.190 6       824.034 5       784.163 4                 143491404.292 5 142186953.475 5 107152694.752 6 115538532.570 5 109947971.870 4                        34.600          34.500          37.700          34.900          27.600
C37  26484944.160 6  26484945.344 6  26484946.254 7  26484940.137 6  26484944.047 5                     -2697.304 6     -2672.777 6     -2014.211 7     -2171.838 6     -2066.743 5                 139179297.513 6 137914033.583 6 103932595.117 7 112066431.564 6 106643872.134 5                        38.400          38.500          42.300          39.900          35.800
C39  40703393.238 6  40703394.000 6  40703388.059 6  40703381.531 6  40703385.586 5                      1299.059 6      1287.289 6       970.091 6      1046.017 6       995.394 5                 213897764.763 6 211953248.159 6 159728850.553 6 172229332.728 6 163895670.090 5                        38.600          37.900          41.400          38.800          34.000
C41  24678822.746 7  24678823.406 7  24678830.516 7  24678820.254 7  24678828.410 6                      3326.527 7      3296.223 7      2484.083 7      2678.500 7      2548.895 6                 129688134.039 7 128509161.014 7  96845081.809 7 104424225.162 7  99371461.285 6                        45.800          45.700          45.800          44.300          40.400
C42  24380348.277 7  24380348.766 7  24380355.848 8  24380347.801 7  24380353.520 6                     -2024.906 7     -2006.617 7     -1512.109 8     -1630.419 7     -1551.528 6                 128119645.399 7 126954939.397 7  95673813.069 8 103161302.919 7  98169625.410 6                        46.400          44.600          48.000          47.000          41.300
C43  23830475.230 7  23830476.539 7  23830474.156 8  23830467.027 7  23830471.180 6                     -2275.115 7     -2254.465 7     -1698.954 8     -1831.913 7     -1743.270 6                 125230193.400 7 124091760.495 7  93516159.703 8 100834764.312 7  95955580.208 6                        47.500          47.100          48.000          46.600          41.100
C46  25774871.352 6  25774870.703 6  25774860.188 7  25774855.367 6  25774857.418 6                     -1074.639 6     -1064.953 6      -802.486 7      -865.285 6      -823.410 6                 135447842.333 6 134216503.756 6 101146110.092 7 109061843.154 6 103784661.974 6                        41.400          40.600          44.500          39.600          37.300
E04  28118085.984 6  28118088.652 6  28118080.918 7  28118086.047 6  28118088.473 7      3018.602 6      2254.139 6      2450.131 7      2312.921 6      2283.537 7 147761610.247 6 110341506.276 6 119936376.922 7 113219959.476 6 111780746.174 7        38.500          40.800          43.900          40.700          44.800
E10  24096878.656 8  24096880.508 8  24096873.578 9  24096878.078 8  24096880.301 9       942.980 8       704.218 8       765.454 9       722.589 8       713.405 9 126630008.760 8  94561412.685 8 102784102.433 9  97028218.513 8  95794821.396 9        51.800          52.400          56.400          52.200          55.900
E11  25549452.461 7  25549451.258 7  25549443.277 7  25549448.879 7  25549451.156 7      1821.902 7      1360.542 7      1478.874 7      1396.048 7      1378.282 7 134263292.437 7 100261544.122 7 108979906.586 7 102877044.807 7 101569321.270 7        43.500          43.500          47.000          42.800          45.900
E12  23575867.289 8  23575866.344 8  23575857.801 9  23575863.957 8  23575866.203 9      -137.031 8      -102.248 8      -111.146 9      -104.917 8      -103.581 9 123892047.168 8  92516801.347 8 100561699.239 9  94930272.529 8  93723542.731 9        48.300          50.200          54.300          51.900          54.100
E19  26838518.438 7  26838519.613 7  26838511.605 7  26838517.305 7  26838519.395 7      1994.238 7      1489.265 7      1618.767 7      1528.131 7      1508.691 7 141037372.615 7 105320120.468 7 114478361.017 7 108067593.132 7 106693862.105 7        42.400          42.600          44.300          42.700          46.400
E24  25592383.547 7  25592384.660 8  25592377.055 8  25592381.672 8  25592384.297 8     -2120.977 7     -1583.824 8     -1721.536 8     -1625.135 8     -1604.483 8 134488894.436 7 100430021.837 8 109163034.209 8 103049921.632 8 101739980.530 8        47.900          48.900          51.400          48.300          52.200
E25  26105707.266 7  26105710.027 7  26105699.828 8  26105707.133 7  26105709.703 8       578.461 7       432.115 7       469.678 8       443.383 7       437.742 8 137186414.211 7 102444407.376 7 111352577.571 8 105116860.716 7 103780639.843 8        45.300          46.500          48.700          46.000          51.200
E31  27802892.336 6  27802895.996 6  27802885.559 7  27802893.645 6  27802896.125 7     -3154.848 6     -2355.805 6     -2560.666 7     -2417.271 6     -2386.523 7 146105237.406 6 109104603.429 6 118591901.093 7 111950798.123 6 110527706.068 7        39.300          40.600          42.500          41.800          45.300
E33  26030312.750 7  26030313.582 7  26030306.863 8  26030311.383 7  26030313.855 8     -1924.617 7     -1437.171 7     -1562.141 8     -1474.675 7     -1455.921 8 136790477.107 7 102148888.237 7 111031312.094 8 104813611.247 7 103481255.543 8        45.100          47.000          49.300          46.800          50.600
G01  21796585.211 7                  21796592.719 6  21796592.539 7  21796588.723 8      2378.297 7                      1853.219 6      1853.242 7      1775.997 8 114541813.927 7                  89253419.083 6  89253422.078 7  85534515.154 8        44.700                          36.000          45.900          51.500
G03  24497360.852 6                  24497367.609 4  24497368.117 6  24497365.520 7      3808.891 6                      2968.024 4      2968.031 6      2844.366 7 128734369.984 6                 100312635.922 4 100312643.931 6  96132940.437 7        39.800                          24.700          41.700          44.600
G08  20368828.922 8                  20368835.504 9  20368835.883 8  20368831.852 9      -613.941 8                      -478.215 9      -478.215 8      -458.292 9 107038865.310 8                  83407007.818 9  83407007.824 8  79931701.656 9        52.000                          55.600          52.700          55.600
G10  22566638.094 7                  22566644.543 7  22566644.035 7  22566640.066 8     -2645.906 7                     -2061.651 7     -2061.659 7     -1975.751 8 118588711.996 7                  92406968.647 7  92406914.661 7  88556651.337 8        46.300                          46.600          45.800          49.100
G14  24111358.289 6  24111355.996 6  24111362.391 4  24111362.516 6  24111363.699 7      2327.969 6      2328.109 6      1814.146 4      1814.105 6      1738.523 7 126706043.747 6 126706052.767 6  98731999.718 4  98732005.744 6  94618170.460 7        38.100          41.800          26.500          41.800          45.000
G16  25376113.141 5                  25376116.809 2                                     -3748.766 5                     -2921.104 2                                 133352339.563 5                 103910969.961 2                                        34.600                          15.600
G21  20979185.906 8                  20979189.598 7                                       636.008 8                       495.696 7                                 110246387.581 8                  85906304.562 7                                        50.300                          42.900
G22  23793137.086 6                  23793141.176 3                                      2626.191 6                      2046.406 3                                 125033925.769 6                  97428961.452 3                                        40.500                          21.800
G23  25361998.320 5  25361996.313 6  25362002.355 2  25362001.941 5  25362003.824 6     -3578.191 5     -3578.336 6     -2788.286 2     -2788.261 5     -2672.104 6 133278323.193 5 133278356.230 6 103853219.617 2 103853342.608 5  99526186.132 6        32.300          36.100          15.600          35.300          41.100
G27  21724908.711 8                  21724915.375 8  21724915.516 8  21724912.527 8     -2634.871 8                     -2053.036 8     -2053.044 8     -1967.494 8 114165171.297 8                  88959939.589 8  88959938.594 8  85253266.608 8        48.600                          51.600          48.600          52.000
G32  23192158.273 7                  23192164.457 7  23192165.152 7  23192161.566 7      1473.785 7                      1148.585 7      1148.609 7      1100.725 7 121875611.256 7                  94968063.460 7  94968066.445 7  91011022.766 7        43.900                          43.500          43.600          46.800
I06  38539229.063 6        58.102 6 151236289.948 6        38.000
I09  37770015.234 6       180.031 6 148217713.144 6        38.600
R06  21335448.680 6  21335447.422 6                                     -2306.320 6     -2305.999 6                                 113850084.696 6 113850053.721 6                                        38.700          37.200
R07  20124731.109 9  20124730.219 8  20124733.824 8  20124733.840 8      1725.879 9      1726.200 8      1342.602 8      1342.601 8 107729321.309 9 107729351.320 8  83789550.972 8  83789492.975 8        54.100          52.200          50.100          49.600
R08  22425491.289 7  22425492.176 7  22425494.492 7  22425494.191 6      4334.125 7      4334.189 7      3371.030 7      3371.032 6 120087558.078 7 120087573.092 7  93401475.066 7  93401500.079 6        43.100          42.500          42.600          41.800
R12  23152539.219 7  23152538.383 6  23152541.625 6  23152542.918 6     -3822.016 7     -3821.823 6     -2972.535 6     -2972.548 6 123676685.270 7 123676697.252 6  96192984.947 6  96192995.946 6        42.400          41.400          38.600          37.600
R13  22065653.398 5  22065650.934 5  22065653.570 6  22065655.074 6     -1614.730 5     -1614.247 5     -1255.517 6     -1255.501 6 117829373.643 5 117829351.680 5  91645055.439 6  91645058.405 6        34.100          33.100          37.500          39.100
R14  23584036.227 6  23584034.664 6  23584039.430 6  23584038.559 6      2040.238 6      2040.566 6      1587.096 6      1587.089 6 125716140.189 6 125716386.180 6  97779265.964 6  97779272.959 6        41.300          39.900          40.300          39.300
R21  22097932.523 7  22097931.086 7  22097934.219 7  22097934.766 7     -2560.945 7     -2560.849 7     -1991.787 7     -1991.775 7 118250609.457 7 118250611.466 7  91972746.515 7  91972771.509 7        47.900          46.700          43.300          43.100
R22  19759570.492 8  19759569.582 8  19759570.672 8  19759571.504 8      -434.773 8      -434.588 8      -338.009 8      -338.023 8 105477973.256 8 105477981.254 8  82038438.749 8  82038459.759 8        53.200          52.000          52.100          51.900
R23  21625816.641 7  21625815.164 7                                      2662.910 7      2663.020 7                                 115683464.760 7 115683775.763 7                                        45.900          45.100
S23  38480919.781 7  38480903.848 7         3.781 7         2.876 7 202219758.868 7 151006055.572 7        43.900          42.600
S26  40239135.094 5                       -58.809 5                 211457863.671 5                        32.900
S36  37805832.672 7  37805816.766 7         -.922 7         -.639 7 198672167.573 7 148358281.072 7        46.300          46.200
S48  67108863.984 6                       -39.594 6                 400749990.616 6                        38.300
> 2023 01 01 00 00  3.0000000  0 51
C05                  39893216.375 5                  39893205.629 6                  39893208.258 6                        -7.281 5                        -5.926 6                        -5.642 6                 207734437.612 5                 168801223.134 6                 160633426.101 6                        35.800                          37.300                          39.000
C06                  41000765.789 5                  41000753.156 5                  41000757.879 5                      1699.629 5                      1380.947 5                      1314.134 5                 213501747.596 5                 173487611.088 5                 165093061.595 5                        32.500                          34.400                          35.500
C09                  41544917.273 5                  41544904.793 5                  41544911.758 5                      1855.898 5                      1508.190 5                      1435.217 5                 216335287.519 5                 175790092.872 5                 167284142.761 5                        34.300                          32.700                          34.400
C11                  26350246.781 5                  26350235.496 6                  26350241.383 6                     -2664.332 5                     -2165.030 6                     -2060.274 6                 137212939.163 5                 111496826.259 6                 106101872.862 6                        35.800                          38.100                          40.400
C14                  22617458.750 8                  22617445.977 8                  22617451.609 8                      -626.535 8                      -508.991 8                      -484.364 8                 117775139.093 8                  95701924.841 8                  91071212.282 8                        49.300                          50.800                          51.100
C16                  41044394.438 5                  41044385.547 5                  41044392.098 5                      1542.793 5                      1253.662 5                      1193.010 5                 213728939.730 5                 173672232.647 5                 165268760.691 5                        34.300                          32.800                          34.200
C27  24000647.914 7  24000649.297 7  24000645.125 7  24000639.516 7  24000642.996 6                      2467.219 7      2444.762 7      1842.403 7      1986.576 7      1890.461 6                 126124253.208 7 124977689.655 7  94183709.443 7 101554572.760 7  96640657.519 6                        44.800          45.800          46.100          45.900          40.500
C28  21633702.852 8  21633704.234 8  21633700.660 8  21633694.992 8  21633698.688 7                       368.060 8       364.660 8       274.849 8       296.372 8       282.031 7                 113685904.769 8 112652411.376 8  84895339.381 8  91539289.717 8  87109982.398 7                        51.900          52.700          52.900          52.100          47.400
C33  22559685.301 8  22559686.727 8  22559707.969 8  22559689.367 8  22559705.527 7                      1117.315 8      1106.980 8       834.359 8       899.657 8       856.132 7                 118552065.110 8 117474340.738 8  88529275.990 8  95457587.790 8  90838725.107 7                        52.700          52.300          53.600          52.100          47.400
C36  27305314.969 5  27305315.336 5  27305318.668 6  27305311.234 5  27305316.668 4                      1022.810 5      1013.145 5       763.802 6       823.546 5       783.701 4                 143490381.482 5 142185939.969 5 107151930.951 6 115537709.024 5 109947188.168 4                        34.400          33.700          37.500          35.100          29.000
C37  26485457.313 6  26485458.813 6  26485459.641 7  26485453.402 6  26485457.301 5                     -2697.459 6     -2672.859 6     -2014.325 7     -2171.981 6     -2066.883 5                 139181994.972 6 137916706.518 6 103934609.442 7 112068603.545 6 106645939.017 5                        37.900          38.400          42.500          39.700          35.700
C39  40703145.789 6  40703146.883 6  40703140.773 6  40703134.348 6  40703138.367 5                      1298.869 6      1286.871 6       969.942 6      1045.806 6       995.210 5                 213896465.894 6 211951961.139 6 159727880.610 6 172228286.922 6 163894674.880 5                        38.900          37.300          41.100          38.700          34.000
C41  24678189.852 7  24678190.297 7  24678197.543 7  24678187.332 7  24678195.402 6                      3326.278 7      3296.055 7      2483.912 7      2678.295 7      2548.700 6                 129684807.761 7 128505864.983 7  96842597.897 7 104421546.867 7  99368912.585 6                        45.700          45.400          45.900          44.100          40.300
C42  24380733.758 7  24380734.305 7  24380741.215 8  24380733.125 7  24380738.992 6                     -2025.397 7     -2007.102 7     -1512.469 8     -1630.856 7     -1551.939 6                 128121670.797 7 126956946.403 7  95675325.538 8 103162933.776 7  98171177.349 6                        46.400          44.700          48.100          46.700          41.300
C43  23830908.117 7  23830909.734 7  23830907.273 8  23830900.043 7  23830904.176 6                     -2275.384 7     -2254.707 7     -1699.145 8     -1832.127 7     -1743.479 6                 125232468.784 7 124094015.196 7  93517858.847 8 100836596.439 7  95957323.688 6                        47.500          47.600          48.300          46.500          41.300
C46  25775075.762 6  25775075.297 6  25775064.824 7  25775060.035 6  25775061.949 6                     -1075.143 6     -1065.633 6      -802.864 7      -865.719 6      -823.829 6                 135448917.476 6 134217569.143 6 101146912.956 7 109062708.873 6 103785485.803 6                        41.100          40.600          44.900          40.000          37.300
E04  28117511.594 6  28117514.090 6  28117506.418 7  28117511.785 6  28117514.043 7      3018.715 6      2254.197 6      2450.201 7      2312.986 6      2283.599 7 147758591.588 6 110339252.079 6 119933926.721 7 113217646.490 6 111778462.575 7        38.500          41.000          43.900          41.000          44.800
E10  24096699.297 8  24096701.117 8  24096694.188 9  24096698.547 8  24096700.902 9       942.816 8       704.054 8       765.277 9       722.415 8       713.240 9 126629065.942 8  94560708.632 8 102783337.156 9  97027496.097 8  95794108.156 9        51.500          52.600          56.400          52.200          55.900
E11  25549105.781 7  25549104.676 7  25549096.801 7  25549102.258 7  25549104.508 7      1821.805 7      1360.419 7      1478.714 7      1395.911 7      1378.170 7 134261470.653 7 100260183.703 7 108978427.872 7 102875648.896 7 101567943.100 7        43.400          43.600          47.000          42.700          46.300
E12  23575893.352 8  23575892.422 8  23575883.840 9  23575890.086 8  23575892.301 9      -137.145 8      -102.412 8      -111.317 9      -105.086 8      -103.749 9 123892184.311 8  92516903.759 8 100561810.556 9  94930377.616 8  93723646.480 9        48.300          50.300          54.300          51.500          54.200
E19  26838138.836 7  26838140.211 7  26838131.902 7  26838137.789 7  26838139.977 7      1993.867 7      1488.995 7      1618.463 7      1527.825 7      1508.418 7 141035378.671 7 105318631.473 7 114476742.554 7 108066065.307 7 106692353.687 7        42.600          42.800          44.300          42.700          46.500
E24  25592787.133 7  25592788.430 8  25592780.688 8  25592785.266 8  25592787.980 8     -2121.438 7     -1584.110 8     -1721.872 8     -1625.436 8     -1604.771 8 134491015.785 7 100431605.946 8 109164756.080 8 103051547.069 8 101741585.300 8        47.900          48.900          51.400          48.200          52.200
E25  26105597.648 7  26105599.949 7  26105589.848 8  26105597.098 7  26105599.688 8       577.945 7       431.670 7       469.234 8       442.939 7       437.316 8 137185836.116 7 102443975.706 7 111352108.337 8 105116417.777 7 103780202.528 8        45.600          46.300          48.700          46.200          50.800
E31  27803492.570 6  27803496.363 6  27803485.703 7  27803493.941 6  27803496.457 7     -3154.773 6     -2355.847 6     -2560.684 7     -2417.320 6     -2386.587 7 146108392.169 6 109106959.276 6 118594461.776 7 111953215.443 6 110530092.654 7        39.800          40.500          42.500          41.400          45.300
E33  26030678.758 7  26030679.996 7  26030673.059 8  26030677.758 7  26030680.102 8     -1924.598 7     -1437.255 7     -1562.232 8     -1474.757 7     -1456.005 8 136792401.784 7 102150325.492 7 111032874.326 8 104815086.004 7 103482711.548 8        45.100          46.600          49.300          47.000          50.600
G01  21796132.672 7                  21796140.156 5  21796140.246 7  21796136.152 8      2377.926 7                      1852.962 5      1852.947 7      1775.760 8 114539435.961 7                  89251566.122 5  89251569.131 7  85532739.394 8        44.000                          35.500          46.300          51.000
G03  24496636.250 6                  24496642.742 4  24496643.055 6  24496640.785 7      3808.746 6                      2967.876 4      2967.904 6      2844.225 7 128730561.207 6                 100309668.046 4 100309676.027 6  96130096.212 7        40.100                          25.800          41.400          44.700
G08  20368945.648 8                  20368952.324 9  20368952.824 8  20368948.746 9      -614.430 8                      -478.684 9      -478.684 8      -458.728 9 107039479.618 8                  83407486.502 9  83407486.508 8  79932160.384 9        51.800                          55.900          52.600          55.700
G10  22567141.766 7                  22567148.098 7  22567147.801 7  22567143.680 8     -2646.172 7                     -2061.954 7     -2061.959 7     -1976.040 8 118591358.166 7                  92409030.600 7  92408976.620 7  88558627.378 8        46.000                          46.800          46.000          49.100
G14  24110915.164 6  24110912.988 6  24110919.516 4  24110919.527 6  24110920.723 7      2327.480 6      2327.573 6      1813.662 4      1813.684 6      1738.124 7 126703716.195 6 126703725.195 6  98730186.056 4  98730192.059 6  94616432.337 7        38.400          41.800          25.000          41.800          44.900
G16  25376826.109 5                  25376830.156 2                                     -3748.766 5                     -2921.189 2                                 133356088.386 5                 103913891.150 2                                        34.400                          16.900
G21  20979065.031 8                  20979068.645 7                                       635.813 8                       495.442 7                                 110245751.772 8                  85905809.120 7                                        50.500                          42.700
G22  23792637.102 6                  23792641.469 3                                      2625.938 6                      2046.175 3                                 125031299.835 6                  97426915.277 3                                        40.400                          21.700
G23  25362678.773 5  25362677.184 6  25362683.199 2  25362683.094 5  25362684.551 6     -3578.492 5     -3578.434 6     -2788.428 2     -2788.428 5     -2672.219 6 133281901.674 5 133281934.664 6 103856008.045 2 103856131.036 5  99528858.352 6        32.600          36.400          16.900          35.800          40.500
G27  21725410.383 8                  21725416.832 8  21725416.824 8  21725414.117 8     -2635.246 8                     -2053.370 8     -2053.361 8     -1967.813 8 114167806.454 8                  88961992.959 8  88961991.955 8  85255234.421 8        48.100                          51.700          48.600          52.400
G32  23191878.180 7                  23191884.066 7  23191884.723 7  23191881.223 7      1473.281 7                      1148.149 7      1148.137 7      1100.313 7 121874137.801 7                  94966915.311 7  94966918.308 7  91009922.453 7        43.800                          43.900          43.400          47.000
I06  38539213.961 6        57.926 6 151236231.942 6        37.700
I09  37769969.625 6       179.961 6 148217533.260 6        38.900
R06  21335880.688 6  21335879.766 6                                     -2306.953 6     -2306.766 6                                 113852391.485 6 113852360.487 6                                        38.100          37.300
R07  20124408.672 9  20124408.000 8  20124411.883 8  20124411.441 8      1725.055 9      1725.313 8      1341.906 8      1341.907 8 107727595.996 9 107727626.007 8  83788209.066 8  83788151.068 8        54.300          51.800          49.500          49.700
R08  22424682.461 7  22424682.715 7  22424684.367 7  22424684.957 6      4333.801 7      4333.903 7      3370.809 7      3370.796 6 120083224.203 7 120083239.189 7  93398104.258 7  93398129.283 6        43.400          42.200          42.700          41.800
R12  23153254.766 7  23153254.043 6  23153256.320 6  23153258.602 6     -3822.070 7     -3822.074 6     -2972.709 6     -2972.708 6 123680507.332 7 123680519.326 6  96195957.656 6  96195968.654 6        42.700          41.600          38.800          37.300
R13  22065956.172 5  22065953.758 5  22065957.195 6  22065957.492 6     -1615.250 5     -1615.110 5     -1256.162 6     -1256.199 6 117830988.767 5 117830966.790 5  91646311.601 6  91646314.605 6        34.800          33.400          37.100          39.300
R14  23583653.805 6  23583652.035 6  23583656.262 6  23583655.957 6      2039.578 6      2039.791 6      1586.481 6      1586.499 6 125714100.398 6 125714346.389 6  97777679.483 6  97777686.460 6        40.600          39.900          39.900          39.300
R21  22098411.094 7  22098409.863 7  22098412.242 7  22098413.398 7     -2561.227 7     -2561.173 7     -1992.021 7     -1992.024 7 118253170.630 7 118253172.639 7  91974738.535 7  91974763.533 7        47.800          46.800          42.900          43.000
R22  19759651.906 8  19759650.879 8  19759652.125 8  19759653.043 8      -435.086 8      -435.018 8      -338.352 8      -338.343 8 105478408.275 8 105478416.273 8  82038777.101 8  82038798.103 8        53.400          52.300          51.700          52.100
R23  21625318.836 7  21625317.516 7                                      2662.813 7      2662.828 7                                 115680801.945 7 115681112.935 7                                        46.100          45.000
S23  38480918.969 7  38480903.133 7         3.758 7         2.783 7 202219755.134 7 151006052.789 7        43.900          42.000
S26  40239144.828 5                       -59.020 5                 211457922.681 5                        32.600
S36  37805833.578 7  37805816.945 7         -.941 7         -.682 7 198672168.537 7 148358281.754 7        46.400          46.000
S48  67108863.984 6                       -39.547 6                 400750030.268 6                        37.900
> 2023 01 01 00 00  4.0000000  0 51
C05                  39893217.570 5                  39893207.078 6                  39893209.398 6                        -7.270 5                        -5.914 6                        -5.629 6                 207734444.881 5                 168801229.047 6                 160633431.731 6                        35.900                          36.800                          39.200
C06                  41000439.273 5                  41000426.863 5                  41000431.289 6                      1699.453 5                      1380.915 5                      1314.097 6                 213500048.166 5                 173486230.173 5                 165091747.498 6                        32.600                          34.000                          36.000
C09                  41544560.867 5                  41544548.293 5                  41544555.676 5                      1856.172 5                      1508.211 5                      1435.223 5                 216333431.454 5                 175788584.662 5                 167282707.538 5                        34.200                          33.400                          34.400
C11                  26350758.141 6                  26350747.180 6                  26350752.914 6                     -2664.469 6                     -2165.100 6                     -2060.336 6                 137215603.636 6                 111498991.359 6                 106103933.198 6                        36.000                          38.100                          40.600
C14                  22617579.422 8                  22617566.352 8                  22617572.117 8                      -627.094 8                      -509.419 8                      -484.767 8                 117775766.001 8                  95702434.261 8                  91071697.049 8                        49.100                          51.000                          51.400
C16                  41044098.242 5                  41044089.262 5                  41044095.992 5                      1542.516 5                      1253.554 5                      1192.903 5                 213727397.036 5                 173670979.093 5                 165267567.788 5                        34.800                          32.400                          35.000
C27  24000178.516 7  24000179.570 7  24000175.590 7  24000170.031 7  24000173.457 6                      2467.164 7      2444.707 7      1842.360 7      1986.561 7      1890.428 6                 126121786.044 7 124975244.904 7  94181867.084 7 101552586.199 7  96638767.091 6                        45.100          45.500          46.500          45.700          40.400
C28  21633632.730 8  21633634.180 8  21633630.691 8  21633624.957 8  21633628.703 7                       367.813 8       364.371 8       274.671 8       296.162 8       281.837 7                 113685536.956 8 112652046.897 8  84895064.710 8  91538993.554 8  87109700.562 7                        51.900          52.800          52.800          52.100          47.300
C33  22559472.848 8  22559473.977 8  22559495.395 8  22559476.824 8  22559492.992 7                      1116.821 8      1106.484 8       833.997 8       899.264 8       855.752 7                 118550948.289 8 117473234.063 8  88528441.994 8  95456688.526 8  90837869.355 7                        52.600          52.500          53.400          51.700          47.500
C36  27305120.430 5  27305120.914 5  27305124.141 6  27305116.684 5  27305122.125 4                      1022.411 5      1012.980 5       763.460 6       823.284 5       783.447 4                 143489359.071 5 142184926.797 5 107151167.491 6 115536885.740 5 109946404.722 4                        34.500          33.500          37.200          34.700          28.400
C37  26485970.688 6  26485971.813 6  26485973.008 7  26485966.777 6  26485970.598 5                     -2697.424 6     -2672.848 6     -2014.305 7     -2171.939 6     -2066.847 5                 139184692.396 6 137919379.410 6 103936623.747 7 112070775.484 6 106648005.864 5                        37.900          38.200          42.400          39.800          35.800
C39  40702898.535 6  40702899.797 6  40702893.660 6  40702887.125 6  40702891.285 5                      1298.707 6      1286.781 6       969.836 6      1045.749 6       995.159 5                 213895167.187 6 211950674.191 6 159726910.775 6 172227241.173 6 163893679.721 5                        38.700          37.700          40.900          38.700          33.600
C41  24677557.004 7  24677557.633 7  24677564.633 7  24677554.379 7  24677562.473 6                      3326.155 7      3295.914 7      2483.806 7      2678.213 7      2548.627 6                 129681481.606 7 128502569.050 7  96840114.091 7 104418868.654 7  99366363.958 6                        45.600          45.500          46.400          44.400          40.400
C42  24381119.246 7  24381119.664 7  24381126.793 8  24381118.660 7  24381124.438 6                     -2025.792 7     -2007.422 7     -1512.757 8     -1631.140 7     -1552.220 6                 128123696.589 7 126958953.756 7  95676838.296 8 103164564.915 7  98172729.570 6                        46.200          44.700          48.400          46.700          41.300
C43  23831341.145 7  23831342.539 7  23831340.313 8  23831333.113 7  23831337.234 6                     -2275.549 7     -2254.914 7     -1699.272 8     -1832.260 7     -1743.600 6                 125234744.333 7 124096270.057 7  93519558.119 8 100838428.699 7  95959067.288 6                        47.600          47.600          48.400          46.500          41.300
C46  25775280.621 6  25775279.961 6  25775269.449 7  25775264.652 6  25775266.602 6                     -1075.536 6     -1065.945 6      -803.169 7      -866.009 6      -824.105 6                 135449993.012 6 134218634.891 6 101147716.124 7 109063574.882 6 103786309.909 6                        41.100          40.800          44.800          39.600          37.500
E04  28116937.148 6  28116939.676 6  28116932.098 7  28116937.313 6  28116939.582 7      3018.797 6      2254.249 6      2450.291 7      2313.085 6      2283.648 7 147755572.821 6 110336997.830 6 119931476.430 7 113215333.405 6 111776178.926 7        38.700          41.000          43.900          40.700          45.100
E10  24096519.758 8  24096521.582 8  24096514.840 9  24096519.215 8  24096521.500 9       942.699 8       703.991 8       765.207 9       722.363 8       713.172 9 126628123.205 8  94560004.641 8 102782571.949 9  97026773.735 8  95793394.983 9        51.600          52.100          56.400          52.000          55.600
E11  25548759.039 7  25548757.844 7  25548750.059 7  25548755.770 7  25548757.848 7      1821.789 7      1360.405 7      1478.687 7      1395.884 7      1378.144 7 134259648.910 7 100258823.298 7 108976949.185 7 102874253.012 7 101566564.956 7        43.600          43.200          47.000          42.500          46.100
E12  23575919.453 8  23575918.633 8  23575909.918 9  23575916.195 8  23575918.414 9      -137.348 8      -102.501 8      -111.417 9      -105.165 8      -103.836 9 123892321.574 8  92517006.260 8 100561921.973 9  94930482.781 8  93723750.316 9        48.500          50.200          54.300          51.700          54.000
E19  26837759.461 7  26837760.813 7  26837752.656 7  26837758.508 7  26837760.586 7      1993.676 7      1488.749 7      1618.238 7      1527.604 7      1508.187 7 141033385.001 7 105317142.724 7 114475124.315 7 108064537.703 7 106690845.501 7        42.700          42.500          44.300          42.600          46.600
E24  25593190.531 7  25593192.109 8  25593184.578 8  25593188.945 8  25593191.711 8     -2121.730 7     -1584.339 8     -1722.095 8     -1625.671 8     -1605.000 8 134493137.404 7 100433190.285 8 109166478.176 8 103053172.740 8 101743190.300 8        47.700          49.000          51.400          48.300          52.100
E25  26105487.742 7  26105490.148 7  26105479.965 8  26105487.250 7  26105489.789 8       577.461 7       431.376 7       468.873 8       442.639 7       436.995 8 137185258.473 7 102443544.330 7 111351639.463 8 105115975.138 7 103779765.533 8        45.800          46.300          48.800          46.200          50.600
E31  27804093.070 6  27804096.711 6  27804085.930 7  27804094.469 6  27804096.758 7     -3154.777 6     -2355.772 6     -2560.634 7     -2417.227 6     -2386.515 7 146111546.870 6 109109315.048 6 118597022.411 7 111955632.670 6 110532479.169 7        39.800          40.500          42.400          41.600          45.600
E33  26031045.227 7  26031046.258 7  26031039.309 8  26031044.094 7  26031046.355 8     -1924.785 7     -1437.272 7     -1562.258 8     -1474.757 7     -1456.016 8 136794326.481 7 102151762.764 7 111034436.584 8 104816560.762 7 103484167.564 8        45.100          46.700          49.300          46.600          50.300
G01  21795680.398 7                  21795687.773 5  21795687.824 7  21795683.680 8      2377.797 7                      1852.824 5      1852.808 7      1775.605 8 114537058.171 7                  89249713.298 5  89249716.323 7  85530963.789 8        43.700                          35.800          46.100          50.900
G03  24495911.586 6                  24495917.992 4  24495918.219 6  24495916.000 7      3808.645 6                      2967.833 4      2967.809 6      2844.170 7 128726752.482 6                 100306700.213 4 100306708.218 6  96127252.042 7        40.000                          26.000          41.800          44.800
G08  20369062.750 8                  20369069.262 9  20369069.742 8  20369065.703 9      -614.996 8                      -479.043 9      -479.042 8      -459.087 9 107040094.397 8                  83407965.545 9  83407965.550 8  79932619.471 9        51.400                          56.100          52.800          55.400
G10  22567645.188 7                  22567651.711 7  22567651.367 7  22567647.324 8     -2646.621 7                     -2062.171 7     -2062.149 7     -1976.233 8 118594004.620 7                  92411092.771 7  92411038.769 7  88560603.610 8        45.900                          46.600          46.000          49.400
G14  24110472.398 6  24110470.254 6  24110476.805 4  24110476.520 7  24110477.996 7      2326.895 6      2327.128 6      1813.344 4      1813.360 7      1737.781 7 126701389.072 6 126701398.067 6  98728372.712 4  98728378.699 7  94614694.555 7        39.000          41.800          25.200          42.300          45.100
G16  25377539.891 5                  25377543.730 2                                     -3748.578 5                     -2920.956 2                                 133359836.997 5                 103916812.106 2                                        33.700                          17.800
G21  20978944.094 8                  20978947.691 7                                       635.504 8                       495.270 7                                 110245116.170 8                  85905313.851 7                                        50.700                          42.700
G22  23792136.727 6                  23792141.820 3                                      2625.809 6                      2046.063 3                                 125028674.073 6                  97424869.214 3                                        40.200                          21.700
G23  25363360.523 5  25363358.207 6  25363364.023 2  25363364.984 6  25363365.215 6     -3578.570 5     -3578.403 6     -2788.409 2     -2788.367 6     -2672.187 6 133285480.098 5 133285513.066 6 103858796.454 2 103858919.403 6  99531530.539 6        33.500          36.900          16.900          36.400          40.300
G27  21725911.891 7                  21725918.492 8  21725918.539 8  21725915.516 8     -2635.641 7                     -2053.615 8     -2053.623 8     -1968.042 8 114170441.924 7                  88964046.574 8  88964045.578 8  85257202.463 8        47.400                          51.700          48.800          52.100
G32  23191597.930 7                  23191603.906 7  23191604.363 7  23191600.871 7      1472.793 7                      1147.786 7      1147.799 7      1099.976 7 121872664.805 7                  94965767.525 7  94965770.509 7  91008822.477 7        43.700                          43.900          43.900          47.100
I06  38539199.430 6        57.938 6 151236173.913 6        38.100
I09  37769924.125 6       179.809 6 148217353.385 6        38.700
R06  21336313.773 6  21336311.938 6                                     -2307.789 6     -2307.468 6                                 113854698.960 6 113854667.955 6                                        38.400          37.100
R07  20124086.414 9  20124085.891 8  20124089.648 8  20124089.273 8      1724.223 9      1724.537 8      1341.301 8      1341.301 8 107725871.460 9 107725901.470 8  83786867.765 8  83786809.767 8        54.100          51.900          49.900          49.300
R08  22423873.492 7  22423873.512 6  22423875.152 7  22423875.598 6      4333.586 7      4333.708 6      3370.652 7      3370.679 6 120078890.477 7 120078905.481 6  93394733.606 7  93394758.604 6        43.100          41.900          42.700          41.900
R12  23153969.867 7  23153969.426 6  23153972.133 6  23153974.016 6     -3822.285 7     -3822.198 6     -2972.836 6     -2972.815 6 123684329.516 7 123684341.523 6  96198930.492 6  96198941.469 6        42.600          41.800          38.900          37.300
R13  22066259.172 5  22066256.230 5  22066260.262 6  22066260.098 6     -1616.297 5     -1615.794 5     -1256.759 6     -1256.784 6 117832604.629 5 117832582.584 5  91647568.360 6  91647571.388 6        34.900          33.700          37.300          39.400
R14  23583270.422 6  23583269.523 6  23583273.379 6  23583273.301 6      2038.852 6      2039.134 6      1586.025 6      1585.996 6 125712061.256 6 125712307.254 6  97776093.458 6  97776100.465 6        40.300          39.500          39.900          39.600
R21  22098889.500 7  22098888.258 7  22098891.637 7  22098892.016 7     -2561.543 7     -2561.420 7     -1992.207 7     -1992.214 7 118255732.050 7 118255734.059 7  91976730.742 7  91976755.747 7        47.900          46.700          43.200          42.100
R22  19759733.664 8  19759732.633 8  19759733.695 8  19759734.551 8      -435.457 8      -435.318 8      -338.570 8      -338.577 8 105478843.595 8 105478851.591 8  82039115.671 8  82039136.680 8        53.800          52.300          52.000          52.000
R23  21624821.008 7  21624819.738 7                                      2662.699 7      2662.747 7                                 115678139.178 7 115678450.189 7                                        46.000          45.000
S23  38480918.313 7  38480902.430 7         3.836 7         2.783 7 202219751.348 7 151006050.006 7        43.800          42.300
S26  40239144.906 5                       -58.957 5                 211457981.592 5                        32.200
S36  37805833.453 7  37805817.160 7         -.930 7         -.674 7 198672169.461 7 148358282.428 7        46.300          45.800
S48  67108863.984 6                       -39.570 6                 400750069.867 6                        38.400
> 2023 01 01 00 00  5.0000000  0 52
C05                  39893219.242 5                  39893208.473 6                  39893210.992 6                        -7.359 5                        -5.947 6                        -5.661 6                 207734452.200 5                 168801234.995 6                 160633437.391 6                        35.700                          36.900                          39.500
C06                  41000113.492 5                  41000100.492 5                  41000105.141 6                      1699.277 5                      1380.779 5                      1313.969 6                 213498348.921 5                 173484849.395 5                 165090433.530 6                        33.000                          33.900                          36.500
C09                  41544204.750 5                  41544191.996 5                  41544199.047 5                      1855.938 5                      1508.092 5                      1435.132 5                 216331575.525 5                 175787076.570 5                 167281272.406 5                        34.800                          33.200                          34.500
C11                  26351269.922 5                  26351258.980 6                  26351264.828 6                     -2664.715 5                     -2165.236 6                     -2060.469 6                 137218268.263 5                 111501156.595 6                 106105993.667 6                        35.500                          37.500                          40.300
C14                  22617699.852 8                  22617686.895 8                  22617692.570 8                      -627.789 8                      -509.930 8                      -485.256 8                 117776393.544 8                  95702944.190 8                  91072182.305 8                        49.300                          51.400                          51.400
C16                  41043801.680 5                  41043793.094 5                  41043799.664 5                      1542.539 5                      1253.429 5                      1192.777 5                 213725854.517 5                 173669725.664 5                 165266375.011 5                        34.700                          33.200                          34.900
C27  23999709.035 7  23999710.281 7  23999706.168 7  23999700.617 7  23999703.984 6                      2466.998 7      2444.500 7      1842.239 7      1986.407 7      1890.292 6                 126119319.046 7 124972800.342 7  94180024.845 7 101550599.791 7  96636876.800 6                        45.000          46.000          46.400          46.000          40.600
C28  21633563.008 8  21633564.398 8  21633560.730 8  21633555.086 8  21633558.742 7                       367.433 8       363.941 8       274.380 8       295.854 8       281.532 7                 113685169.523 8 112651682.811 8  84894790.330 8  91538697.700 8  87109419.030 7                        51.900          52.600          53.000          52.000          47.400
C33  22559260.414 8  22559261.531 8  22559283.070 8  22559264.504 8  22559280.621 7                      1116.200 8      1105.820 8       833.517 8       898.751 8       855.266 7                 118549832.090 8 117472128.015 8  88527608.476 8  95455789.775 8  90837014.089 7                        52.700          52.500          53.500          52.000          47.400
C36  27304925.977 5  27304926.375 5  27304929.625 6  27304922.246 5  27304927.703 4                      1021.864 5      1012.340 5       763.071 6       822.763 5       782.959 4                 143488337.207 5 142183914.268 5 107150404.420 6 115536062.977 5 109945621.762 4                        33.600          33.000          36.800          34.500          28.200
C37  26486484.070 6  26486485.008 6  26486486.355 7  26486480.063 6  26486483.898 5                     -2697.543 6     -2672.988 6     -2014.423 7     -2172.062 6     -2066.966 5                 139187389.939 6 137922052.456 6 103938638.170 7 112072947.546 6 106650072.830 5                        37.700          37.800          42.500          39.600          35.500
C39  40702651.684 6  40702652.672 6  40702646.551 6  40702640.047 6  40702644.227 5                      1298.502 6      1286.652 6       969.643 6      1045.548 6       994.948 5                 213893868.685 6 211949387.501 6 159725941.132 6 172226195.625 6 163892684.773 5                        38.600          37.800          40.900          38.300          33.600
C41  24676923.992 7  24676924.633 7  24676931.676 7  24676921.504 7  24676929.504 6                      3325.898 7      3295.531 7      2483.633 7      2677.986 7      2548.403 6                 129678155.708 7 128499273.397 7  96837630.458 7 104416190.668 7  99363815.555 6                        45.600          45.600          46.500          44.400          40.400
C42  24381504.805 7  24381505.141 7  24381512.332 8  24381504.273 7  24381510.012 6                     -2026.304 7     -2008.035 7     -1513.148 8     -1631.569 7     -1552.619 6                 128125722.893 7 126960961.640 7  95678351.444 8 103166196.484 7  98174282.189 6                        46.400          45.200          48.300          46.500          41.300
C43  23831774.238 7  23831775.727 8  23831773.395 8  23831766.145 7  23831770.289 6                     -2275.831 7     -2255.230 8     -1699.484 8     -1832.490 7     -1743.820 6                 125237020.164 7 124098525.201 8  93521257.603 8 100840261.188 7  95960811.108 6                        47.600          48.000          48.100          46.400          41.200
C46  25775485.406 6  25775484.844 6  25775474.172 7  25775469.492 6  25775471.434 6                     -1076.090 6     -1066.324 6      -803.573 7      -866.444 6      -824.524 6                 135451069.102 6 134219701.177 6 101148519.697 7 109064441.326 6 103787134.432 6                        41.300          40.900          44.900          39.800          37.400
E04  28116362.648 6  28116365.234 6  28116357.480 7  28116363.020 6  28116365.129 7      3018.809 6      2254.261 6      2450.300 7      2313.079 6      2283.687 7 147752554.051 6 110334743.569 6 119929026.131 7 113213020.326 6 111773895.239 7        38.300          41.100          43.900          41.000          45.000
E10  24096340.406 8  24096342.316 8  24096335.398 9  24096339.863 8  24096342.141 9       942.371 8       703.815 8       765.014 9       722.179 8       712.994 9 126627180.704 8  94559300.826 8 102781806.935 9  97026051.556 8  95792681.989 9        51.300          52.000          56.400          52.300          55.500
E11  25548412.563 7  25548411.406 7  25548403.469 7  25548409.047 7  25548411.195 7      1821.566 7      1360.251 7      1478.558 7      1395.739 7      1377.993 7 134257827.334 7 100257463.046 7 108975470.628 7 102872857.272 7 101565186.964 7        43.800          43.300          47.000          42.700          46.200
E12  23575945.984 8  23575944.770 8  23575936.008 9  23575942.277 8  23575944.578 9      -137.621 8      -102.680 8      -111.607 9      -105.357 8      -104.017 9 123892459.071 8  92517108.940 8 100562033.580 9  94930588.138 8  93723854.333 9        48.500          50.700          54.300          51.700          54.600
E19  26837380.016 7  26837381.438 7  26837373.445 7  26837379.164 7  26837381.289 7      1993.070 7      1488.479 7      1617.899 7      1527.295 7      1507.873 7 141031391.742 7 105315654.245 7 114473506.416 7 108063010.408 7 106689337.628 7        42.300          42.200          44.300          42.800          46.600
E24  25593594.547 7  25593595.906 8  25593588.398 8  25593592.883 8  25593595.520 8     -2122.207 7     -1584.626 8     -1722.427 8     -1625.976 8     -1605.308 8 134495259.437 7 100434774.912 8 109168200.603 8 103054798.716 8 101744795.608 8        47.900          49.200          51.400          48.400          52.100
E25  26105377.711 7  26105380.254 7  26105370.488 8  26105377.457 7  26105379.949 8       576.887 7       430.966 7       468.432 8       442.187 7       436.576 8 137184681.362 7 102443113.364 7 111351171.031 8 105115532.951 7 103779328.957 8        45.900          46.400          48.700          46.400          50.500
E31  27804693.469 6  27804697.211 6  27804686.113 7  27804694.836 6  27804697.063 7     -3154.832 6     -2355.837 6     -2560.688 7     -2417.258 6     -2386.536 7 146114701.638 6 109111670.885 6 118599583.098 7 111958049.928 6 110534865.705 7        39.400          40.800          42.400          41.700          45.500
E33  26031411.398 7  26031412.523 7  26031405.602 8  26031410.316 7  26031412.645 8     -1924.902 7     -1437.364 7     -1562.362 8     -1474.868 7     -1456.122 8 136796251.314 7 102153200.128 7 111035998.946 8 104818035.629 7 103485623.687 8        45.100          46.500          49.300          46.900          50.100
G01  21795228.070 7                  21795235.199 5  21795235.402 7  21795231.277 8      2377.348 7                      1852.521 5      1852.548 7      1775.351 8 114534680.769 7                  89247860.777 5  89247863.775 7  85529188.438 8        43.900                          35.400          46.600          51.300
G03  24495187.180 6                  24495193.266 4  24495193.840 6  24495191.148 7      3808.387 6                      2967.641 4      2967.661 6      2844.003 7 128722944.002 6                 100303732.572 4 100303740.557 6  96124408.039 7        40.200                          24.900          41.600          45.100
G08  20369179.727 8                  20369186.398 9  20369186.918 8  20369182.848 9      -615.605 8                      -479.536 9      -479.529 8      -459.561 9 107040709.800 8                  83408445.081 9  83408445.079 8  79933079.032 9        51.700                          56.200          52.900          55.300
G10  22568149.016 7                  22568155.324 7  22568155.008 7  22568150.969 8     -2647.012 7                     -2062.479 7     -2062.482 7     -1976.549 8 118596651.468 7                  92413155.250 7  92413101.252 7  88562580.159 8        46.000                          46.800          46.400          49.500
G14  24110030.234 6  24110027.441 6  24110034.023 4  24110033.492 7  24110035.234 7      2326.371 6      2326.570 6      1812.925 4      1812.906 7      1737.379 7 126699062.491 6 126699071.496 6  98726559.787 4  98726565.794 7  94612957.176 7        38.900          41.700          24.700          42.200          45.100
G16  25378253.008 5                  25378257.164 2                                     -3748.543 5                     -2921.030 2                                 133363585.627 5                 103919733.136 2                                        33.700                          17.400
G21  20978823.133 8                  20978826.617 7                                       635.160 8                       495.016 7                                 110244480.904 8                  85904818.835 7                                        50.800                          43.000
G22  23791637.219 6                  23791642.387 3                                      2625.375 6                      2045.824 3                                 125026048.572 6                  97422823.390 3                                        40.100                          22.000
G23  25364041.297 5  25364039.313 6  25364044.789 2  25364045.824 6  25364046.020 6     -3578.520 5     -3578.543 6     -2788.434 2     -2788.458 6     -2672.328 6 133289058.620 5 133289091.609 6 103861584.888 2 103861707.860 6  99534202.867 6        33.900          37.300          17.400          36.900          40.400
G27  21726413.203 7                  21726420.172 8  21726419.977 8  21726417.203 8     -2636.051 7                     -2053.962 8     -2053.954 8     -1968.377 8 114173077.842 7                  88966100.536 8  88966099.532 8  85259170.840 8        47.800                          51.700          48.900          52.200
G32  23191317.273 7                  23191323.762 7  23191324.008 7  23191320.730 7      1472.281 7                      1147.358 7      1147.339 7      1099.535 7 121871192.363 7                  94964620.167 7  94964623.171 7  91007722.942 7        43.900                          43.900          43.800          47.300
I06  38539184.773 6        57.762 6 151236115.935 6        38.300
I09  37769877.664 6       179.727 6 148217173.621 6        38.700
R06  21336746.836 6  21336744.551 6                                     -2308.703 6     -2308.302 6                                 113857007.261 6 113856976.257 6                                        39.000          37.300
R07  20123764.125 9  20123763.785 8  20123767.473 8  20123767.273 8      1723.285 9      1723.605 8      1340.578 8      1340.584 8 107724147.855 9 107724177.865 8  83785527.187 8  83785469.182 8        54.200          51.500          49.900          49.700
R08  22423064.828 7  22423064.027 6  22423065.902 7  22423066.188 7      4333.168 7      4333.355 6      3370.411 7      3370.382 7 120074557.129 7 120074572.125 6  93391363.195 7  93391388.222 7        42.600          41.500          42.600          42.100
R12  23154685.469 7  23154684.969 6  23154688.543 6  23154689.563 6     -3822.656 7     -3822.497 6     -2973.041 6     -2973.066 6 123688152.014 7 123688164.020 6  96201903.532 6  96201914.535 6        42.400          41.900          38.700          37.700
R13  22066561.992 5  22066558.613 5  22066562.242 6  22066562.918 6     -1616.883 5     -1616.696 5     -1257.405 6     -1257.368 6 117834221.254 5 117834199.280 5  91648825.765 6  91648828.757 6        35.000          33.700          37.300          39.600
R14  23582888.359 6  23582887.422 6  23582891.473 6  23582890.875 6      2038.160 6      2038.333 6      1585.390 6      1585.382 6 125710022.904 6 125710268.921 6  97774508.068 6  97774515.083 6        40.500          39.400          40.200          39.700
R21  22099368.375 7  22099366.961 7  22099369.820 7  22099370.855 7     -2561.891 7     -2561.771 7     -1992.493 7     -1992.479 7 118258293.818 7 118258295.830 7  91978723.235 7  91978748.226 7        47.600          46.600          43.700          42.400
R22  19759814.859 8  19759814.031 8  19759815.441 8  19759816.066 8      -435.926 8      -435.766 8      -338.928 8      -338.923 8 105479279.359 8 105479287.357 8  82039454.599 8  82039475.603 8        53.900          52.400          52.100          51.800
R23  21624323.391 7  21624322.035 7                                      2662.480 7      2662.538 7                                 115675476.642 7 115675787.650 7                                        46.000          44.600
S23  38480917.766 7  38480901.707 7         3.676 7         2.739 7 202219747.660 7 151006047.266 7        43.600          42.200
S26  40239153.547 5                       -59.195 5                 211458040.664 5                        32.000
S27  39841501.797 5  39841491.039 6        14.008 5                 209368494.96615 156346613.50716        31.600          37.400
S36  37805833.219 7  37805817.379 7        -1.035 7         -.808 7 198672170.463 7 148358283.235 7        46.400          45.800
S48  67108863.984 6                       -39.684 6                 400750109.521 6                        37.800
> 2023 01 01 00 00  6.0000000  0 52
C05                  39893220.852 6                  39893209.941 6                  39893212.508 6                        -7.363 6                        -5.945 6                        -5.653 6                 207734459.524 6                 168801240.940 6                 160633443.044 6                        36.000                          37.400                          39.600
C06                  40999786.969 5                  40999774.184 5                  40999778.699 6                      1698.891 5                      1380.682 5                      1313.873 6                 213496649.782 5                 173483468.713 5                 165089119.657 6                        33.000                          34.100                          36.700
C09                  41543848.070 5                  41543835.602 5                  41543841.984 5                      1855.645 5                      1508.007 5                      1435.041 5                 216329719.692 5                 175785568.563 5                 167279837.365 5                        35.000                          33.200                          34.200
C11                  26351781.609 5                  26351770.742 6                  26351776.605 6                     -2664.734 5                     -2165.303 6                     -2060.524 6                 137220932.993 5                 111503321.898 6                 106108054.192 6                        35.600                          37.900                          40.600
C14                  22617820.414 8                  22617807.496 8                  22617813.211 8                      -628.426 8                      -510.378 8                      -485.678 8                 117777021.635 8                  95703454.568 8                  91072667.983 8                        49.200                          51.200                          51.500
C16                  41043505.883 5                  41043496.906 5                  41043503.645 5                      1542.332 5                      1253.299 5                      1192.656 5                 213724312.155 5                 173668472.365 5                 165265182.355 5                        35.200                          32.500                          35.200
C27  23999239.715 7  23999240.508 7  23999236.684 7  23999231.105 7  23999234.566 6                      2466.911 7      2444.371 7      1842.185 7      1986.350 7      1890.238 6                 126116852.135 7 124970355.847 7  94178182.660 7 101548613.442 7  96634986.562 6                        45.000          46.000          46.700          46.400          40.600
C28  21633493.105 8  21633494.656 8  21633490.914 8  21633485.234 8  21633488.883 7                       367.159 8       363.633 8       274.168 8       295.625 8       281.325 7                 113684802.364 8 112651318.999 8  84894516.162 8  91538402.075 8  87109137.705 7                        51.900          52.600          53.000          52.100          47.500
C33  22559048.086 8  22559049.289 8  22559070.746 8  22559052.125 8  22559068.316 7                      1115.651 8      1105.262 8       833.119 8       898.318 8       854.844 7                 118548716.438 8 117471022.511 8  88526775.358 8  95454891.457 8  90836159.245 7                        52.600          52.600          53.700          52.100          47.400
C36  27304731.551 5  27304732.242 5  27304735.281 6  27304727.844 5  27304733.359 4                      1021.382 5      1011.805 5       762.708 6       822.389 5       782.589 4                 143487315.825 5 142182902.187 5 107149641.712 6 115535240.588 5 109944839.174 4                        33.900          32.400          36.700          34.400          29.300
C37  26486997.563 6  26486998.258 6  26486999.664 7  26486993.352 6  26486997.207 5                     -2697.613 6     -2673.145 6     -2014.450 7     -2172.075 6     -2066.971 5                 139190087.551 6 137924725.516 6 103940652.621 7 112075119.622 6 106652139.801 5                        37.900          38.300          42.000          39.600          35.800
C39  40702404.441 6  40702405.461 6  40702399.492 6  40702393.023 6  40702397.109 5                      1298.336 6      1286.422 6       969.532 6      1045.419 6       994.833 5                 213892570.349 6 211948100.961 6 159724971.600 6 172225150.206 6 163891689.940 5                        38.700          38.200          40.900          38.700          34.200
C41  24676291.188 7  24676291.930 7  24676298.887 7  24676288.539 7  24676296.609 6                      3325.736 7      3295.340 7      2483.516 7      2677.871 7      2548.299 6                 129674829.972 7 128495977.888 7  96835146.943 7 104413512.797 7  99361267.256 6                        45.500          45.900          46.400          44.300          40.300
C42  24381890.586 7  24381890.836 7  24381897.992 8  24381889.949 7  24381895.676 6                     -2026.715 7     -2008.578 7     -1513.458 8     -1631.910 7     -1552.945 6                 128127749.608 7 126962969.939 7  95679864.902 8 103167828.394 7  98175835.134 6                        46.300          45.400          48.500          46.600          41.300
C43  23832207.266 7  23832208.836 7  23832206.625 8  23832199.316 7  23832203.379 6                     -2276.039 7     -2255.520 7     -1699.637 8     -1832.657 7     -1743.979 6                 125239296.202 7 124100780.548 7  93522957.240 8 100842093.845 7  95962555.087 6                        47.500          47.500          48.000          46.200          41.300
C46  25775690.086 6  25775689.977 6  25775679.094 7  25775674.309 6  25775676.324 6                     -1076.533 6     -1066.965 6      -803.908 7      -866.819 6      -824.871 6                 135452145.635 6 134220767.919 6 101149323.605 7 109065308.145 6 103787959.304 6                        41.400          41.100          45.200          39.900          37.400
E04  28115787.500 6  28115790.660 6  28115783.113 7  28115788.414 6  28115790.652 7      3018.723 6      2254.359 6      2450.371 7      2313.174 6      2283.759 7 147749535.184 6 110332489.210 6 119926575.759 7 113210707.152 6 111771611.480 7        38.100          41.000          43.900          41.100          44.900
E10  24096161.094 8  24096163.035 8  24096156.090 9  24096160.492 8  24096162.813 9       942.211 8       703.722 8       764.907 9       722.076 8       712.901 9 126626238.332 8  94558597.103 8 102781042.028 9  97025329.480 8  95791969.088 9        51.300          52.100          56.400          52.500          55.900
E11  25548065.852 7  25548064.703 7  25548056.859 7  25548062.539 7  25548064.602 7      1821.305 7      1360.210 7      1478.469 7      1395.694 7      1377.953 7 134256005.855 7 100256102.836 7 108973992.158 7 102871461.578 7 101563809.011 7        43.300          43.500          47.100          42.900          46.300
E12  23575971.828 8  23575970.898 8  23575962.250 9  23575968.590 8  23575970.777 9      -137.809 8      -102.777 8      -111.717 9      -105.471 8      -104.127 9 123892596.709 8  92517211.717 8 100562145.297 9  94930693.609 8  93723958.460 9        48.600          50.600          54.300          51.800          54.600
E19  26837000.969 7  26837002.242 7  26836994.328 7  26836999.828 7  26837002.043 7      1992.820 7      1488.231 7      1617.656 7      1527.070 7      1507.646 7 141029398.792 7 105314166.014 7 114471888.760 7 108061483.338 7 106687829.982 7        42.400          42.300          44.300          43.000          47.000
E24  25593998.313 7  25593999.758 8  25593992.125 8  25593996.641 8  25593999.383 8     -2122.582 7     -1584.884 8     -1722.693 8     -1626.215 8     -1605.555 8 134497381.800 7 100436359.796 8 109169923.297 8 103056424.931 8 101746401.162 8        47.900          49.600          51.400          48.700          52.200
E25  26105267.961 7  26105270.734 7  26105260.273 8  26105267.676 7  26105270.215 8       576.348 7       430.606 7       468.051 8       441.840 7       436.215 8 137184104.718 7 102442682.758 7 111350702.980 8 105115091.111 7 103778892.742 8        45.800          46.700          48.700          46.800          50.700
E31  27805293.414 6  27805297.406 6  27805286.516 7  27805295.227 6  27805297.391 7     -3154.879 6     -2355.769 6     -2560.636 7     -2417.249 6     -2386.510 7 146117856.345 6 109114026.654 6 118602143.735 7 111960467.177 6 110537252.215 7        39.900          40.900          42.500          41.900          45.700
E33  26031777.992 7  26031778.867 7  26031771.895 8  26031776.531 7  26031778.934 8     -1925.035 7     -1437.417 7     -1562.401 8     -1474.902 7     -1456.151 8 136798176.193 7 102154637.545 7 111037561.347 8 104819510.531 7 103487079.837 8        45.100          46.300          49.300          46.600          50.400
G01  21794775.617 7                  21794782.813 5  21794783.070 7  21794778.957 8      2377.102 7                      1852.350 5      1852.330 7      1775.154 8 114532303.580 7                  89246008.427 5  89246011.444 7  85527413.285 8        43.700                          35.600          46.800          51.100
G03  24494462.055 6                  24494468.734 4  24494468.867 6  24494466.523 7      3808.238 6                      2967.604 4      2967.562 6      2843.929 7 128719135.606 6                 100300764.967 4 100300772.996 6  96121564.110 7        40.300                          25.100          41.900          45.100
G08  20369296.945 8                  20369303.609 9  20369304.055 8  20369300.043 9      -616.211 8                      -479.932 9      -479.939 8      -459.932 9 107041325.715 8                  83408925.013 9  83408925.018 8  79933538.964 9        51.800                          56.400          52.900          55.300
G10  22568652.984 7                  22568659.172 7  22568658.875 7  22568654.660 8     -2647.418 7                     -2062.729 7     -2062.732 7     -1976.784 8 118599298.644 7                  92415217.979 7  92415163.984 7  88564556.944 8        46.200                          46.700          46.500          49.400
G14  24109587.219 6  24109585.047 7  24109591.176 4  24109590.695 7  24109592.559 7      2325.828 6      2326.094 7      1812.537 4      1812.557 7      1737.025 7 126696736.397 6 126696745.402 7  98724747.249 4  98724753.237 7  94611220.151 7        38.900          42.000          25.700          42.100          45.000
G16  25378966.258 5                  25378970.480 3                                     -3748.613 5                     -2920.992 3                                 133367334.203 5                 103922654.128 3                                        33.600                          18.300
G21  20978702.359 8                  20978706.008 7                                       634.828 8                       494.827 7                                 110243845.874 8                  85904324.008 7                                        50.700                          43.000
G22  23791137.844 6                  23791142.820 3                                      2625.258 6                      2045.731 3                                 125023423.236 6                  97420777.659 3                                        39.900                          21.100
G23  25364722.000 5  25364720.438 6  25364725.871 3  25364726.844 6  25364727.160 6     -3578.781 5     -3578.591 6     -2788.446 3     -2788.521 6     -2672.308 6 133292637.181 5 133292670.200 6 103864373.334 3 103864496.382 6  99536875.174 6        33.600          37.300          19.000          36.800          40.700
G27  21726915.336 8                  21726921.664 8  21726921.926 8  21726918.777 8     -2636.426 8                     -2054.217 8     -2054.232 8     -1968.636 8 114175714.090 8                  88968154.753 8  88968153.764 8  85261139.476 8        48.100                          51.600          49.100          52.100
G32  23191037.430 7                  23191043.629 7  23191044.000 7  23191040.602 7      1471.672 7                      1146.957 7      1146.967 7      1099.191 7 121869720.438 7                  94963473.210 7  94963476.203 7  91006623.751 7        44.100                          43.600          43.900          47.000
I06  38539169.859 6        57.891 6 151236057.924 6        37.800
I09  37769832.656 6       179.645 6 148216993.904 6        38.900
R06  21337179.867 6  21337177.242 6                                     -2309.391 6     -2309.022 6                                 113859316.322 6 113859285.279 6                                        38.900          37.400
R07  20123442.555 9  20123442.090 8  20123445.520 8  20123445.535 8      1722.406 9      1722.781 8      1339.943 8      1339.936 8 107722425.080 9 107722455.084 8  83784187.245 8  83784129.246 8        54.500          51.400          50.200          49.400
R08  22422255.508 7  22422254.543 6  22422257.680 7  22422257.102 7      4333.094 7      4333.152 6      3370.223 7      3370.240 7 120070223.969 7 120070238.973 6  93387992.972 7  93388017.982 7        42.400          41.500          42.800          42.300
R12  23155400.805 7  23155400.230 7  23155404.477 6  23155405.047 6     -3822.863 7     -3822.712 7     -2973.221 6     -2973.196 6 123691974.700 7 123691986.732 7  96204876.754 6  96204887.731 6        42.500          42.200          38.900          38.000
R13  22066864.664 5  22066861.746 5  22066865.168 6  22066865.789 6     -1617.715 5     -1617.433 5     -1257.985 6     -1257.989 6 117835838.679 5 117835816.713 5  91650083.749 6  91650086.745 6        34.800          33.800          37.500          39.500
R14  23582506.484 6  23582504.992 6  23582509.004 6  23582508.559 6      2037.301 6      2037.647 6      1584.767 6      1584.804 6 125707985.297 6 125708231.274 6  97772923.301 6  97772930.279 6        40.600          39.700          40.000          39.300
R21  22099846.828 7  22099845.766 7  22099848.371 7  22099849.727 7     -2562.109 7     -2561.961 7     -1992.635 7     -1992.643 7 118260855.780 7 118260857.791 7  91980715.870 7  91980740.869 7        47.500          46.900          43.100          42.000
R22  19759896.695 9  19759895.855 8  19759897.164 8  19759897.887 8      -436.313 9      -436.113 8      -339.206 8      -339.197 8 105479715.473 9 105479723.470 8  82039793.805 8  82039814.800 8        54.100          52.000          52.000          51.700
R23  21623825.609 7  21623824.254 7                                      2662.297 7      2662.447 7                                 115672814.206 7 115673125.204 7                                        46.000          44.200
S23  38480917.094 7  38480900.996 7         3.645 7         2.771 7 202219743.903 7 151006044.495 7        43.700          42.400
S26  40239172.047 5                       -59.113 5                 211458099.676 5                        32.000
S27  39841499.438 5  39841488.258 6        13.766 5        10.551 6 209368480.876 5 156346602.956 6        32.000          37.600
S36  37805834.203 7  37805817.602 7        -1.055 7         -.814 7 198672171.427 7 148358284.050 7        46.300          45.800
S48  67108863.984 6                       -39.750 6                 400750149.160 6                        37.900
> 2023 01 01 00 00  7.0000000  0 52
C05                  39893222.297 5                  39893211.348 6                  39893213.766 6                        -7.090 5                        -5.925 6                        -5.647 6                 207734466.814 5                 168801246.865 6                 160633448.691 6                        35.600                          37.100                          39.500
C06                  40999460.344 5                  40999447.770 5                  40999452.531 6                      1699.199 5                      1380.587 5                      1313.788 6                 213494950.763 5                 173482088.126 5                 165087805.869 6                        33.200                          34.400                          36.300
C09                  41543491.938 5                  41543479.230 5                  41543485.805 5                      1855.758 5                      1508.026 5                      1435.051 5                 216327863.850 5                 175784060.536 5                 167278402.314 5                        35.000                          33.600                          33.600
C11                  26352293.242 5                  26352282.508 6                  26352288.348 6                     -2664.750 5                     -2165.335 6                     -2060.555 6                 137223597.748 5                 111505487.233 6                 106110114.747 6                        35.700                          37.900                          40.500
C14                  22617941.180 8                  22617928.262 8                  22617933.777 8                      -628.797 8                      -510.808 8                      -486.097 8                 117777650.264 8                  95703965.376 8                  91073154.080 8                        48.800                          51.200                          51.600
C16                  41043209.320 5                  41043200.641 5                  41043207.563 5                      1542.117 5                      1253.199 5                      1192.566 5                 213722769.900 5                 173667219.165 5                 165263989.789 5                        34.600                          32.800                          35.300
C27  23998770.090 7  23998771.445 7  23998767.293 7  23998761.660 7  23998765.141 6                      2466.855 7      2444.434 7      1842.129 7      1986.305 7      1890.195 6                 126114385.281 7 124967911.413 7  94176340.531 7 101546627.137 7  96633096.366 6                        45.100          46.300          46.700          46.100          40.500
C28  21633423.309 8  21633424.844 8  21633421.117 8  21633415.422 8  21633419.137 7                       366.874 8       363.430 8       273.980 8       295.413 8       281.118 7                 113684435.490 8 112650955.451 8  84894242.183 8  91538106.663 8  87108856.587 7                        51.900          53.100          53.200          52.200          47.300
C33  22558835.801 8  22558837.039 8  22558858.547 8  22558840.012 8  22558856.125 7                      1115.139 8      1104.840 8       832.744 8       897.912 8       854.471 7                 118547601.299 8 117469917.495 8  88525942.613 8  95453993.544 8  90835304.774 7                        52.700          52.900          53.700          52.100          47.300
C36  27304537.266 5  27304537.922 5  27304540.949 6  27304533.594 5  27304539.105 4                      1020.946 5      1011.434 5       762.382 6       822.041 5       782.273 4                 143486294.879 5 142181890.543 5 107148879.331 6 115534418.547 5 109944056.901 4                        34.300          32.600          37.000          34.200          27.900
C37  26487511.008 6  26487511.656 6  26487512.965 7  26487506.723 6  26487510.520 5                     -2697.632 6     -2673.203 6     -2014.442 7     -2172.153 6     -2067.051 5                 139192785.184 6 137927398.655 6 103942667.063 7 112077291.774 6 106654206.852 5                        37.900          38.400          42.000          39.400          35.500
C39  40702157.270 6  40702158.398 6  40702152.297 6  40702145.988 6  40702150.031 5                      1298.208 6      1286.426 6       969.436 6      1045.305 6       994.730 5                 213891272.141 6 211946814.554 6 159724002.163 6 172224104.901 6 163890695.210 5                        38.600          38.300          40.600          38.900          34.200
C41  24675658.352 7  24675659.250 7  24675666.023 7  24675655.645 7  24675663.742 6                      3325.605 7      3295.367 7      2483.409 7      2677.771 7      2548.200 6                 129671504.368 7 128492682.502 7  96832663.533 7 104410835.026 7  99358719.056 6                        45.600          45.800          46.400          44.500          40.500
C42  24382276.328 7  24382276.820 7  24382283.762 8  24382275.684 7  24382281.422 6                     -2027.105 7     -2008.836 7     -1513.754 8     -1632.226 7     -1553.246 6                 128129776.713 7 126964978.631 7  95681378.656 8 103169460.620 7  98177388.380 6                        46.300          44.500          48.100          46.800          41.200
C43  23832640.395 7  23832642.109 7  23832639.711 8  23832632.352 7  23832636.586 6                     -2276.209 7     -2255.629 7     -1699.760 8     -1832.791 7     -1744.107 6                 125241572.411 7 124103036.066 7  93524657.000 8 100843926.636 7  95964299.194 6                        47.600          47.200          48.100          46.300          41.200
C46  25775895.172 6  25775894.680 6  25775883.953 7  25775879.199 6  25775881.262 6                     -1076.952 6     -1067.316 6      -804.195 7      -867.154 6      -825.198 6                 135453222.587 6 134221835.085 6 101150127.800 7 109066175.300 6 103788784.502 6                        41.500          40.600          44.800          39.400          37.600
E04  28115213.453 6  28115216.172 6  28115208.477 7  28115213.832 6  28115216.141 7      3019.020 6      2254.440 6      2450.456 7      2313.223 6      2283.839 7 147746516.212 6 110330234.770 6 119924125.303 7 113208393.929 6 111769327.641 7        37.800          40.800          43.900          40.900          44.600
E10  24095981.820 8  24095983.699 8  24095976.824 9  24095981.121 8  24095983.512 9       942.262 8       703.640 8       764.830 9       721.997 8       712.821 9 126625296.065 8  94557893.464 8 102780277.198 9  97024607.482 8  95791256.267 9        51.600          52.300          56.400          52.500          55.900
E11  25547719.164 7  25547718.133 7  25547710.285 7  25547715.785 7  25547717.973 7      1821.363 7      1360.168 7      1478.451 7      1395.654 7      1377.909 7 134254184.408 7 100254742.668 7 108972513.707 7 102870065.925 7 101562431.102 7        43.600          43.500          47.100          42.700          46.400
E12  23575998.172 8  23575997.090 8  23575988.602 9  23575994.852 8  23575996.984 9      -137.820 8      -102.892 8      -111.830 9      -105.569 8      -104.227 9 123892734.482 8  92517314.610 8 100562257.127 9  94930799.178 8  93724062.686 9        48.800          50.800          54.300          51.300          54.900
E19  26836621.563 7  26836622.941 7  26836614.973 7  26836620.637 7  26836622.852 7      1992.500 7      1488.043 7      1617.406 7      1526.845 7      1507.438 7 141027406.152 7 105312677.971 7 114470271.354 7 108059956.493 7 106686322.544 7        42.600          42.300          44.300          42.600          47.300
E24  25594402.484 8  25594403.684 8  25594396.180 8  25594400.617 8  25594403.324 8     -2122.723 8     -1585.106 8     -1722.938 8     -1626.450 8     -1605.774 8 134499504.456 8 100437944.902 8 109171646.234 8 103058051.381 8 101748006.936 8        48.000          49.100          51.400          48.500          52.000
E25  26105158.375 7  26105160.879 7  26105150.711 8  26105158.070 7  26105160.578 8       576.012 7       430.276 7       467.685 8       441.489 7       435.899 8 137183528.524 7 102442252.482 7 111350235.295 8 105114649.622 7 103778456.842 8        45.900          46.700          48.700          46.700          50.600
E31  27805894.313 6  27805897.785 6  27805886.824 7  27805895.586 7  27805897.688 7     -3154.547 6     -2355.755 6     -2560.564 7     -2417.199 7     -2386.467 7 146121010.953 6 109116382.409 6 118604704.299 7 111962884.377 7 110539638.682 7        40.000          40.900          42.400          42.100          45.600
E33  26032144.211 7  26032145.141 7  26032138.180 8  26032142.918 7  26032145.223 8     -1924.887 7     -1437.424 7     -1562.409 8     -1474.932 7     -1456.171 8 136800101.085 7 102156074.969 7 111039123.756 8 104820985.463 7 103488536.009 8        45.500          46.400          49.300          46.800          50.500
G01  21794323.297 7                  21794330.605 5  21794330.762 7  21794326.613 8      2376.871 7                      1852.158 5      1852.173 7      1775.003 8 114529926.636 7                  89244156.268 5  89244159.271 7  85525638.281 8        43.700                          35.900          47.200          51.400
G03  24493737.602 6                  24493744.109 4  24493744.250 6  24493741.887 7      3808.246 6                      2967.498 4      2967.501 6      2843.864 7 128715327.297 6                 100297797.469 4 100297805.495 6  96118720.246 7        40.300                          24.900          41.600          45.300
G08  20369414.063 8                  20369420.867 9  20369421.473 8  20369417.289 9      -616.586 8                      -480.299 9      -480.292 8      -460.282 9 107041942.103 8                  83409405.312 9  83409405.310 8  79933999.246 9        51.400                          55.800          52.900          55.400
G10  22569156.422 7                  22569162.891 7  22569162.723 7  22569158.473 8     -2647.520 7                     -2062.945 7     -2062.963 7     -1976.994 8 118601946.091 7                  92417280.925 7  92417226.947 7  88566533.938 8        46.000                          46.500          46.300          49.100
G14  24109144.383 6  24109142.641 6  24109148.488 4  24109148.582 7  24109150.020 7      2325.402 6      2325.660 6      1812.189 4      1812.177 7      1736.689 7 126694410.752 6 126694419.742 6  98722935.060 4  98722941.060 7  94609483.462 7        38.800          41.800          25.400          42.300          45.000
G16  25379679.641 5                  25379683.777 2                                     -3748.328 5                     -2920.823 2                                 133371082.626 5                 103925574.951 2                                        34.400                          16.300
G21  20978581.508 8                  20978585.043 7                                       634.781 8                       494.662 7                                 110243211.057 8                  85903829.346 7                                        50.700                          42.900
G22  23790638.516 6                  23790643.180 3                                      2625.148 6                      2045.541 3                                 125020798.108 6                  97418732.118 3                                        40.000                          22.000
G23  25365402.992 5  25365401.582 6  25365406.859 3  25365407.168 6  25365408.445 6     -3578.613 5     -3578.591 6     -2788.591 3     -2788.521 6     -2672.320 6 133296215.812 5 133296248.791 6 103867161.925 3 103867284.903 6  99539547.494 6        33.200          37.100          18.600          36.700          41.500
G27  21727416.953 8                  21727423.516 8  21727423.488 8  21727420.473 8     -2636.707 8                     -2054.491 8     -2054.478 8     -1968.874 8 114178350.685 8                  88970209.244 8  88970208.242 8  85263108.350 8        48.000                          51.600          48.900          52.100
G32  23190757.508 7                  23190763.516 7  23190764.074 7  23190760.547 7      1471.246 7                      1146.601 7      1146.594 7      1098.806 7 121868248.959 7                  94962326.609 7  94962329.609 7  91005524.945 7        44.000                          43.700          44.100          46.700
I06  38539155.289 6        58.152 6 151235999.907 6        37.400
I09  37769786.438 6       179.695 6 148216814.184 6        39.100
R06  21337612.203 6  21337609.621 6                                     -2310.098 6     -2309.798 6                                 113861626.082 6 113861595.077 6                                        39.000          36.900
R07  20123120.844 9  20123120.164 8  20123123.961 8  20123123.824 8      1721.664 9      1721.974 8      1339.331 8      1339.322 8 107720703.099 9 107720733.110 8  83782847.914 8  83782789.925 8        54.400          51.600          50.300          49.300
R08  22421445.945 7  22421445.738 6  22421447.547 7  22421448.031 7      4332.910 7      4332.949 6      3370.059 7      3370.054 7 120065891.039 7 120065906.023 6  93384622.914 7  93384647.928 7        42.300          41.600          43.000          42.100
R12  23156116.656 7  23156116.230 7  23156119.293 6  23156120.785 6     -3822.832 7     -3822.872 7     -2973.327 6     -2973.353 6 123695797.584 7 123695809.605 7  96207850.081 6  96207861.084 6        42.300          42.400          38.400          37.600
R13  22067167.281 5  22067164.648 5  22067168.793 6  22067168.578 6     -1618.352 5     -1618.095 5     -1258.539 6     -1258.552 6 117837456.813 5 117837434.808 5  91651342.288 6  91651345.297 6        34.600          33.400          37.400          39.900
R14  23582124.805 6  23582122.684 6  23582126.488 6  23582126.477 6      2036.828 6      2036.902 6      1584.295 6      1584.274 6 125705948.369 6 125706194.372 6  97771339.006 6  97771346.005 6        40.500          39.700          39.800          39.600
R21  22100326.578 7  22100324.574 7  22100327.930 7  22100328.477 7     -2562.148 7     -2562.108 7     -1992.748 7     -1992.749 7 118263417.889 7 118263419.899 7  91982708.618 7  91982733.618 7        47.600          46.900          43.000          42.100
R22  19759978.336 9  19759977.656 8  19759978.586 8  19759979.582 8      -436.551 9      -436.438 8      -339.438 8      -339.452 8 105480151.902 9 105480159.907 8  82040133.243 8  82040154.253 8        54.100          52.100          52.100          51.800
R23  21623327.859 7  21623326.602 7                                      2662.266 7      2662.334 7                                 115670151.871 7 115670462.869 7                                        45.800          44.300
S23  38480916.094 7  38480900.281 7         3.766 7         2.861 7 202219740.129 7 151006041.634 7        43.700          42.600
S26  40239181.859 5                       -58.984 5                 211458158.671 5                        32.400
S27  39841495.141 5  39841485.492 6        14.125 5        10.528 6 209368466.739 5 156346592.428 6        31.800          38.100
S36  37805834.609 7  37805817.801 7         -.895 7         -.780 7 198672172.329 7 148358284.830 7        46.300          45.900
S48  67108863.984 6                       -39.656 6                 400750188.802 6                        38.200
> 2023 01 01 00 00  8.0000000  0 52
C05                  39893223.523 5                  39893212.785 6                  39893215.438 6                        -7.172 5                        -5.918 6                        -5.624 6                 207734474.093 5                 168801252.784 6                 160633454.315 6                        35.900                          37.700                          39.300
C06                  40999134.289 5                  40999121.523 5                  40999126.188 6                      1698.680 5                      1380.546 5                      1313.742 6                 213493251.812 5                 173480707.579 5                 165086492.127 6                        32.800                          34.900                          36.700
C09                  41543135.500 5                  41543122.867 5                  41543129.434 5                      1855.902 5                      1508.011 5                      1435.051 5                 216326008.022 5                 175782552.525 5                 167276967.263 5                        35.000                          33.800                          33.300
C11                  26352804.906 5                  26352794.230 6                  26352800.172 6                     -2665.129 5                     -2165.471 6                     -2060.690 6                 137226262.660 5                 111507652.704 6                 106112175.437 6                        35.700                          38.100                          40.600
C14                  22618062.164 8                  22618049.031 8                  22618054.910 8                      -629.414 8                      -511.259 8                      -486.519 8                 117778279.434 8                  95704476.635 8                  91073640.599 8                        49.000                          51.000                          51.700
C16                  41042913.445 5                  41042904.605 5                  41042911.402 5                      1542.082 5                      1253.138 5                      1192.502 5                 213721227.740 5                 173665966.027 5                 165262797.288 5                        34.900                          32.800                          35.400
C27  23998300.906 7  23998301.789 7  23998297.922 7  23998292.301 7  23998295.746 6                      2466.768 7      2444.277 7      1842.067 7      1986.227 7      1890.118 6                 126111918.513 7 124965467.067 7  94174498.464 7 101544640.910 7  96631206.249 6                        45.100          45.800          46.700          45.800          40.600
C28  21633353.574 8  21633355.086 8  21633351.324 8  21633345.695 8  21633349.359 7                       366.605 8       363.148 8       273.751 8       295.179 8       280.895 7                 113684068.885 8 112650592.187 8  84893968.432 8  91537811.483 8  87108575.692 7                        51.900          52.600          52.800          52.000          47.300
C33  22558623.773 8  22558624.945 8  22558646.434 8  22558627.863 8  22558643.996 7                      1114.618 8      1104.281 8       832.324 8       897.471 8       854.041 7                 118546486.682 8 117468813.027 8  88525110.289 8  95453096.073 8  90834450.734 7                        52.600          53.400          53.400          51.600          47.300
C36  27304342.672 5  27304343.367 5  27304346.789 6  27304339.398 5  27304344.879 4                      1020.411 5      1011.035 5       762.024 6       821.712 5       781.960 4                 143485274.468 5 142180879.309 5 107148117.306 6 115533596.834 5 109943274.941 4                        33.700          32.900          36.500          34.400          28.200
C37  26488024.148 6  26488024.977 6  26488026.309 7  26488019.922 6  26488023.840 5                     -2697.639 6     -2673.094 6     -2014.487 7     -2172.131 6     -2067.029 5                 139195482.823 6 137930071.782 6 103944681.550 7 112079463.905 6 106656273.882 5                        37.900          38.200          42.000          39.500          35.500
C39  40701910.422 6  40701911.359 6  40701905.301 6  40701898.895 6  40701902.996 5                      1298.057 6      1286.238 6       969.331 6      1045.155 6       994.585 5                 213889974.084 6 211945528.338 6 159723032.833 6 172223059.746 6 163889700.625 5                        38.700          38.200          40.900          39.000          33.900
C41  24675025.480 7  24675026.234 7  24675033.219 7  24675022.934 7  24675030.953 6                      3325.443 7      3295.203 7      2483.276 7      2677.629 7      2548.064 6                 129668178.925 7 128489387.296 7  96830180.258 7 104408157.397 7  99356170.992 6                        45.500          46.000          46.300          44.000          40.400
C42  24382662.172 7  24382662.570 7  24382669.629 8  24382661.547 7  24382667.250 6                     -2027.536 7     -2009.227 7     -1514.069 8     -1632.546 7     -1553.554 6                 128131804.250 7 126966987.713 7  95682892.725 8 103171093.166 7  98178941.934 6                        46.400          44.500          48.200          46.500          41.300
C43  23833073.582 7  23833075.227 7  23833072.848 8  23833065.559 7  23833069.801 6                     -2276.408 7     -2255.785 7     -1699.912 8     -1832.943 7     -1744.252 6                 125243848.819 7 124105291.768 7  93526356.912 8 100845759.579 7  95966043.446 6                        47.700          47.300          48.200          46.300          41.300
C46  25776100.203 6  25776099.625 6  25776088.949 7  25776084.297 6  25776086.258 6                     -1077.371 6     -1067.840 6      -804.543 7      -867.521 6      -825.548 6                 135454299.958 6 134222902.696 6 101150932.343 7 109067042.821 6 103789610.050 6                        41.700          40.600          44.700          39.600          37.700
E04  28114639.102 6  28114641.746 6  28114634.043 7  28114639.375 6  28114641.621 7      3018.969 6      2254.494 6      2450.582 7      2313.338 6      2283.924 7 147743497.096 6 110327980.276 6 119921674.721 7 113206080.591 6 111767043.718 7        37.400          40.100          43.900          40.700          44.400
E10  24095802.570 8  24095804.410 8  24095797.480 9  24095801.945 8  24095804.223 9       942.082 8       703.533 8       764.709 9       721.888 8       712.707 9 126624353.944 8  94557189.931 8 102779512.488 9  97023885.594 8  95790543.559 9        51.700          52.400          56.400          52.100          55.600
E11  25547372.531 7  25547371.617 7  25547363.598 7  25547369.145 7  25547371.395 7      1821.340 7      1360.116 7      1478.380 7      1395.599 7      1377.865 7 134252363.046 7 100253382.552 7 108971035.327 7 102868670.326 7 101561053.237 7        42.800          43.600          47.100          42.500          46.300
E12  23576024.461 8  23576023.402 8  23576014.750 9  23576021.090 8  23576023.234 9      -137.914 8      -102.986 8      -111.950 9      -105.680 8      -104.342 9 123892872.407 8  92517417.596 8 100562369.078 9  94930904.857 8  93724167.028 9        48.100          50.900          54.300          51.300          54.900
E19  26836242.430 7  26836243.898 7  26836236.039 7  26836241.418 7  26836243.719 7      1992.234 7      1487.755 7      1617.152 7      1526.592 7      1507.177 7 141025413.824 7 105311190.217 7 114468654.202 7 108058429.901 7 106684815.367 7        42.400          42.300          44.300          42.400          47.200
E24  25594806.461 8  25594807.699 8  25594800.203 8  25594804.750 8  25594807.328 8     -2123.152 8     -1585.333 8     -1723.208 8     -1626.689 8     -1606.017 8 134501627.451 8 100439530.235 8 109173369.442 8 103059678.070 8 101749612.954 8        48.000          48.700          51.400          48.300          52.100
E25  26105049.063 7  26105051.344 7  26105041.227 8  26105048.531 7  26105051.012 8       575.578 7       429.922 7       467.311 8       441.155 7       435.531 8 137182952.803 7 102441822.560 7 111349767.984 8 105114208.467 7 103778021.312 8        46.000          46.600          48.700          46.300          50.300
E31  27806494.289 6  27806498.188 6  27806487.000 7  27806495.875 6  27806497.984 7     -3154.695 6     -2355.692 6     -2560.564 7     -2417.162 6     -2386.425 7 146124165.570 6 109118738.101 6 118607264.863 7 111965301.539 6 110542025.107 7        40.200          40.800          42.300          41.900          45.600
E33  26032510.492 7  26032511.453 7  26032504.480 8  26032509.199 7  26032511.535 8     -1924.992 7     -1437.460 7     -1562.464 8     -1474.948 7     -1456.208 8 136802026.040 7 102157512.429 7 111040686.220 8 104822460.411 7 103489992.217 8        45.200          46.200          49.300          47.000          50.800
G01  21793870.867 7                  21793878.250 5  21793878.090 7  21793874.324 8      2376.629 7                      1851.987 5      1851.985 7      1774.811 8 114527549.924 7                  89242304.282 5  89242307.287 7  85523863.470 8        44.000                          35.800          47.100          51.300
G03  24493012.633 6                  24493019.398 4  24493019.527 7  24493017.227 7      3808.172 6                      2967.421 4      2967.435 7      2843.771 7 128711519.098 6                 100294830.049 4 100294838.059 7  96115876.475 7        39.600                          25.300          42.100          45.200
G08  20369531.766 8                  20369538.297 9  20369538.816 8  20369534.676 9      -617.098 8                      -480.702 9      -480.702 8      -460.670 9 107042558.998 8                  83409886.014 9  83409886.012 8  79934459.916 9        51.300                          55.600          53.000          55.700
G10  22569660.641 7                  22569666.898 7  22569666.328 7  22569662.285 8     -2647.844 7                     -2063.199 7     -2063.180 7     -1977.233 8 118604593.858 7                  92419344.124 7  92419290.127 7  88568511.171 8        46.100                          46.800          46.200          49.200
G14  24108701.961 6  24108700.242 7  24108706.055 4  24108706.230 6  24108707.598 7      2325.086 6      2325.181 7      1811.842 4      1811.853 6      1736.329 7 126692085.561 6 126692094.562 7  98721123.218 4  98721129.207 6  94607747.134 7        38.800          42.000          24.600          41.900          45.600
G16  25380392.945 5                  25380396.996 2                                     -3748.176 5                     -2920.751 2                                 133374830.935 5                 103928495.702 2                                        34.300                          16.300
G21  20978460.836 8                  20978464.477 7                                       634.488 8                       494.453 7                                 110242576.506 8                  85903334.893 7                                        50.500                          43.000
G22  23790139.531 6                  23790143.832 3                                      2624.895 6                      2045.395 3                                 125018173.177 6                  97416686.723 3                                        39.900                          21.300
G23  25366084.031 5  25366082.320 6  25366087.754 2  25366088.117 6  25366089.578 6     -3578.113 5     -3578.653 6     -2788.445 2     -2788.550 6     -2672.351 6 133299794.356 5 133299827.444 6 103869950.370 2 103870073.453 6  99542219.846 6        33.400          36.700          17.800          36.400          41.800
G27  21727918.633 8                  21727925.246 8  21727925.137 8  21727922.332 8     -2637.047 8                     -2054.747 8     -2054.746 8     -1969.141 8 114180987.615 8                  88972263.991 8  88972262.988 8  85265077.491 8        48.200                          51.500          48.600          52.500
G32  23190477.328 7                  23190483.688 7  23190483.914 7  23190480.695 7      1470.852 7                      1146.229 7      1146.237 7      1098.458 7 121866777.973 7                  94961180.380 7  94961183.372 7  91004426.487 7        43.800                          43.700          43.700          46.700
I06  38539140.063 6        57.984 6 151235941.859 6        37.800
I09  37769740.578 6       179.480 6 148216634.536 6        39.400
R06  21338045.602 6  21338042.984 6                                     -2310.813 6     -2310.530 6                                 113863936.612 6 113863905.607 6                                        38.400          36.900
R07  20122799.406 9  20122798.773 8  20122803.031 8  20122802.344 8      1720.832 9      1721.139 8      1338.658 8      1338.659 8 107718981.960 9 107719011.971 8  83781509.255 8  83781451.265 8        54.100          51.500          50.100          49.600
R08  22420636.750 7  22420636.445 6  22420638.855 7  22420638.902 7      4332.652 7      4332.718 6      3369.902 7      3369.894 7 120061558.312 7 120061573.305 6  93381253.012 7  93381278.034 7        42.900          41.400          42.400          42.300
R12  23156832.492 7  23156831.863 7  23156834.848 6  23156836.414 6     -3823.078 7     -3823.062 7     -2973.489 6     -2973.501 6 123699620.651 7 123699632.666 7  96210823.570 6  96210834.585 6        42.500          42.300          38.600          38.100
R13  22067470.695 5  22067467.641 5  22067471.992 6  22067471.824 6     -1618.996 5     -1618.817 5     -1259.123 6     -1259.116 6 117839075.667 5 117839053.626 5  91652601.412 6  91652604.413 6        34.400          33.200          37.600          39.600
R14  23581742.617 6  23581740.426 6  23581745.672 6  23581744.559 6      2035.926 6      2036.192 6      1583.718 6      1583.714 6 125703912.182 6 125704158.180 6  97769755.288 6  97769762.291 6        40.900          39.700          39.900          39.600
R21  22100805.000 7  22100803.488 7  22100806.633 7  22100807.324 6     -2562.398 7     -2562.319 7     -1992.907 7     -1992.920 6 118265980.211 7 118265982.218 7  91984701.525 7  91984726.538 6        47.300          46.800          43.000          41.600
R22  19760060.508 9  19760059.547 8  19760060.898 8  19760061.449 8      -436.891 9      -436.778 8      -339.708 8      -339.715 8 105480588.689 9 105480596.686 8  82040472.950 8  82040493.967 8        54.300          52.300          52.200          52.000
R23  21622830.313 7  21622828.832 7                                      2662.172 7      2662.225 7                                 115667489.655 7 115667800.644 7                                        45.800          44.500
S23  38480915.281 7  38480899.539 7         3.805 7         2.840 7 202219736.336 7 151006038.794 7        43.900          42.600
S26  40239193.453 5                       -58.801 5                 211458217.652 5                        32.600
S27  39841493.797 5  39841482.707 6        14.148 5        10.557 6 209368452.614 5 156346581.871 6        32.200          37.800
S36  37805834.438 7  37805818.004 7         -.902 7         -.664 7 198672173.244 7 148358285.494 7        46.200          46.100
S48  67108863.984 6                       -39.637 6                 400750228.464 6                        38.700
> 2023 01 01 00 00  9.0000000  0 52
C05                  39893224.758 5                  39893214.094 6                  39893216.859 6                        -7.363 5                        -5.952 6                        -5.665 6                 207734481.423 5                 168801258.735 6                 160633459.980 6                        35.700                          37.300                          39.400
C06                  40998808.016 5                  40998795.410 5                  40998799.941 6                      1698.719 5                      1380.429 5                      1313.636 6                 213491552.992 5                 173479327.151 5                 165085178.491 6                        32.900                          34.600                          37.000
C09                  41542779.414 5                  41542766.488 5                  41542773.316 5                      1855.637 5                      1507.876 5                      1434.917 5                 216324152.356 5                 175781044.649 5                 167275532.346 5                        34.700                          33.600                          34.200
C11                  26353316.820 5                  26353306.055 6                  26353311.973 6                     -2664.934 5                     -2165.511 6                     -2060.722 6                 137228927.635 5                 111509818.215 6                 106114236.159 6                        35.700                          37.800                          40.900
C14                  22618183.117 8                  22618169.984 8                  22618175.551 8                      -629.902 8                      -511.720 8                      -486.965 8                 117778909.191 8                  95704988.355 8                  91074127.564 8                        48.900                          50.700                          51.400
C16                  41042617.633 5                  41042608.434 5                  41042615.223 5                      1541.848 5                      1252.973 5                      1192.343 5                 213719685.771 5                 173664713.055 5                 165261604.944 5                        35.000                          32.500                          35.500
C27  23997831.441 7  23997832.547 7  23997828.547 7  23997822.883 7  23997826.359 6                      2466.665 7      2444.273 7      1841.981 7      1986.133 7      1890.027 6                 126109451.848 7 124963022.846 7  94172656.483 7 101542654.778 7  96629316.222 6                        45.100          45.800          46.700          45.700          40.600
C28  21633283.816 8  21633285.219 8  21633281.625 8  21633275.930 8  21633279.621 7                       366.238 8       362.852 8       273.500 8       294.908 8       280.636 7                 113683702.647 8 112650229.268 8  84893694.932 8  91537516.575 8  87108295.057 7                        52.000          52.500          52.900          52.100          47.500
C33  22558411.805 8  22558412.977 8  22558434.426 8  22558415.938 8  22558431.973 7                      1114.007 8      1103.711 8       831.900 8       897.001 8       853.599 7                 118545372.675 8 117467709.138 8  88524278.389 8  95452199.072 8  90833597.134 7                        52.600          53.000          53.200          51.800          47.500
C36  27304148.543 5  27304149.336 5  27304152.750 6  27304145.293 5  27304150.797 4                      1019.974 5      1010.410 5       761.655 6       821.241 5       781.495 4                 143484254.495 5 142179868.666 5 107147355.651 6 115532775.594 5 109942493.446 4                        34.100          33.500          36.000          34.300          26.000
C37  26488537.395 6  26488538.063 6  26488539.660 7  26488533.375 6  26488537.191 5                     -2697.783 6     -2673.211 6     -2014.563 7     -2172.225 6     -2067.116 5                 139198180.606 6 137932745.021 6 103946696.114 7 112081636.131 6 106658340.998 5                        37.700          38.400          42.100          39.400          35.900
C39  40701663.277 6  40701664.578 6  40701658.305 6  40701651.961 6  40701655.949 5                      1297.816 6      1285.984 6       969.155 6      1045.002 6       994.433 5                 213888676.269 6 211944242.310 6 159722063.677 6 172222014.744 6 163888706.192 5                        38.500          37.900          40.900          38.800          33.800
C41  24674392.730 7  24674393.500 7  24674400.516 7  24674390.137 7  24674398.156 6                      3325.225 7      3294.934 7      2483.125 7      2677.443 7      2547.891 6                 129664853.700 7 128486092.315 7  96827697.133 7 104405479.954 7  99353623.101 6                        45.600          46.000          46.300          43.900          40.400
C42  24383047.988 7  24383048.398 7  24383055.480 8  24383047.410 7  24383053.223 6                     -2028.007 7     -2009.707 7     -1514.423 8     -1632.947 7     -1553.937 6                 128133832.257 7 126968997.301 7  95684407.148 8 103172726.113 7  98180495.871 6                        46.400          44.200          48.500          45.900          41.300
C43  23833506.793 7  23833508.266 7  23833506.109 8  23833498.805 7  23833503.023 6                     -2276.656 7     -2255.969 7     -1700.102 8     -1833.157 7     -1744.453 6                 125246125.475 7 124107547.729 7  93528057.014 8 100847592.735 7  95967787.900 6                        47.600          47.800          48.100          46.400          41.400
C46  25776305.430 6  25776304.797 6  25776294.008 7  25776289.430 6  25776291.352 6                     -1077.896 6     -1068.168 6      -804.908 7      -867.877 6      -825.881 6                 135455377.855 6 134223970.748 6 101151737.251 7 109067910.698 6 103790435.932 6                        41.700          40.500          45.100          39.600          37.400
E04  28114064.406 6  28114067.125 6  28114059.523 7  28114064.770 6  28114067.102 7      3019.195 6      2254.576 6      2450.607 7      2313.359 6      2283.962 7 147740477.942 6 110325725.700 6 119919224.114 7 113203767.231 6 111764759.756 7        37.200          40.200          43.900          40.300          44.400
E10  24095623.273 8  24095625.215 8  24095618.297 9  24095622.613 8  24095624.988 9       941.934 8       703.395 8       764.568 9       721.740 8       712.570 9 126623412.003 8  94556486.536 8 102778747.921 9  97023163.854 8  95789830.990 9        51.600          52.400          56.400          51.900          55.400
E11  25547026.313 7  25547024.965 7  25547017.094 7  25547022.730 7  25547024.813 7      1821.348 7      1360.003 7      1478.267 7      1395.467 7      1377.732 7 134250541.818 7 100252022.550 7 108969557.060 7 102867274.858 7 101559675.505 7        42.400          43.700          47.100          42.400          46.500
E12  23576050.602 8  23576049.633 8  23576041.070 9  23576047.332 8  23576049.527 9      -138.137 8      -103.152 8      -112.118 9      -105.833 8      -104.492 9 123893010.536 8  92517520.748 8 100562481.195 9  94931010.690 8  93724271.520 9        48.300          50.700          54.300          51.300          54.700
E19  26835863.555 7  26835864.914 7  26835856.938 7  26835862.410 7  26835864.660 7      1991.949 7      1487.484 7      1616.836 7      1526.284 7      1506.896 7 141023421.881 7 105309702.733 7 114467037.366 7 108056903.617 7 106683308.471 7        42.200          42.000          44.300          42.700          46.900
E24  25595210.523 8  25595211.766 8  25595204.211 8  25595208.738 8  25595211.379 8     -2123.445 8     -1585.600 8     -1723.476 8     -1626.980 8     -1606.286 8 134503750.773 8 100441115.835 8 109175092.918 8 103061305.050 8 101751219.239 8        48.000          48.900          51.400          48.200          52.100
E25  26104939.414 7  26104941.969 7  26104931.727 8  26104939.043 7  26104941.570 8       575.016 7       429.541 7       466.876 8       440.745 7       435.138 8 137182377.618 7 102441393.019 7 111349301.108 8 105113767.722 7 103777586.174 8        45.900          46.600          48.700          46.600          50.400
E31  27807094.750 6  27807098.465 6  27807087.289 7  27807096.152 6  27807098.293 7     -3154.609 6     -2355.719 6     -2560.562 7     -2417.173 6     -2386.468 7 146127320.181 6 109121093.820 6 118609825.425 7 111967718.711 6 110544411.575 7        40.700          41.400          42.300          41.900          46.300
E33  26032876.852 7  26032877.805 7  26032870.902 8  26032875.473 7  26032877.855 8     -1925.027 7     -1437.543 7     -1562.535 8     -1475.051 7     -1456.288 8 136803951.089 7 102158949.973 7 111042248.755 8 104823935.462 7 103491448.504 8        45.100          46.300          49.200          47.200          50.500
G01  21793418.773 7                  21793425.984 5  21793425.867 7  21793422.133 8      2376.348 7                      1851.744 5      1851.731 7      1774.576 8 114525173.528 7                  89240452.537 5  89240455.556 7  85522088.895 8        44.000                          35.600          46.700          51.300
G03  24492287.398 6                  24492294.887 4  24492295.125 7  24492292.508 7      3808.020 6                      2967.271 4      2967.299 7      2843.651 7 128707711.098 6                 100291862.777 4 100291870.761 7  96113032.823 7        40.000                          24.600          42.300          45.200
G08  20369649.203 8                  20369655.754 9  20369656.227 8  20369652.242 9      -617.629 8                      -481.145 9      -481.145 8      -461.097 9 107043176.463 8                  83410367.159 9  83410367.157 8  79934921.013 9        51.700                          55.400          53.300          55.800
G10  22570164.414 7                  22570170.930 7  22570170.348 7  22570166.234 8     -2648.281 7                     -2063.498 7     -2063.508 7     -1977.516 8 118607242.023 7                  92421407.622 7  92421353.635 7  88570488.687 8        46.600                          46.700          46.500          49.200
G14  24108259.414 6  24108257.832 7  24108263.730 4  24108263.672 6  24108265.211 7      2324.594 6      2324.653 7      1811.415 4      1811.413 6      1735.958 7 126689760.904 6 126689769.909 7  98719311.803 4  98719317.793 6  94606011.175 7        38.400          42.000          25.400          41.900          45.500
G16  25381106.289 5                  25381110.238 2                                     -3748.418 5                     -2920.781 2                                 133378579.258 5                 103931416.483 2                                        33.700                          16.900
G21  20978339.914 8                  20978343.633 7                                       634.195 8                       494.240 7                                 110241942.243 8                  85902840.653 7                                        50.700                          43.000
G22  23789639.281 6                  23789644.500 3                                      2624.555 6                      2045.245 3                                 125015548.451 6                  97414641.478 3                                        39.600                          21.700
G23  25366765.117 5  25366763.164 6  25366768.652 2  25366768.621 6  25366770.703 7     -3578.703 5     -3578.726 6     -2788.694 2     -2788.618 6     -2672.411 7 133303373.167 5 133303406.170 6 103872739.064 2 103872862.071 6  99544892.256 7        33.800          37.300          17.400          36.500          42.000
G27  21728419.969 8                  21728427.172 8  21728427.152 8  21728424.148 8     -2637.445 8                     -2055.071 8     -2055.071 8     -1969.437 8 114183624.952 8                  88974319.062 8  88974318.059 8  85267046.927 8        48.100                          51.700          48.900          52.100
G32  23190197.406 7                  23190203.887 7  23190204.078 7  23190200.891 7      1470.289 7                      1145.792 7      1145.785 7      1098.066 7 121865307.536 7                  94960034.587 7  94960037.587 7  91003328.421 7        44.300                          43.500          43.600          46.800
I06  38539126.352 6        57.977 6 151235883.837 6        38.000
I09  37769694.602 6       179.441 6 148216454.970 6        38.900
R06  21338478.055 6  21338476.391 6                                     -2311.438 6     -2311.300 6                                 113866247.862 6 113866216.907 6                                        38.400          36.900
R07  20122478.023 9  20122477.430 8  20122481.500 8  20122480.848 8      1719.980 9      1720.247 8      1337.963 8      1337.976 8 107717261.706 9 107717291.724 8  83780171.292 8  83780113.289 8        54.600          52.200          50.100          49.200
R08  22419827.289 7  22419827.691 6  22419829.313 7  22419829.723 6      4332.324 7      4332.406 6      3369.642 7      3369.666 6 120057225.886 7 120057240.899 6  93377883.370 7  93377908.368 6        43.200          41.400          42.500          41.900
R12  23157548.234 7  23157547.645 7  23157550.559 6  23157552.152 6     -3823.297 7     -3823.303 7     -2973.684 6     -2973.677 6 123703443.952 7 123703455.970 7  96213797.254 6  96213808.262 6        42.500          42.600          38.200          37.700
R13  22067773.836 5  22067770.848 5  22067775.199 6  22067775.098 6     -1619.801 5     -1619.714 5     -1259.728 6     -1259.728 6 117840695.317 5 117840673.340 5  91653861.140 6  91653864.141 6        34.600          33.800          37.600          39.600
R14  23581361.258 6  23581358.934 6  23581363.770 6  23581362.637 6      2035.328 6      2035.459 6      1583.122 6      1583.147 6 125701876.711 6 125702122.720 6  97768172.167 6  97768179.144 6        41.000          39.500          39.700          39.500
R21  22101283.664 7  22101282.324 7  22101285.891 7  22101286.367 6     -2562.660 7     -2562.605 7     -1993.133 7     -1993.132 6 118268542.813 7 118268544.824 7  91986694.658 7  91986719.671 6        47.500          46.600          43.000          41.900
R22  19760142.391 9  19760141.488 8  19760142.629 8  19760143.316 8      -437.313 9      -437.172 8      -340.031 8      -340.017 8 105481025.868 9 105481033.858 8  82040812.982 8  82040833.984 8        54.000          52.400          52.400          51.700
R23  21622331.992 7  21622331.246 7                                      2662.094 7      2662.047 7                                 115664827.572 7 115665138.597 7                                        46.100          44.300
S23  38480915.156 7  38480898.797 7         3.801 7         2.813 7 202219732.559 7 151006035.982 7        43.800          42.100
S26  40239203.031 5                       -59.262 5                 211458276.761 5                        33.000
S27  39841491.344 5  39841479.914 6        14.414 5        10.624 6 209368438.420 5 156346571.247 6        32.300          37.800
S36  37805834.781 7  37805818.203 7         -.961 7         -.681 7 198672174.184 7 148358286.175 7        46.400          46.300
S48  67108863.984 6                       -39.605 6                 400750268.163 6                        38.500
> 2023 01 01 00 00 10.0000000  0 52
C05                  39893226.438 5                  39893215.547 6                  39893218.227 6                        -7.395 5                        -5.977 6                        -5.683 6                 207734488.768 5                 168801264.712 6                 160633465.663 6                        35.700                          37.500                          39.700
C06                  40998481.578 5                  40998469.102 5                  40998473.441 6                      1698.590 5                      1380.295 5                      1313.516 6                 213489854.336 5                 173477946.856 5                 165083864.974 6                        32.400                          34.900                          36.000
C09                  41542422.984 5                  41542410.098 5                  41542416.883 5                      1855.332 5                      1507.810 5                      1434.849 5                 216322296.792 5                 175779536.839 5                 167274097.497 5                        35.400                          33.700                          34.700
C11                  26353828.797 6                  26353817.844 6                  26353823.582 6                     -2665.406 6                     -2165.654 6                     -2060.866 6                 137231592.781 6                 111511983.870 6                 106116297.025 6                        36.000                          38.300                          40.800
C14                  22618303.977 8                  22618291.043 8                  22618296.723 8                      -630.609 8                      -512.225 8                      -487.437 8                 117779539.556 8                  95705500.580 8                  91074615.001 8                        48.700                          50.900                          51.300
C16                  41042321.094 5                  41042312.281 5                  41042318.879 5                      1541.828 5                      1252.861 5                      1192.240 5                 213718143.954 5                 173663460.194 5                 165260412.704 5                        35.100                          31.600                          35.000
C27  23997361.906 7  23997362.898 7  23997359.180 7  23997353.559 7  23997357.012 6                      2466.486 7      2443.957 7      1841.870 7      1986.010 7      1889.913 6                 126106985.363 7 124960578.776 7  94170814.614 7 101540668.768 7  96627426.309 6                        45.100          45.800          46.800          45.600          40.500
C28  21633214.230 8  21633215.617 8  21633212.063 8  21633206.379 8  21633210.000 7                       365.925 8       362.410 8       273.249 8       294.635 8       280.384 7                 113683336.722 8 112649866.675 8  84893421.683 8  91537221.941 8  87108014.673 7                        51.900          52.300          52.600          52.300          47.400
C33  22558199.977 8  22558201.070 8  22558222.531 8  22558203.996 8  22558220.125 7                      1113.431 8      1103.055 8       831.454 8       896.529 8       853.149 7                 118544259.243 8 117466605.830 8  88523446.935 8  95451302.543 8  90832743.985 7                        52.700          52.900          53.400          52.000          47.300
C36  27303954.754 5  27303955.555 5  27303958.727 5  27303951.223 5  27303956.828 4                      1019.430 5      1009.645 5       761.284 5       820.800 5       781.077 4                 143483235.064 5 142178858.545 5 107146594.367 5 115531954.794 5 109941712.369 4                        34.300          33.000          35.800          34.800          27.100
C37  26489050.789 6  26489051.711 6  26489053.016 7  26489046.754 6  26489050.629 5                     -2697.858 6     -2673.480 6     -2014.625 7     -2172.313 6     -2067.197 5                 139200878.464 6 137935418.375 6 103948710.739 7 112083808.443 6 106660408.195 5                        37.900          38.600          42.300          39.500          35.700
C39  40701416.148 6  40701417.523 6  40701411.336 6  40701405.098 6  40701409.008 5                      1297.633 6      1285.820 6       969.000 6      1044.863 6       994.312 5                 213887378.636 6 211942956.462 6 159721094.678 6 172220969.881 6 163887711.880 5                        38.300          37.600          40.900          38.900          34.000
C41  24673759.914 7  24673760.734 7  24673767.723 7  24673757.395 7  24673765.391 6                      3325.006 7      3294.656 7      2482.964 7      2677.275 7      2547.729 6                 129661528.694 7 128482797.529 7  96825214.169 7 104402802.679 7  99351075.373 6                        45.600          46.000          46.300          44.000          40.500
C42  24383433.996 7  24383434.406 7  24383441.457 8  24383433.469 7  24383439.219 6                     -2028.480 7     -2010.266 7     -1514.771 8     -1633.324 7     -1554.288 6                 128135860.738 7 126971007.338 7  95685921.918 8 103174359.438 7  98182050.159 6                        46.400          44.600          48.100          46.400          41.400
C43  23833940.082 7  23833941.695 8  23833939.422 7  23833932.109 7  23833936.316 6                     -2276.896 7     -2256.320 8     -1700.281 7     -1833.346 7     -1744.636 6                 125248402.371 7 124109803.929 8  93529757.294 7 100849426.081 7  95969532.536 6                        47.700          48.000          47.800          46.000          41.100
C46  25776510.555 7  25776509.992 6  25776499.320 7  25776494.563 6  25776496.570 6                     -1078.356 7     -1068.727 6      -805.298 7      -868.306 6      -826.289 6                 135456456.210 7 134225039.330 6 101152542.549 7 109068779.004 6 103791262.220 6                        42.000          40.600          45.000          40.400          37.500
E04  28113490.227 6  28113492.652 6  28113484.902 7  28113490.117 6  28113492.555 7      3019.293 6      2254.571 6      2450.650 7      2313.386 6      2283.971 7 147737458.728 6 110323471.129 6 119916773.465 7 113201453.845 6 111762475.785 7        37.800          40.100          43.900          40.400          44.400
E10  24095444.211 8  24095445.926 8  24095438.945 9  24095443.477 8  24095445.781 9       941.641 8       703.258 8       764.408 9       721.602 8       712.428 9 126622470.252 8  94555783.278 8 102777983.513 9  97022442.251 8  95789118.562 9        51.700          52.200          56.400          52.000          55.300
E11  25546679.469 7  25546678.426 7  25546670.637 7  25546676.172 7  25546678.277 7      1821.008 7      1359.889 7      1478.156 7      1395.392 7      1377.649 7 134248720.725 7 100250662.660 7 108968078.904 7 102865879.466 7 101558297.857 7        42.500          43.600          47.100          42.400          46.100
E12  23576076.945 8  23576076.027 8  23576067.281 9  23576073.715 8  23576075.844 9      -138.465 8      -103.302 8      -112.291 9      -106.002 8      -104.647 9 123893148.871 8  92517624.049 8 100562593.486 9  94931116.692 8  93724376.167 9        48.300          50.500          54.300          51.500          54.500
E19  26835484.648 6  26835485.809 7  26835477.828 7  26835483.336 7  26835485.672 7      1991.406 6      1487.249 7      1616.545 7      1526.022 7      1506.636 7 141021430.292 6 105308215.484 7 114465420.821 7 108055377.595 7 106681801.835 7        41.900          42.000          44.300          42.800          46.700
E24  25595614.555 8  25595615.914 8  25595608.340 8  25595612.742 8  25595615.520 8     -2123.941 8     -1585.920 8     -1723.812 8     -1627.281 8     -1606.596 8 134505874.513 8 100442701.755 8 109176816.730 8 103062932.330 8 101752825.836 8        48.000          48.600          51.400          48.500          52.100
E25  26104829.648 7  26104832.512 7  26104822.469 8  26104829.625 7  26104832.203 8       574.465 7       429.135 7       466.486 8       440.340 7       434.749 8 137181802.908 7 102440963.884 7 111348834.621 8 105113327.382 7 103777151.424 8        45.700          46.800          48.700          46.600          50.700
E31  27807695.016 6  27807698.754 6  27807687.684 7  27807696.516 7  27807698.586 7     -3154.566 6     -2355.727 6     -2560.571 7     -2417.159 7     -2386.432 7 146130474.805 6 109123449.547 6 118612385.996 7 111970135.871 7 110546798.007 7        40.800          41.400          42.300          42.100          45.900
E33  26033243.031 7  26033244.203 7  26033237.219 8  26033241.832 7  26033244.195 8     -1925.266 7     -1437.619 7     -1562.638 8     -1475.121 7     -1456.375 8 136805876.254 7 102160387.592 7 111043811.393 8 104825410.583 7 103492904.879 8        45.500          46.300          49.200          47.000          50.800
G01  21792966.391 7                  21792973.797 5  21792973.730 7  21792969.977 8      2375.914 7                      1851.500 5      1851.506 7      1774.368 8 114522797.429 7                  89238601.037 5  89238604.050 7  85520314.527 8        44.600                          35.800          46.600          51.000
G03  24491562.953 6                  24491570.297 4  24491570.699 7  24491567.910 7      3807.695 6                      2967.154 4      2967.135 7      2843.522 7 128703903.250 6                 100288895.623 4 100288903.626 7  96110189.301 7        40.300                          26.100          42.300          45.200
G08  20369766.875 8                  20369773.363 9  20369773.867 8  20369769.805 9      -618.281 8                      -481.561 9      -481.562 8      -461.492 9 107043794.469 8                  83410848.720 9  83410848.719 8  79935382.505 9        51.200                          55.400          52.700          55.900
G10  22570668.375 7                  22570674.816 7  22570674.438 7  22570670.242 8     -2648.719 7                     -2063.776 7     -2063.773 7     -1977.784 8 118609890.529 7                  92423471.399 7  92423417.409 7  88572466.471 8        46.400                          46.600          46.300          49.500
G14  24107817.375 6  24107815.457 7  24107821.473 3  24107821.516 7  24107822.930 7      2323.875 6      2324.131 7      1811.020 3      1811.020 7      1735.551 7 126687436.784 6 126687445.777 7  98717500.783 3  98717506.773 7  94604275.624 7        38.700          42.100          23.800          42.300          45.500
G16  25381819.500 5                  25381823.414 2                                     -3748.387 5                     -2920.705 2                                 133382327.530 5                 103934337.188 2                                        33.700                          16.300
G21  20978219.258 8                  20978223.027 7                                       633.801 8                       494.003 7                                 110241308.261 8                  85902346.650 7                                        50.700                          42.800
G22  23789140.359 6                  23789145.113 3                                      2624.281 6                      2045.056 3                                 125012923.973 6                  97412596.422 3                                        40.100                          21.800
G23  25367446.555 5  25367444.535 6  25367449.527 2  25367449.918 6  25367451.582 6     -3578.633 5     -3578.771 6     -2788.680 2     -2788.674 6     -2672.487 6 133306951.956 5 133306984.940 6 103875527.745 2 103875650.745 6  99547564.744 6        35.200          37.900          17.800          36.800          41.400
G27  21728922.336 8                  21728929.016 8  21728929.207 8  21728926.082 8     -2637.953 8                     -2055.375 8     -2055.367 8     -1969.739 8 114186262.682 8                  88976374.437 8  88976373.426 8  85269016.666 8        48.100                          51.500          48.900          52.000
G32  23189917.734 7                  23189924.113 7  23189924.262 7  23189921.148 7      1469.633 7                      1145.377 7      1145.374 7      1097.660 7 121863837.627 7                  94958889.211 7  94958892.214 7  91002230.761 7        43.900                          43.700          43.800          46.700
I06  38539110.688 6        57.949 6 151235825.829 6        37.800
I09  37769649.227 6       179.434 6 148216275.437 6        38.600
R06  21338911.391 6  21338909.680 6                                     -2312.477 6     -2312.097 6                                 113868559.996 6 113868529.004 6                                        38.600          36.700
R07  20122157.008 9  20122156.191 8  20122159.824 8  20122159.781 8      1718.977 9      1719.355 8      1337.291 8      1337.271 8 107715542.357 9 107715572.369 8  83778834.002 8  83778776.018 8        54.300          52.200          50.000          49.300
R08  22419018.969 7  22419018.465 6  22419020.914 7  22419020.680 7      4331.914 7      4332.099 6      3369.409 7      3369.405 7 120052893.794 7 120052908.800 6  93374513.961 7  93374538.963 7        43.200          41.600          42.200          42.300
R12  23158264.188 7  23158263.219 7  23158266.715 6  23158267.898 6     -3823.699 7     -3823.526 7     -2973.877 6     -2973.867 6 123707267.490 7 123707279.496 7  96216771.131 6  96216782.128 6        42.300          42.300          38.100          38.400
R13  22068077.281 5  22068074.074 5  22068079.535 6  22068078.633 6     -1620.820 5     -1620.476 5     -1260.392 6     -1260.403 6 117842315.843 5 117842293.816 5  91655121.532 6  91655124.544 6        34.300          33.600          37.300          39.600
R14  23580979.531 6  23580977.223 6  23580981.078 6  23580980.918 6      2034.402 6      2034.721 6      1582.548 6      1582.537 6 125699842.016 6 125700088.000 6  97766589.619 6  97766596.607 6        41.100          39.500          39.800          39.100
R21  22101762.453 7  22101761.316 7  22101764.172 7  22101765.273 7     -2563.078 7     -2562.879 7     -1993.372 7     -1993.349 7 118271105.694 7 118271107.703 7  91988688.030 7  91988713.020 7        47.300          46.300          43.000          42.200
R22  19760224.391 8  19760223.223 8  19760224.707 8  19760225.270 8      -437.773 8      -437.563 8      -340.329 8      -340.329 8 105481463.423 8 105481471.421 8  82041153.310 8  82041174.313 8        53.900          52.600          52.200          52.000
R23  21621834.602 7  21621833.637 7                                      2661.820 7      2661.924 7                                 115662165.664 7 115662476.674 7                                        46.000          44.800
S23  38480914.016 7  38480898.094 7         3.668 7         2.791 7 202219728.835 7 151006033.190 7        44.100          42.500
S26  40239210.828 5                       -59.363 5                 211458335.791 5                        32.300
S27  39841488.391 5  39841477.195 6        14.141 5        10.556 6 209368424.323 5 156346560.691 6        31.600          38.400
S36  37805834.797 7  37805818.418 7        -1.051 7         -.695 7 198672175.185 7 148358286.870 7        46.000          46.000
S48  67108863.984 6                       -39.754 6                 400750307.909 6                        38.500