     3.05           OBSERVATION DATA    M                   RINEX VERSION / TYPE
BNC 2.12.17         rtproc              20211231 235944 UTC PGM / RUN BY / DATE
PORTIONS OF THIS HEADER GENERATED BY BKG AT 31-Dec-21 22:51 COMMENT
FROM SITELOG ABMF00GLP_20211124.log                         COMMENT
OBS TYPES from www.igs-ip.net/ABMF00GLP0                    COMMENT
RTCM_3 www.igs-ip.net/ABMF00GLP0                            COMMENT
ABMF00GLP                                                   MARKER NAME
97103M001                                                   MARKER NUMBER
                                                            MARKER TYPE
                    IGN-SGN                                 OBSERVER / AGENCY
3013312             SEPT POLARX5        5.3.2               REC # / TYPE / VERS
1441112501          TRM57971.00     NONE                    ANT # / TYPE
  2919786.0000 -5383745.0000  1774604.0000                  APPROX POSITION XYZ
        0.0000        0.0000        0.0000                  ANTENNA: DELTA H/E/N
C    6 C2I L2I S2I C6I L6I S6I                              SYS / # / OBS TYPES
E   15 C1C L1C S1C C6C L6C S6C C7Q L7Q S7Q C8Q L8Q S8Q C5Q  SYS / # / OBS TYPES
       L5Q S5Q                                              SYS / # / OBS TYPES
G   15 C1C L1C S1C C1W L1W S1W C2W L2W S2W C2L L2L S2L C5Q  SYS / # / OBS TYPES
       L5Q S5Q                                              SYS / # / OBS TYPES
R   12 C1C L1C S1C C1P L1P S1P C2C L2C S2C C2P L2P S2P      SYS / # / OBS TYPES
S    6 C1C L1C S1C C5Q L5Q S5Q                              SYS / # / OBS TYPES
  2022     1     1     0     0    0.0000000     GPS         TIME OF FIRST OBS
C L2I  0.00000                                              SYS / PHASE SHIFT
C L6I  0.00000                                              SYS / PHASE SHIFT
E L1C  0.00000                                              SYS / PHASE SHIFT
E L6C  0.00000                                              SYS / PHASE SHIFT
E L7Q  0.00000                                              SYS / PHASE SHIFT
E L8Q  0.00000                                              SYS / PHASE SHIFT
E L5Q  0.00000                                              SYS / PHASE SHIFT
G L1C  0.00000                                              SYS / PHASE SHIFT
G L1W  0.00000                                              SYS / PHASE SHIFT
G L2W  0.00000                                              SYS / PHASE SHIFT
G L2L  0.00000                                              SYS / PHASE SHIFT
G L5Q  0.00000                                              SYS / PHASE SHIFT
R L1C  0.00000                                              SYS / PHASE SHIFT
R L1P  0.00000                                              SYS / PHASE SHIFT
R L2C  0.00000                                              SYS / PHASE SHIFT
R L2P  0.00000                                              SYS / PHASE SHIFT
S L1C  0.00000                                              SYS / PHASE SHIFT
S L5Q  0.00000                                              SYS / PHASE SHIFT
                                                            GLONASS COD/PHS/BIS
 24 R01  1 R02 -4 R03  5 R04  6 R05  1 R06 -4 R07  5 R08  6 GLONASS SLOT / FRQ #
    R09 -2 R10 -7 R11  0 R12 -1 R13 -2 R14 -7 R15  0 R16 -1 GLONASS SLOT / FRQ #
    R17  4 R18 -3 R19  3 R20  2 R21  4 R22 -3 R23  3 R24  2 GLONASS SLOT / FRQ #
                                                            END OF HEADER
> 2022 01 01 00 00  0.0000000  0 34
G01  19848293.836   104303680.620          50.000    19848293.639   104303680.620          44.000    19848294.604    81275705.481          44.000    19848294.640    81275695.489          49.000    19848293.317    77889228.161          54.000
G03  23849131.160                          37.000                                                                                                    23849137.843    97658272.185          36.000    23849140.720    93589073.312          44.000
G04  24817173.632                          36.000                                                                                                    24817182.745   101622307.312          39.000    24817188.517    97387810.093          34.000
G07  20485812.061   107653711.255          49.000    20485811.703   107653711.255          42.000    20485808.826    83886018.890          42.000    20485809.487    83886026.898          46.000
G08  23101087.757   121397188.004          42.000    23101087.131   121397188.004          40.000    23101087.274    94595307.647          40.000    23101089.008    94595299.644          41.000    23101087.399    90653834.551          47.000
G09  24271357.643   127546843.099          40.000    24271357.232   127546843.099          25.000    24271359.966    99387163.736          25.000    24271359.805    99387165.744          39.000    24271360.377    95246037.484          43.000
G14  24675895.079   129672710.852          40.000    24675895.043   129672710.852          21.000    24675893.667   101043687.595          21.000    24675894.203   101043677.562          38.000    24675897.241    96833544.983          40.000
G16  24810770.893   130381545.044          37.000    24810770.107   130381545.044          19.000    24810773.413   101596038.555          19.000
G17  23599691.840   124017301.409          41.000    23599691.500   124017301.409          28.000    23599690.071    96636883.377          28.000    23599690.500    96636883.389          38.000
G21  21025714.279   110491066.571          48.000    21025713.153   110491066.571          40.000    21025710.759    86097009.970          40.000
G27  25396873.238   133461472.035          29.000    25396872.523   133461472.035          23.000    25396872.470   103995958.351          23.000    25396874.525   103995960.350          36.000    25396873.506    99662781.898          44.000
G30  22334299.998   117367572.644          46.000    22334299.337   117367572.644          36.000    22334300.624    91455261.417          36.000    22334300.374    91455276.417          45.000    22334299.838    87644643.252          49.000
R13  22425123.060   119748933.705          33.000    22425122.613   119748925.707          32.000    22425128.796    93138088.988          37.000    22425129.904    93138095.992          40.000
R14  19512652.722   104013478.987          51.000    19512652.830   104013472.992          50.000    19512656.636    80899434.399          50.000    19512656.922    80899436.409          51.000
R15  21192281.985   113245158.413          48.000    21192282.735   113245158.422          48.000    21192285.880    88079598.798          48.000    21192286.077    88079595.802          48.000
R17  19591268.168   104837062.844          50.000    19591268.311   104837029.855          50.000    19591271.152    81540030.086          50.000    19591271.277    81540030.098          50.000
R18  20743027.587   110727858.489          49.000    20743027.747   110727856.486          48.000    20743031.750    86121758.809          48.000    20743032.000    86121760.814          48.000
E01  25077790.223   131784786.878          46.000    25077792.671   106968226.267          51.000    25077791.098   100978012.901          49.000    25077791.777    99694401.230          51.000    25077792.046    98410785.411          48.000
E04  27923461.006   146738720.805          39.000    27923466.081   119106103.635          40.000    27923466.635   112436157.537          40.000    27923467.779   111006890.759          42.000    27923468.440   109577616.836          39.000
E09  26452776.499   139010305.609          37.000    26452778.858   112833058.188          42.000    26452777.946   106514417.093          39.000    26452779.215   105160418.119          43.000    26452779.823   103806426.999          41.000
E11  26238057.334   137881962.166          35.000    26238058.584   111917195.101          39.000    26238058.799   105649841.689          37.000    26238059.746   104306842.226          40.000    26238060.050   102963837.611          37.000
E12  22251472.217   116932456.955          44.000    22251470.305    94912777.743          51.000    22251470.412    89597685.913          49.000    22251470.984    88458741.629          51.000    22251470.841    87319790.197          48.000
E21  28700699.659   150823196.423          23.000    28700709.970   122421488.728          44.000    28700711.167   115565882.250          42.000    28700712.454   114096831.908          45.000    28700713.758   112627766.422          42.000
E24  27663443.939   145372410.691          40.000    27663445.011   117997099.500          42.000    27663443.403   111389267.097          42.000    27663443.850   109973307.762          44.000    27663443.636   108557340.288          39.000
E26  28015032.548   147219980.945          34.000    28015034.263   119496745.969          40.000    28015031.494   112804916.395          39.000    28015032.512   111370956.847          42.000    28015032.584   109936998.166          38.000
E31  24481384.403   128650639.397          47.000    24481383.920   104424252.121          52.000    24481385.350    98576517.029          50.000    24481386.011    97323429.629          53.000    24481386.190    96070342.086          49.000
E33  24143197.847   126873548.558          48.000    24143198.991   102981858.055          53.000    24143197.204    97214897.265          51.000    24143197.579    95979131.173          54.000    24143197.776    94743351.936          50.000
C19  26002862.591   135403719.945          37.000    26002864.556   110026633.507          39.000
C20  27032823.586   140767008.042          38.000    27032827.035   114384725.806          36.000
C26  26098886.038   135903752.266          39.000    26098889.416   110432951.929          40.000
C29  22293797.999   116089823.152          50.000    22293799.304    94332569.491          53.000
C30  25746752.728   134070258.487          42.000    25746756.606   108943165.184          41.000
C35  22896215.870   119226741.787          50.000    22896217.907    96881569.296          51.000
C36  22457929.210   116944402.061          50.000    22457937.859    95026978.495          53.000
> 2022 01 01 00 00  1.0000000  0 34
G01  19848195.306   104303162.511          50.000    19848195.109   104303162.511          44.000    19848196.003    81275301.757          44.000    19848196.021    81275291.769          49.000    19848194.734    77888841.266          54.000
G03  23848693.458   125325742.304          34.000                                                                                                    23848701.249    97656484.027          39.000    23848702.840    93587359.309          44.000
G04  24817531.299   130417016.025          40.000                                                                                                    24817540.072   101623773.646          35.000    24817545.558    97389215.635          37.000
G07  20485622.613   107652715.963          48.000    20485622.256   107652715.963          42.000    20485619.433    83885243.338          42.000    20485620.022    83885251.351          46.000
G08  23101472.852   121399212.195          42.000    23101472.227   121399212.195          40.000    23101472.477    94596884.941          40.000    23101474.550    94596876.945          41.000    23101472.620    90655346.127          47.000
G09  24271678.195   127548528.403          40.000    24271677.784   127548528.403          25.000    24271680.750    99388476.957          25.000    24271680.679    99388478.963          39.000    24271681.072    95247295.979          43.000
G14  24675436.828   129670304.789          40.000    24675436.774   129670304.789          22.000    24675435.863   101041812.743          22.000    24675436.113   101041802.744          38.000    24675439.419    96831748.261          41.000
G16  24811085.424   130383197.734          37.000    24811084.620   130383197.734          19.000    24811087.890   101597326.366          19.000
G17  23599492.833   124016255.639          40.000    23599492.493   124016255.639          28.000    23599491.117    96636068.494          28.000    23599491.868    96636068.496          38.000
G21  21026140.026   110493303.689          48.000    21026138.883   110493303.689          40.000    21026136.453    86098753.179          40.000
G27  25397307.741   133463757.988          30.000    25397307.009   133463757.988          23.000    25397307.527   103997739.618          23.000    25397309.510   103997741.548          36.000    25397308.492    99664488.908          44.000
G30  22333840.747   117365159.908          46.000    22333840.085   117365159.908          36.000    22333841.497    91453381.363          36.000    22333841.301    91453396.370          45.000    22333840.729    87642841.538          49.000
R13  22425681.592   119751915.444          32.000    22425681.092   119751907.438          31.000    22425687.453    93140408.119          37.000    22425688.204    93140415.116          40.000
R14  19512596.632   104013179.785          51.000    19512596.721   104013173.790          50.000    19512600.527    80899201.689          50.000    19512600.759    80899203.696          51.000
R15  21191656.015   113241813.373          48.000    21191656.766   113241813.382          48.000    21191659.785    88076997.098          48.000    21191660.107    88076994.104          47.000
R17  19591570.405   104838679.908          50.000    19591570.494   104838646.918          50.000    19591573.264    81541287.807          50.000    19591573.442    81541287.812          50.000
R18  20742699.744   110726108.701          49.000    20742700.012   110726106.701          48.000    20742703.996    86120397.862          48.000    20742704.229    86120399.872          48.000
E01  25077879.532   131785256.008          46.000    25077881.909   106968607.054          51.000    25077880.390   100978372.362          49.000    25077881.051    99694756.117          51.000    25077881.337    98411135.727          48.000
E04  27923699.862   146739976.435          39.000    27923705.044   119107122.801          40.000    27923705.526   112437119.622          40.000    27923706.706   111007840.621          42.000    27923707.456   109578554.473          39.000
E09  26453009.672   139011531.580          38.000    26453012.209   112834053.309          42.000    26453011.226   106515356.473          39.000    26453012.513   105161345.560          43.000    26453013.138   103807342.499          41.000
E11  26237539.847   137879242.405          34.000    26237540.972   111914987.493          39.000    26237541.276   105647757.714          37.000    26237542.170   104304784.738          39.000    26237542.473   102961806.618          36.000
E12  22251259.665   116931340.033          44.000    22251257.788    94911871.154          51.000    22251257.878    89596830.088          49.000    22251258.449    88457896.685          51.000    22251258.271    87318956.134          48.000
E21  28701020.462   150824883.687          32.000    28701030.880   122422858.336          35.000    28701032.238   115567175.266          38.000    28701033.417   114098108.480          41.000    28701034.668   112629026.549          38.000
E24  27663040.653   145370291.473          40.000    27663041.672   117995379.358          42.000    27663040.189   111387643.283          42.000    27663040.582   109971704.586          44.000    27663040.421   108555757.744          39.000
E26  28015558.862   147222747.396          33.000    28015560.810   119498991.470          40.000    28015557.969   112807036.154          39.000    28015558.951   111373049.650          42.000    28015559.094   109939064.003          38.000
E31  24481112.919   128649212.750          47.000    24481112.436   104423094.129          52.000    24481113.901    98575423.888          50.000    24481114.527    97322350.384          53.000    24481114.723    96069276.738          49.000
E33  24143494.366   126875106.697          48.000    24143495.527   102983122.781          53.000    24143493.705    97216091.161          51.000    24143494.080    95980309.897          54.000    24143494.294    94744515.488          50.000
C19  26002666.728   135402699.120          39.000    26002668.497   110025804.024          40.000
C20  27032612.142   140765908.026          39.000    27032615.823   114383831.925          39.000
C26  26098303.294   135900717.823          39.000    26098306.671   110430486.208          40.000
C29  22294092.856   116091358.682          50.000    22294094.179    94333817.235          53.000
C30  25747250.524   134072850.090          42.000    25747254.348   108945271.081          41.000
C35  22896077.010   119226018.529          50.000    22896078.994    96880981.587          51.000
C36  22458173.087   116945671.742          50.000    22458181.700    95028010.213          53.000
> 2022 01 01 00 00  2.0000000  0 34
G01  19848096.883   104302645.030          50.000    19848096.669   104302645.030          44.000    19848097.527    81274898.527          44.000    19848097.562    81274888.535          49.000    19848096.258    77888454.833          54.000
G03  23848257.186   125323447.231          34.000                                                                                                    23848264.530    97654695.374          40.000    23848265.871    93585645.761          39.000
G04  24817889.555   130418897.834          39.000                                                                                                    24817897.703   101625240.322          36.000    24817903.206    97390620.740          39.000
G07  20485433.309   107651721.206          48.000    20485432.951   107651721.206          42.000    20485430.146    83884468.205          42.000    20485430.789    83884476.219          46.000
G08  23101858.019   121401236.196          42.000    23101857.393   121401236.196          40.000    23101857.626    94598462.086          40.000    23101859.591    94598454.086          41.000    23101857.840    90656857.554          47.000
G09  24271998.783   127550213.489          40.000    24271998.354   127550213.489          25.000    24272001.446    99389790.012          25.000    24272001.446    99389792.008          39.000    24272001.732    95248554.325          43.000
G14  24674979.006   129667898.506          39.000    24674978.970   129667898.506          21.000    24674977.934   101039937.722          21.000    24674978.255   101039927.698          38.000    24674981.454    96829951.368          41.000
G16  24811399.793   130384850.535          37.000    24811398.989   130384850.535          19.000    24811402.402   101598614.252          19.000
G17  23599293.915   124015210.030          41.000    23599293.593   124015210.030          28.000    23599292.146    96635253.734          28.000    23599292.950    96635253.720          38.000
G21  21026565.792   110495541.174          48.000    21026564.666   110495541.174          40.000    21026562.236    86100496.673          40.000
G27  25397742.048   133466043.571          29.000    25397741.315   133466043.571          23.000    25397742.495   103999520.583          23.000    25397744.675   103999522.567          36.000    25397743.424    99666195.701          44.000
G30  22333381.817   117362747.542          46.000    22333381.155   117362747.542          36.000    22333382.424    91451501.595          36.000    22333382.138    91451516.600          45.000    22333381.656    87641040.099          49.000
R13  22426240.642   119754897.590          33.000    22426239.374   119754889.548          31.000    22426246.182    93142727.533          37.000    22426246.575    93142734.528          40.000
R14  19512540.684   104012881.209          50.000    19512540.684   104012875.211          50.000    19512544.525    80898969.456          50.000    19512544.740    80898971.459          51.000
R15  21191030.117   113238468.455          48.000    21191030.742   113238468.461          48.000    21191033.887    88074395.495          48.000    21191034.173    88074392.494          48.000
R17  19591872.677   104840297.425          50.000    19591872.677   104840264.433          50.000    19591875.536    81542545.862          50.000    19591875.733    81542545.869          50.000
R18  20742372.115   110724359.484          49.000    20742372.365   110724357.478          48.000    20742376.314    86119037.363          48.000    20742376.547    86119039.359          48.000
E01  25077968.877   131785725.297          46.000    25077971.182   106968987.968          51.000    25077969.664   100978731.947          49.000    25077970.361    99695111.134          51.000    25077970.646    98411486.174          48.000
E04  27923938.628   146741231.742          39.000    27923944.006   119108141.721          40.000    27923944.471   112438081.479          39.000    27923945.614   111008790.251          42.000    27923946.311   109579491.878          40.000
E09  26453242.827   139012757.502          37.000    26453245.436   112835048.375          42.000    26453244.578   106516295.823          39.000    26453245.829   105162272.969          43.000    26453246.329   103808257.964          40.000
E11  26237022.413   137876522.661          34.000    26237023.342   111912779.912          39.000    26237023.700   105645673.763          36.000    26237024.575   104302727.278          39.000    26237024.897   102959775.652          36.000
E12  22251047.184   116930223.437          44.000    22251045.308    94910964.828          51.000    22251045.379    89595974.524          49.000    22251045.951    88457051.992          51.000    22251045.826    87318122.315          48.000
E21  28701341.586   150826571.277          37.000    28701351.521   122424227.881          32.000    28701353.308   115568468.239          30.000    28701354.309   114099385.047          34.000    28701355.631   112630286.688          33.000
E24  27662637.260   145368172.042          40.000    27662638.404   117993659.033          42.000    27662636.903   111386019.299          42.000    27662637.296   109970101.245          44.000    27662637.081   108554175.051          39.000
E26  28016085.730   147225513.789          33.000    28016087.231   119501236.911          40.000    28016084.497   112809155.853          39.000    28016085.373   111375142.412          41.000    28016085.569   109941129.833          38.000
E31  24480841.434   128647786.101          47.000    24480840.934   104421936.136          52.000    24480842.417    98574330.741          50.000    24480843.043    97321271.133          53.000    24480843.257    96068211.382          49.000
E33  24143790.902   126876665.080          48.000    24143792.064   102984387.702          53.000    24143790.205    97217285.247          51.000    24143790.634    95981488.804          54.000    24143790.831    94745679.215          50.000
C19  26002470.669   135401677.940          39.000    26002472.313   110024974.179          41.000
C20  27032400.841   140764807.868          40.000    27032404.593   114382937.954          39.000
C26  26097720.621   135897683.278          39.000    26097723.855   110428020.403          40.000
C29  22294387.802   116092894.306          50.000    22294389.089    94335065.057          53.000
C30  25747748.158   134075441.499          42.000    25747752.107   108947376.811          41.000
C35  22895938.186   119225295.529          50.000    22895940.151    96880394.090          51.000
C36  22458416.999   116946941.778          50.000    22458425.612    95029042.224          53.000
> 2022 01 01 00 00  3.0000000  0 34
G01  19847998.479   104302127.792          50.000    19847998.282   104302127.792          44.000    19847999.104    81274495.487          44.000    19847999.122    81274485.497          49.000    19847997.835    77888068.584          53.000
G03  23847822.147   125321151.292          34.000    23847822.129   125321151.292          17.000                                                    23847828.526    97652907.193          31.000    23847830.510    93583931.925          35.000
G04  24818248.007   130420779.068          37.000                                                                                                    24818255.012   101626705.926          35.000    24818261.820    97392025.673          38.000
G07  20485244.040   107650726.639          48.000    20485243.665   107650726.639          42.000    20485240.877    83883693.216          42.000    20485241.521    83883701.223          46.000
G08  23102243.168   121403259.633          42.000    23102242.542   121403259.633          40.000    23102242.685    94600038.791          40.000    23102244.508    94600030.781          41.000    23102242.882    90658368.557          47.000
G09  24272319.425   127551898.009          40.000    24272319.014   127551898.009          25.000    24272322.052    99391102.618          25.000    24272322.087    99391104.623          39.000    24272322.373    95249812.233          43.000
G14  24674521.094   129665491.580          39.000    24674521.058   129665491.580          22.000    24674519.861   101038062.196          22.000    24674520.218   101038052.178          38.000    24674523.435    96828153.999          40.000
G16  24811714.324   130386503.061          38.000    24811713.520   130386503.061          19.000    24811716.826   101599901.918          19.000
G17  23599094.907   124014164.199          41.000    23599094.586   124014164.199          28.000    23599093.120    96634438.800          28.000    23599093.942    96634438.793          38.000
G21  21026991.539   110497778.661          48.000    21026990.395   110497778.661          40.000    21026988.001    86102240.168          40.000
G27                                                                                                                                                  25398179.428   104001303.075          36.000    25398178.231    99667902.010          44.000
G30  22332922.869   117360335.162          46.000    22332922.207   117360335.162          36.000    22332923.369    91449621.820          36.000    22332923.208    91449636.827          45.000    22332922.583    87639238.643          49.000
R13  22426799.228   119757879.720          32.000    22426797.781   119757871.702          32.000    22426804.446    93145046.961          37.000    22426804.982    93145053.958          40.000
R14  19512484.664   104012582.853          50.000    19512484.664   104012576.852          50.000    19512488.578    80898737.402          50.000    19512488.774    80898739.402          51.000
R15  21190404.201   113235123.266          48.000    21190404.719   113235123.275          48.000    21190407.971    88071793.688          48.000    21190408.203    88071790.683          47.000
R17  19592175.039   104841915.056          51.000    19592174.967   104841882.058          50.000    19592177.755    81543804.020          50.000    19592178.023    81543804.022          50.000
R18  20742044.451   110722610.471          48.000    20742044.683   110722608.468          48.000    20742048.668    86117677.024          48.000    20742048.900    86117679.024          48.000
E01  25078058.115   131786194.375          46.000    25078060.438   106969368.718          51.000    25078058.937   100979091.368          49.000    25078059.616    99695465.988          51.000    25078059.956    98411836.461          48.000
E04  27924177.304   146742486.333          39.000    27924182.808   119109160.046          40.000    27924183.165   112439042.775          40.000    27924184.362   111009739.327          43.000    27924185.095   109580428.737          40.000
E09  26453476.125   139013982.963          37.000    26453478.680   112836043.072          42.000    26453477.894   106517234.826          39.000    26453479.037   105163200.033          43.000    26453479.484   103809173.090          40.000
E11  26236504.265   137873802.606          34.000    26236505.677   111910572.094          39.000    26236505.963   105643589.561          37.000    26236506.946   104300669.581          39.000    26236507.267   102957744.453          36.000
E12  22250834.686   116929106.801          44.000    22250832.827    94910058.465          51.000    22250832.881    89595118.912          49.000    22250833.470    88456207.261          51.000    22250833.345    87317288.465          48.000
E21  28701662.800   150828258.637          37.000    28701672.467   122425597.446          40.000    28701673.825   115569760.873          32.000    28701674.861   114100661.249          34.000    28701676.291   112631546.465          29.000
E24  27662233.885   145366052.008          40.000    27662234.993   117991938.248          42.000    27662233.438   111384394.875          42.000    27662233.885   109968497.471          44.000    27662233.563   108552591.918          39.000
E26  28016612.187   147228279.750          33.000    28016613.599   119503482.024          40.000    28016610.901   112811275.230          38.000    28016611.723   111377234.844          41.000    28016612.027   109943195.323          38.000
E31  24480569.807   128646359.067          47.000    24480569.379   104420777.832          52.000    24480570.862    98573237.295          50.000    24480571.487    97320191.589          53.000    24480571.702    96067145.740          49.000
E33  24144087.439   126878223.331          48.000    24144088.582   102985652.519          53.000    24144086.706    97218479.231          51.000    24144087.153    95982667.613          54.000    24144087.349    94746842.844          50.000
C19  26002274.343   135400656.091          40.000    26002275.879   110024143.760          42.000
C20  27032189.325   140763707.186          40.000    27032193.149   114382043.576          40.000
C26  26097137.966   135894648.292          40.000    26097141.039   110425554.214          40.000
C29  22294682.641   116094429.650          50.000    22294683.946    94336312.648          53.000
C30  25748245.703   134078032.324          42.000    25748249.724   108949482.071          41.000
C35  22895799.308   119224572.409          50.000    22895801.273    96879806.504          51.000
C36  22458660.947   116948211.814          50.000    22458669.506    95030074.234          53.000
> 2022 01 01 00 00  4.0000000  0 34
G01  19847900.270   104301611.373          50.000    19847900.056   104301611.373          44.000    19847900.824    81274093.081          44.000    19847900.806    81274083.091          50.000    19847899.556    77887682.949          53.000
G03  23847385.106   125318855.265          39.000    23847385.124   125318855.265          17.000    23847390.521    97651077.270          17.000    23847392.254    97651118.571          38.000    23847394.934    93582218.137          37.000
G04  24818605.334   130422659.410          41.000                                                                                                    24818613.250   101628171.943          32.000    24818620.541    97393430.515          36.000
G07  20485054.914   107649732.809          48.000    20485054.557   107649732.809          42.000    20485051.769    83882918.802          42.000    20485052.395    83882926.812          46.000
G08  23102628.192   121405283.079          42.000    23102627.566   121405283.079          40.000    23102627.745    94601615.504          40.000    23102629.621    94601607.494          41.000    23102627.941    90659879.572          47.000
G09  24272640.138   127553582.535          41.000    24272639.727   127553582.535          25.000    24272642.622    99392415.233          25.000    24272642.533    99392417.220          39.000    24272642.944    95251070.143          43.000
G14  24674062.897   129663084.625          39.000    24674062.843   129663084.625          21.000    24674061.807   101036186.649          21.000    24674062.200   101036176.634          38.000    24674065.345    96826356.578          40.000
G16  24812028.962   130388155.872          38.000    24812028.175   130388155.872          19.000    24812031.374   101601189.811          19.000
G17  23598896.168   124013118.752          41.000    23598895.828   124013118.752          28.000    23598894.149    96633624.171          28.000    23598894.953    96633624.173          38.000
G21  21027417.447   110500016.724          48.000    21027416.321   110500016.724          40.000    21027413.891    86103984.115          40.000
G27                                                                                                                                                  25398614.128   104003083.500          37.000    25398613.038    99669608.264          44.000
G30  22332463.903   117357923.344          46.000    22332463.224   117357923.344          36.000    22332464.403    91447742.480          36.000    22332464.260    91447757.487          45.000    22332463.635    87637437.604          49.000
R13  22427357.617   119760862.411          32.000    22427356.474   119760854.432          31.000    22427363.246    93147366.841          37.000    22427363.389    93147373.852          40.000
R14  19512428.806   104012285.286          50.000    19512428.859   104012279.291          50.000    19512432.790    80898505.968          50.000    19512432.951    80898507.968          51.000
R15  21189778.177   113231778.399          48.000    21189778.785   113231778.405          48.000    21189782.001    88069192.120          48.000    21189782.216    88069189.117          47.000
R17  19592477.561   104843533.399          51.000    19592477.436   104843500.401          50.000    19592480.063    81545062.735          50.000    19592480.456    81545062.744          50.000
R18  20741716.912   110720862.253          49.000    20741717.215   110720860.256          48.000    20741721.218    86116317.306          48.000    20741721.415    86116319.306          48.000
E01  25078147.514   131786663.816          46.000    25078149.783   106969749.758          51.000    25078148.318   100979451.072          49.000    25078148.944    99695821.117          52.000    25078149.265    98412187.014          48.000
E04  27924415.927   146743740.824          39.000    27924421.592   119110178.297          40.000    27924421.895   112440003.980          40.000    27924423.075   111010688.313          42.000    27924423.789   109581365.504          39.000
E09  26453709.458   139015208.567          37.000    26453711.871   112837037.876          42.000    26453711.049   106518173.894          39.000    26453712.264   105164127.177          43.000    26453712.711   103810088.310          40.000
E11  26235986.832   137871082.833          34.000    26235988.279   111908364.489          39.000    26235988.404   105641505.588          37.000    26235989.369   104298612.099          39.000    26235989.709   102955713.463          36.000
E12  22250622.277   116927990.686          44.000    22250620.436    94909152.530          51.000    22250620.507    89594263.710          49.000    22250621.079    88455362.928          51.000    22250620.954    87316455.001          48.000
E21  28701984.067   150829946.268          37.000    28701993.770   122426967.317          43.000    28701995.056   115571054.013          38.000    28701996.218   114101937.921          40.000    28701997.129   112632806.680          35.000
E24  27661830.456   145363931.992          40.000    27661831.457   117990217.439          42.000    27661830.063   111382770.432          42.000    27661830.456   109966893.680          44.000    27661830.152   108551008.790          39.000
E26  28017138.377   147231045.873          33.000    28017140.003   119505727.241          40.000    28017137.287   112813394.716          39.000    28017138.073   111379327.393          41.000    28017138.412   109945260.930          38.000
E31  24480298.306   128644932.224          47.000    24480297.859   104419619.677          52.000    24480299.360    98572144.004          50.000    24480299.967    97319112.193          53.000    24480300.182    96066080.240          49.000
E33  24144384.118   126879782.031          48.000    24144385.208   102986917.700          53.000    24144383.332    97219673.567          51.000    24144383.761    95983846.761          54.000    24144383.957    94748006.810          50.000
C19  26002077.926   135399633.980          41.000    26002079.463   110023313.211          40.000
C20  27031977.935   140762606.597          40.000    27031981.741   114381149.260          39.000
C26  26096555.453   135891613.427          40.000    26096558.169   110423088.145          41.000
C29  22294977.516   116095965.279          50.000    22294978.838    94337560.474          53.000
C30  25748743.195   134080623.140          42.000    25748747.305   108951587.316          41.000
C35  22895660.573   119223849.747          50.000    22895662.485    96879219.274          51.000
C36  22458905.038   116949482.412          50.000    22458913.508    95031106.694          53.000
> 2022 01 01 00 00  5.0000000  0 34
G01  19847802.116   104301095.867          50.000    19847801.919   104301095.867          44.000    19847802.723    81273691.390          44.000    19847802.705    81273681.400          50.000    19847801.473    77887297.993          53.000
G03  23846947.726   125316559.447          39.000    23846947.726   125316559.447          17.000    23846953.695    97649288.412          17.000    23846956.822    97649330.378          38.000    23846958.698    93580504.253          42.000
G04  24818963.858   130424540.001          39.000    24818963.769   130424540.001           8.000    24818974.186   101629550.554           8.000    24818971.113   101629636.546          31.000    24818978.207    97394834.682          37.000
G07  20484866.057   107648739.818          48.000    20484865.699   107648739.818          42.000    20484862.822    83882145.043          42.000    20484863.412    83882153.049          46.000
G08  23103013.215   121407306.625          42.000    23103012.590   121407306.625          40.000    23103012.822    94603192.288          40.000    23103014.716    94603184.272          41.000    23103012.983    90661390.653          47.000
G09  24272960.762   127555267.126          40.000    24272960.333   127555267.126          25.000    24272963.139    99393727.892          25.000    24272963.210    99393729.900          40.000    24272963.514    95252328.120          43.000
G14  24673604.717   129660677.685          39.000    24673604.681   129660677.685          21.000    24673603.824   101034311.109          21.000    24673604.020   101034301.114          37.000    24673607.326    96824559.203          40.000
G16  24812343.939   130389809.087          37.000    24812343.153   130389809.087          19.000    24812345.958   101602478.020          19.000
G17  23598697.447   124012073.745          41.000    23598697.125   124012073.745          28.000    23598695.302    96632809.877          28.000    23598696.231    96632809.886          39.000
G21  21027843.445   110502255.444          48.000    21027842.319   110502255.444          40.000    21027839.889    86105728.570          40.000
G27                                                                                                                                                  25399049.006   104004863.955          37.000    25399047.898    99671314.515          44.000
G30  22332004.973   117355512.161          46.000    22332004.311   117355512.161          36.000    22332005.562    91445863.638          36.000    22332005.419    91445878.649          45.000    22332004.830    87635637.054          49.000
R13  22427915.720   119763845.803          32.000    22427915.149   119763837.844          31.000    22427921.653    93149687.262          37.000    22427922.100    93149694.252          40.000
R14  19512373.054   104011988.618          51.000    19512373.179   104011982.626          50.000    19512377.200    80898275.226          50.000    19512377.289    80898277.226          51.000
R15  21189152.333   113228433.955          48.000    21189152.958   113228433.970          48.000    21189156.228    88066590.891          48.000    21189156.353    88066587.888          47.000
R17  19592780.137   104845152.530          50.000    19592779.977   104845119.532          50.000    19592782.603    81546322.057          50.000    19592782.997    81546322.064          50.000
R18  20741389.551   110719114.923          49.000    20741389.891   110719112.923          48.000    20741393.965    86114958.267          48.000    20741394.126    86114960.263          49.000
E01  25078236.859   131787133.709          46.000    25078239.200   106970131.160          51.000    25078237.735   100979811.120          49.000    25078238.360    99696176.588          52.000    25078238.700    98412537.910          48.000
E04  27924654.675   146744995.251          39.000    27924660.214   119111196.484          40.000    27924660.679   112440965.160          40.000    27924661.805   111011637.272          42.000    27924662.555   109582302.240          39.000
E09  26453942.703   139016434.372          36.000    26453945.079   112838032.838          42.000    26453944.454   106519113.155          39.000    26453945.508   105165054.490          43.000    26453945.794   103811003.672          41.000
E11  26235469.166   137868363.386          34.000    26235470.703   111906157.152          39.000    26235471.007   105639421.874          37.000    26235471.882   104296554.875          39.000    26235472.168   102953682.726          36.000
E12  22250409.939   116926875.188          44.000    22250408.152    94908247.088          51.000    22250408.223    89593408.973          49.000    22250408.795    88454519.059          51.000    22250408.688    87315621.999          48.000
E21  28702305.638   150831634.383          33.000    28702315.144   122428337.535          42.000    28702316.359   115572347.544          40.000    28702317.753   114103215.005          42.000    28702318.396   112634067.318          38.000
E24  27661426.991   145361812.027          40.000    27661427.920   117988496.686          42.000    27661426.562   111381146.052          42.000    27661427.063   109965289.948          44.000    27661426.759   108549425.701          39.000
E26  28017664.798   147233812.215          33.000    28017666.478   119507972.637          40.000    28017663.601   112815514.388          38.000    28017664.494   111381420.113          41.000    28017664.727   109947326.692          38.000
E31  24480026.821   128643505.653          47.000    24480026.393   104418461.752          52.000    24480027.876    98571050.920          50.000    24480028.501    97318033.004          53.000    24480028.716    96065014.949          49.000
E33  24144680.815   126881341.261          48.000    24144681.923   102988183.309          53.000    24144680.029    97220868.302          51.000    24144680.476    95985026.311          54.000    24144680.654    94749171.175          50.000
C19  26001881.456   135398611.811          39.000    26001883.065   110022482.568          40.000
C20  27031766.544   140761506.180          40.000    27031770.422   114380255.135          39.000
C26  26095973.012   135888578.737          40.000    26095975.389   110420622.208          41.000
C29  22295272.533   116097501.292          50.000    22295273.820    94338808.608          53.000
C30  25749240.847   134083214.040          42.000    25749244.939   108953692.637          41.000
C35  22895521.980   119223127.625          51.000    22895523.821    96878632.496          51.000
C36  22459149.236   116950753.646          50.000    22459157.634    95032139.678          53.000
> 2022 01 01 00 00  6.0000000  0 34
G01  19847704.122   104300581.250          50.000    19847703.926   104300581.250          44.000    19847704.801    81273290.392          44.000    19847704.837    81273280.397          50.000    19847703.550    77886913.705          54.000
G03  23846510.829   125314263.690          37.000    23846510.793   125314263.690          19.000    23846516.868    97647499.506          19.000    23846520.389    97647541.964          40.000    23846522.712    93578790.755          39.000
G04  24819320.828   130426420.014          33.000    24819320.738   130426420.014           8.000    24819331.978   101631015.490           8.000    24819328.440   101631101.841          35.000    24819335.212    97396238.609          38.000
G07  20484677.253   107647747.654          48.000    20484676.877   107647747.654          42.000    20484674.018    83881371.931          42.000    20484674.572    83881379.932          46.000
G08  23103398.293   121409330.226          42.000    23103397.667   121409330.226          40.000    23103397.900    94604769.123          40.000    23103399.705    94604761.120          41.000    23103398.061    90662901.797          47.000
G09  24273281.314   127556951.825          40.000    24273280.886   127556951.825          25.000    24273283.691    99395040.642          25.000    24273283.852    99395042.645          39.000    24273284.102    95253586.160          43.000
G14  24673146.698   129658270.798          39.000    24673146.662   129658270.798          21.000    24673145.823   101032435.619          21.000    24673145.680   101032425.599          38.000    24673149.325    96822761.848          41.000
G16  24812658.595   130391462.672          37.000    24812657.826   130391462.672          19.000    24812660.578   101603766.514          19.000
G17  23598498.957   124011029.175          40.000    23598498.636   124011029.175          28.000    23598496.527    96631995.924          28.000    23598497.456    96631995.924          38.000
G21  21028269.531   110504494.813          48.000    21028268.406   110504494.813          40.000    21028266.011    86107473.535          40.000
G27                                                                                                                                                  25399483.599   104006644.375          37.000    25399482.777    99673020.763          44.000
G30  22331546.257   117353101.620          46.000    22331545.596   117353101.620          36.000    22331546.847    91443985.292          36.000    22331546.650    91444000.308          45.000    22331546.132    87633836.973          49.000
R13  22428474.270   119766829.937          33.000    22428473.663   119766821.913          31.000    22428480.792    93152008.220          37.000    22428480.900    93152015.226          40.000
R14  19512317.482   104011692.846          51.000    19512317.642   104011686.851          50.000    19512321.645    80898045.181          50.000    19512321.806    80898047.179          51.000
R15  21188526.702   113225089.941          48.000    21188527.167   113225089.956          48.000    21188530.509    88063989.989          48.000    21188530.580    88063986.991          47.000
R17  19593082.928   104846772.373          51.000    19593082.696   104846739.377          50.000    19593085.305    81547581.939          50.000    19593085.716    81547581.944          50.000
R18  20741062.369   110717368.458          49.000    20741062.655   110717366.455          48.000    20741066.801    86113599.908          48.000    20741066.997    86113601.904          49.000
E01  25078326.294   131787604.040          46.000    25078328.688   106970512.922          51.000    25078327.258   100980171.505          49.000    25078327.866    99696532.390          52.000    25078328.170    98412889.131          48.000
E04  27924893.530   146746249.622          39.000    27924898.820   119112214.633          40.000    27924899.338   112441926.290          40.000    27924900.517   111012586.185          42.000    27924901.339   109583238.935          39.000
E09  26454175.929   139017660.375          36.000    26454178.270   112839027.968          42.000    26454177.806   106520052.572          39.000    26454178.806   105165981.965          43.000    26454179.128   103811919.210          40.000
E11  26234951.876   137865644.306          34.000    26234953.234   111903950.102          39.000    26234953.645   105637338.405          37.000    26234954.449   104294497.886          39.000    26234954.735   102951652.222          36.000
E12  22250197.798   116925760.288          44.000    22250195.993    94907342.145          51.000    22250196.082    89592554.706          49.000    22250196.636    88453675.655          51.000    22250196.529    87314789.457          48.000
E21  28702627.459   150833323.217          25.000    28702636.501   122429708.068          39.000    28702637.716   115573641.324          37.000    28702639.145   114104492.366          40.000    28702639.789   112635328.260          37.000
E24  27661023.598   145359692.125          40.000    27661024.563   117986775.991          42.000    27661023.133   111379521.707          42.000    27661023.669   109963686.254          44.000    27661023.473   108547842.662          39.000
E26  28018191.398   147236578.769          34.000    28018192.935   119510218.229          40.000    28018190.022   112817634.230          38.000    28018190.969   111383513.009          41.000    28018191.112   109949392.645          38.000
E31  24479755.337   128642079.367          47.000    24479754.962   104417304.047          52.000    24479756.445    98569958.052          50.000    24479757.089    97316954.026          53.000    24479757.321    96063949.858          49.000
E33  24144977.620   126882901.021          48.000    24144978.745   102989449.342          53.000    24144976.833    97222063.438          52.000    24144977.280    95986206.255          54.000    24144977.459    94750335.922          50.000
C19  26001685.004   135397589.525          36.000    26001686.684   110021651.845          37.000
C20  27031555.082   140760405.938          38.000    27031559.085   114379361.084          40.000
C26  26095390.447   135885544.242          40.000    26095392.698   110418156.435          41.000
C29  22295567.587   116099037.665          50.000    22295568.855    94340057.040          53.000
C30  25749738.374   134085805.001          42.000    25749742.520   108955798.003          41.000
C35  22895383.406   119222406.032          51.000    22895385.247    96878046.142          51.000
C36  22459393.505   116952025.517          50.000    22459401.904    95033173.182          53.000
> 2022 01 01 00 00  7.0000000  0 34
G01  19847606.343   104300067.671          50.000    19847606.146   104300067.671          44.000    19847607.075    81272890.201          44.000    19847607.129    81272880.209          50.000    19847605.842    77886530.185          53.000
G03  23846073.735   125311968.162          38.000    23846073.663   125311968.162          19.000    23846080.114    97645710.946          19.000    23846083.974    97645753.970          39.000    23846085.278    93577076.785          46.000
G04  24819678.798   130428300.975          35.000                                                                                                    24819686.946   101632567.252          35.000    24819693.915    97397643.705          40.000
G07  20484488.663   107646756.442          48.000    20484488.306   107646756.442          42.000    20484485.393    83880599.555          42.000    20484485.947    83880607.568          46.000
G08  23103783.352   121411354.048          42.000    23103782.727   121411354.048          40.000    23103783.031    94606346.129          40.000    23103784.657    94606338.124          41.000    23103783.138    90664413.095          47.000
G09  24273602.081   127558636.703          40.000    24273601.652   127558636.703          25.000    24273604.351    99396353.537          25.000    24273604.583    99396355.535          39.000    24273604.708    95254844.343          43.000
G14  24672689.233   129655864.086          39.000    24672689.198   129655864.086          21.000    24672687.840   101030560.259          21.000    24672687.571   101030550.244          37.000    24672691.253    96820964.622          40.000
G16  24812973.215   130393116.753          37.000    24812972.446   130393116.753          19.000    24812975.287   101605055.399          19.000
G17  23598300.415   124009985.195          41.000    23598300.093   124009985.195          28.000    23598297.895    96631182.438          28.000    23598298.842    96631182.436          39.000
G21  21028695.851   110506734.968          48.000    21028694.725   110506734.968          40.000    21028692.295    86109219.110          40.000
G27                                                                                                                                                  25399918.138   104008424.906          38.000    25399917.584    99674727.095          44.000
G30  22331087.648   117350691.845          46.000    22331086.987   117350691.845          36.000    22331088.274    91442107.548          36.000    22331087.988    91442122.557          45.000    22331087.577    87632037.468          49.000
R13  22429032.820   119769814.826          33.000    22429032.659   119769806.808          32.000    22429040.129    93154329.802          37.000    22429039.896    93154336.781          40.000
R14  19512262.052   104011398.095          51.000    19512262.320   104011392.097          50.000    19512266.269    80897815.927          50.000    19512266.537    80897817.921          51.000
R15  21187901.179   113221746.483          48.000    21187901.447   113221746.495          48.000    21187904.718    88061389.514          48.000    21187904.878    88061386.511          48.000
R17  19593385.808   104848393.079          50.000    19593385.576   104848360.080          50.000    19593388.256    81548842.488          50.000    19593388.578    81548842.486          50.000
R18  20740735.456   110715622.989          49.000    20740735.759   110715620.986          48.000    20740739.905    86112242.323          49.000    20740740.066    86112244.316          48.000
E01  25078415.925   131788074.942          46.000    25078418.283   106970895.145          51.000    25078416.836   100980532.322          49.000    25078417.479    99696888.620          52.000    25078417.765    98413240.773          48.000
E04  27925132.386   146747504.093          39.000    27925137.639   119113232.868          40.000    27925138.104   112442887.490          40.000    27925139.247   111013535.161          43.000    27925139.998   109584175.693          39.000
E09  26454409.156   139018886.702          36.000    26454411.729   112840023.373          42.000    26454411.300   106520992.234          39.000    26454412.158   105166909.677          43.000    26454412.694   103812834.971          40.000
E11  26234434.478   137862925.674          34.000    26234435.979   111901743.437          39.000    26234436.426   105635255.320          37.000    26234437.123   104292441.293          39.000    26234437.427   102949622.117          36.000
E12  22249985.693   116924646.125          44.000    22249983.959    94906437.794          51.000    22249984.049    89591701.001          49.000    22249984.603    88452832.798          51.000    22249984.495    87313957.452          48.000
E21  28702948.673   150835012.464          30.000    28702957.804   122431079.037          33.000    28702959.340   115574935.472          37.000    28702960.627   114105770.022          40.000    28702961.431   112636589.422          37.000
E24  27660620.241   145357572.438          40.000    27660621.295   117985055.464          42.000    27660619.758   111377897.529          42.000    27660620.312   109962082.723          44.000    27660620.115   108546259.774          39.000
E26  28018718.088   147239345.675          34.000    28018719.499   119512464.104          41.000    28018716.551   112819754.334          38.000    28018717.480   111385606.160          41.000    28018717.605   109951458.841          38.000
E31  24479484.068   128640653.472          47.000    24479483.621   104416146.667          52.000    24479485.122    98568865.483          50.000    24479485.747    97315875.346          53.000    24479485.998    96062885.066          49.000
E33  24145274.567   126884461.437          48.000    24145275.657   102990715.912          53.000    24145273.763    97223259.079          51.000    24145274.210    95987386.700          54.000    24145274.388    94751501.170          50.000
C19  26001488.266   135396567.153          33.000    26001490.178   110020821.173          34.000
C20  27031343.656   140759305.870          36.000    27031347.819   114378467.307          40.000
C26  26094807.809   135882510.067          40.000    26094810.025   110415690.933          41.000
C29  22295862.765   116100574.536          50.000    22295863.998    94341305.873          53.000
C30  25750235.866   134088396.160          42.000    25750240.065   108957903.536          41.000
C35  22895244.975   119221685.100          51.000    22895246.780    96877460.323          51.000
C36  22459637.900   116953298.167          50.000    22459646.281    95034207.305          53.000
> 2022 01 01 00 00  8.0000000  0 34
G01  19847508.724   104299554.498          50.000    19847508.528   104299554.498          44.000    19847509.421    81272490.326          44.000    19847509.439    81272480.333          50.000    19847508.170    77886146.971          54.000
G03                                                                                                                                                  23845647.987    97643965.729          31.000    23845648.291    93575362.047          37.000
G04  24820036.214                          38.000                                                                                                    24820044.559   101634031.974          36.000    24820050.438    97399047.922          37.000
G07  20484300.091   107645765.578          48.000    20484299.716   107645765.578          42.000    20484296.857    83879827.456          42.000    20484297.375    83879835.457          46.000
G08  23104168.609   121413377.473          42.000    23104167.965   121413377.473          40.000    23104168.090    94607922.827          40.000    23104169.663    94607914.819          41.000    23104168.198    90665924.092          47.000
G09  24273922.866   127560321.194          40.000    24273922.455   127560321.194          25.000    24273924.885    99397666.115          25.000    24273925.296    99397668.105          39.000    24273925.296    95256102.242          43.000
G14  24672231.250   129653456.891          39.000    24672231.215   129653456.891          21.000    24672229.767   101028684.518          21.000    24672229.195   101028674.507          37.000    24672233.109    96819167.036          41.000
G16  24813288.513   130394770.749          37.000    24813287.745   130394770.749          19.000    24813290.032   101606344.225          19.000
G17  23598101.854   124008941.148          40.000    23598101.533   124008941.148          28.000    23598099.299    96630368.899          28.000    23598100.014    96630368.911          39.000
G21  21029122.241   110508975.287          48.000    21029121.116   110508975.287          40.000    21029118.614    86110964.816          40.000
G27                                                                                                                                                  25400352.587   104010205.050          38.000    25400352.301    99676433.075          44.000
G30  22330629.201   117348282.237          46.000    22330628.540   117348282.237          36.000    22330629.737    91440229.931          36.000    22330629.290    91440244.934          45.000    22330629.040    87630238.079          49.000
R13  22429591.728   119772799.935          32.000    22429591.924   119772791.911          32.000    22429599.626    93156651.531          37.000    22429598.964    93156658.523          40.000
R14  19512206.712   104011103.748          50.000    19512207.105   104011097.759          50.000    19512211.054    80897586.996          50.000    19512211.340    80897588.996          51.000
R15  21187275.388   113218402.913          48.000    21187275.746   113218402.925          48.000    21187278.926    88058788.972          48.000    21187279.230    88058785.967          48.000
R17  19593688.652   104850014.062          50.000    19593688.420   104849981.073          50.000    19593691.154    81550103.254          50.000    19593691.493    81550103.263          50.000
R18  20740408.595   110713877.904          49.000    20740408.899   110713875.898          48.000    20740412.991    86110885.039          49.000    20740413.170    86110887.035          49.000
E01  25078505.484   131788545.804          46.000    25078507.843   106971277.341          51.000    25078506.431   100980893.110          49.000    25078507.092    99697244.824          52.000    25078507.396    98413592.392          48.000
E04  27925371.080   146748758.018          39.000    27925376.387   119114250.659          40.000    27925376.727   112443848.278          40.000    27925377.888   111014483.739          43.000    27925378.639   109585112.055          39.000
E09  26454642.418   139020112.767          36.000    26454645.009   112841018.558          42.000    26454644.598   106521931.673          39.000    26454645.492   105167837.184          43.000    26454646.010   103813750.544          40.000
E11  26233917.134   137860206.896          35.000    26233918.653   111899536.639          39.000    26233918.993   105633172.112          37.000    26233919.743   104290384.555          39.000    26233920.172   102947591.858          36.000
E12  22249773.766   116923532.103          44.000    22249771.943    94905533.545          51.000    22249772.033    89590847.390          49.000    22249772.622    88451990.039          51.000    22249772.533    87313125.541          48.000
E21  28703269.779   150836701.395          34.000    28703279.249   122432449.467          34.000    28703280.500   115576229.126          31.000    28703281.912   114107047.256          33.000    28703283.002   112637850.227          30.000
E24  27660216.901   145355452.323          40.000    27660217.812   117983334.588          42.000    27660216.311   111376273.027          42.000    27660216.883   109960478.871          44.000    27660216.687   108544676.567          39.000
E26  28019244.813   147242112.341          35.000    28019246.117   119514709.767          41.000    28019242.901   112821874.231          38.000    28019243.937   111387699.113          41.000    28019244.080   109953524.849          38.000
E31  24479212.691   128639227.371          47.000    24479212.226   104414989.113          52.000    24479213.745    98567772.751          50.000    24479214.371    97314796.510          53.000    24479214.603    96061820.125          49.000
E33  24145571.515   126886021.877          48.000    24145572.587   102991982.507          53.000    24145570.728    97224454.745          51.000    24145571.157    95988567.164          54.000    24145571.354    94752666.436          50.000
C19  26001291.671   135395544.344          35.000    26001293.816   110019990.067          34.000
C20  27031132.569   140758205.464          37.000    27031136.464   114377573.182          38.000
C26  26094224.832   135879475.612          40.000    26094227.352   110413225.178          41.000
C29  22296157.908   116102111.302          50.000    22296159.159    94342554.619          53.000
C30  25750733.411   134090986.909          42.000    25750737.485   108960008.727          41.000
C35  22895106.544   119220964.220          51.000    22895108.348    96876874.551          51.000
C36  22459882.312   116954570.968          50.000    22459890.711    95035241.563          53.000
> 2022 01 01 00 00  9.0000000  0 34
G01  19847411.249   104299042.510          50.000    19847411.034   104299042.510          44.000    19847411.981    81272091.374          44.000    19847411.981    81272081.384          50.000    19847410.766    77885764.649          54.000
G03  23845199.189   125307376.202          27.000    23845199.207   125307376.202          17.000    23845206.247    97642132.768          17.000    23845210.607    97642176.830          33.000    23845210.464    93573647.689          42.000
G04  24820393.594                          40.000                                                                                                    24820403.119   101635496.900          34.000    24820406.585    97400450.739          38.000
G07  20484111.734   107644775.833          48.000    20484111.376   107644775.833          42.000    20484108.499    83879056.224          42.000    20484109.071    83879064.229          46.000
G08  23104553.865   121415401.266          42.000    23104553.239   121415401.266          40.000    23104553.221    94609499.808          40.000    23104554.633    94609491.802          41.000    23104553.311    90667435.365          47.000
G09  24274243.472   127562006.060          40.000    24274243.043   127562006.060          25.000    24274245.581    99398978.991          25.000    24274246.027    99398980.983          40.000    24274245.866    95257360.404          43.000
G14  24671773.231   129651050.039          39.000    24671773.196   129651050.039          21.000    24671771.748   101026809.047          21.000    24671771.319   101026799.059          37.000    24671775.036    96817369.712          40.000
G16  24813603.509   130396425.409          37.000    24813602.722   130396425.409          19.000    24813604.902   101607633.556          19.000
G17  23597903.097   124007897.852          40.000    23597902.775   124007897.852          28.000    23597900.810    96629555.944          28.000    23597901.489    96629555.948          39.000
G21  21029548.775   110511216.548          48.000    21029547.649   110511216.548          40.000    21029545.130    86112711.253          40.000
G27                                                                                                                                                  25400787.233   104011985.436          38.000    25400787.019    99678139.257          45.000
G30  22330170.753   117345873.545          46.000    22330170.092   117345873.545          36.000    22330171.396    91438353.028          36.000    22330171.003    91438368.031          45.000    22330170.699    87628439.387          49.000
R13  22430150.224   119775785.951          33.000    22430151.099   119775777.974          32.000    22430158.604    93158973.988          38.000    22430158.193    93158980.980          40.000
R14  19512151.764   104010810.595          50.000    19512152.104   104010804.601          50.000    19512156.017    80897358.981          50.000    19512156.357    80897360.984          51.000
R15  21186649.687   113215060.025          48.000    21186650.169   113215060.043          48.000    21186653.278    88056188.943          48.000    21186653.564    88056185.944          48.000
R17  19593991.621   104851636.131          50.000    19593991.496   104851603.139          50.000    19593994.338    81551364.867          50.000    19593994.606    81551364.867          50.000
R18  20740081.878   110712133.958          49.000    20740082.271   110712131.958          48.000    20740086.381    86109528.639          49.000    20740086.488    86109530.635          49.000
E01  25078595.187   131789017.390          46.000    25078597.599   106971660.119          51.000    25078596.205   100981254.460          49.000    25078596.813    99697601.576          52.000    25078597.134    98413944.549          48.000
E04  27925609.488   146750012.187          39.000    27925615.189   119115268.639          41.000    27925615.439   112444809.251          40.000    27925616.565   111015432.491          43.000    27925617.315   109586048.590          39.000
E09  26454875.948   139021339.308          36.000    26454878.450   112842014.132          42.000    26454878.003   106522871.497          39.000    26454878.915   105168765.058          43.000    26454879.361   103814666.467          40.000
E11  26233400.076   137857488.752          35.000    26233401.577   111897330.365          39.000    26233401.828   105631089.375          37.000    26233402.542   104288328.300          40.000    26233402.918   102945562.080          36.000
E12  22249561.964   116922418.955          44.000    22249560.124    94904630.023          51.000    22249560.213    89589994.466          49.000    22249560.803    88451147.954          51.000    22249560.696    87312294.297          48.000
E21  28703591.046   150838391.000          29.000    28703600.838   122433820.812          39.000    28703602.107   115577523.671          38.000    28703603.554   114108325.332          41.000    28703604.627   112639111.842          38.000
E24  27659813.454   145353332.553          40.000    27659814.437   117981613.994          42.000    27659812.936   111374648.786          42.000    27659813.490   109958875.280          44.000    27659813.258   108543093.624          39.000
E26  28019771.181   147244879.508          35.000    28019772.682   119516955.858          41.000    28019769.465   112823994.523          38.000    28019770.537   111389792.464          41.000    28019770.662   109955591.249          38.000
E31  24478941.421   128637801.825          47.000    24478940.957   104413832.016          52.000    24478942.493    98566680.450          50.000    24478943.101    97313718.093          53.000    24478943.315    96060755.594          49.000
E33  24145868.623   126887583.135          48.000    24145869.677   102993249.763          53.000    24145867.819    97225651.037          51.000    24145868.248    95989748.249          54.000    24145868.462    94753832.313          50.000
C19  26001095.416   135394521.748          36.000    26001097.632   110019159.213          36.000
C20  27030921.446   140757105.559          39.000    27030925.288   114376679.362          37.000
C26  26093641.981   135876441.646          40.000    26093644.822   110410759.825          41.000
C29  22296453.158   116103648.711          50.000    22296454.391    94343803.894          52.000
C30  25751230.866   134093578.021          42.000    25751234.958   108962114.216          40.000
C35  22894968.273   119220244.162          51.000    22894970.060    96876289.446          51.000
C36  22460126.868   116955844.697          50.000    22460135.320    95036276.570          53.000
> 2022 01 01 00 00 10.0000000  0 34
G01  19847313.827   104298530.736          50.000    19847313.630   104298530.736          44.000    19847314.595    81271692.592          44.000    19847314.631    81271682.599          49.000    19847313.362    77885382.478          54.000
G03  23844762.452                          35.000                                                                                                    23844772.584    97640388.038          34.000    23844773.102    93571933.501          40.000
G04  24820751.082                          41.000                                                                                                    24820759.766   101636961.436          32.000    24820762.786    97401854.001          38.000
G07  20483923.448   107643786.219          48.000    20483923.073   107643786.219          42.000    20483920.196    83878285.099          42.000    20483920.750    83878293.097          46.000
G08  23104938.835   121417424.468          42.000    23104938.192   121417424.468          40.000    23104938.227    94611076.327          40.000    23104939.693    94611068.317          41.000    23104938.317    90668946.200          47.000
G09  24274563.613   127563690.290          40.000    24274563.202   127563690.290          25.000    24274566.169    99400291.371          25.000    24274566.455    99400293.377          39.000    24274566.401    95258618.119          43.000
G14  24671314.891   129648642.514          39.000    24671314.855   129648642.514          21.000    24671313.587   101024933.051          21.000    24671313.533   101024923.059          37.000    24671316.892    96815571.898          41.000
G16  24813918.593   130398079.739          38.000    24813917.825   130398079.739          19.000    24813919.665   101608922.631          19.000
G17  23597704.697   124006854.291          41.000    23597704.358   124006854.291          28.000    23597702.249    96628742.782          28.000    23597703.125    96628742.793          39.000
G21  21029975.255   110513457.774          48.000    21029974.129   110513457.774          40.000    21029971.610    86114457.663          40.000
G27                                                                                                                                                  25401222.130   104013765.248          39.000    25401221.611    99679844.939          45.000
G30  22329712.377   117343464.803          46.000    22329711.716   117343464.803          36.000    22329713.002    91436476.087          36.000    22329712.573    91436491.096          45.000    22329712.323    87626640.648          49.000
R13  22430709.185   119778771.991          33.000    22430710.293   119778763.981          32.000    22430717.601    93161296.435          37.000    22430717.404    93161303.441          40.000
R14  19512096.781   104010517.621          50.000    19512097.103   104010511.632          50.000    19512101.141    80897131.117          50.000    19512101.374    80897133.122          51.000
R15  21186023.949   113211716.828          48.000    21186024.432   113211716.837          48.000    21186027.684    88053588.672          48.000    21186027.898    88053585.671          48.000
R17  19594294.734   104853258.250          50.000    19594294.573   104853225.261          50.000    19594297.503    81552626.518          50.000    19594297.718    81552626.530          50.000
R18  20739755.143   110710390.163          49.000    20739755.608   110710388.163          48.000    20739759.628    86108172.352          49.000    20739759.825    86108174.360          49.000
E01  25078684.853   131789488.733          46.000    25078687.284   106972042.703          51.000    25078685.908   100981615.617          49.000    25078686.515    99697958.148          52.000    25078686.819    98414296.532          48.000
E04  27925847.951   146751265.613          39.000    27925853.829   119116286.009          40.000    27925853.990   112445769.655          40.000    27925855.098   111016380.693          43.000    27925855.741   109586984.590          39.000
E09  26455109.068   139022565.391          37.000    26455111.641   112843009.312          42.000    26455111.301   106523810.958          39.000    26455112.213   105169692.571          43.000    26455112.624   103815582.029          40.000
E11  26232882.822   137854770.267          34.000    26232884.323   111895123.786          40.000    26232884.502   105629006.363          37.000    26232885.216   104286271.773          39.000    26232885.592   102943532.036          36.000
E12  22249350.127   116921305.728          44.000    22249348.287    94903726.430          51.000    22249348.376    89589141.478          49.000    22249348.966    88450305.812          51.000    22249348.841    87311462.998          48.000
E21                                                  28703922.695   122435191.456          30.000    28703923.839   115578817.823          34.000    28703925.090   114109603.039          37.000    28703926.144   112640373.107          35.000
E24  27659409.972   145351212.186          41.000    27659410.919   117979892.909          42.000    27659409.436   111373024.073          42.000    27659410.007   109957271.224          44.000    27659409.829   108541510.231          39.000
E26  28020297.745   147247646.215          35.000    28020299.121   119519201.540          41.000    28020296.172   112826114.488          38.000    28020297.012   111391885.471          41.000    28020297.119   109957657.309          38.000
E31  24478670.116   128636375.862          47.000    24478669.616   104412674.579          52.000    24478671.134    98565587.831          50.000    24478671.742    97312639.364          53.000    24478671.974    96059690.754          49.000
E33  24146165.642   126889144.227          48.000    24146166.785   102994516.885          53.000    24146164.891    97226847.197          52.000    24146165.320    95990929.204          54.000    24146165.552    94754998.063          50.000
C19  26000898.839   135393498.427          38.000    26000901.126   110018327.592          41.000
C20  27030710.181   140756005.165          38.000    27030713.916   114375785.138          37.000
C26  26093058.879   135873407.171          40.000    26093062.202   110408294.073          41.000
C29  22296748.318   116105185.811          50.000    22296749.551    94345052.914          53.000
C30  25751728.161   134096168.520          42.000    25751732.361   108964219.206          40.000
C35  22894829.967   119219523.948          51.000    22894831.772    96875704.213          51.000
C36  22460371.477   116957118.377          50.000    22460379.911    95037311.539          53.000